     2.11           OBSERVATION DATA    M (MIXED)           RINEX VERSION / TYPE
teqc  2015Nov6      NOAA/NOS/NGS/CORS   20160323 23:45:28UTCPGM / RUN BY / DATE
Solaris x86 5.10|AMD64|cc SC5.8 -xarch=amd64|=+|=+          COMMENT
Spider V5.3.1.6235                      2016 03 23 22:59    COMMENT
BIT 2 OF LLI FLAGS DATA COLLECTED UNDER A/S CONDITION       COMMENT
SNR is mapped to RINEX snr flag value [1-9]                 COMMENT
LX:    >= 25dBHz -> 1; 26-27dBHz -> 2; 28-31dBHz -> 3       COMMENT
       32-35dBHz -> 4; 36-38dBHz -> 5; 39-41dBHz -> 6       COMMENT
       42-44dBHz -> 7; 45-48dBHz -> 8; >= 49dBHz -> 9       COMMENT
CAPO                                                        MARKER NAME
3215                                                        MARKER NUMBER
SmartNet  NA        SMRTNT                                  OBSERVER / AGENCY
353424              LEICA GRX1200GGPRO  9.20/3.823          REC # / TYPE / VERS
200005              LEIAT504GG      LEIS                    ANT # / TYPE
 -2693674.7660 -4273831.4480  3880383.2100                  APPROX POSITION XYZ
        0.0000        0.0000        0.0000                  ANTENNA: DELTA H/E/N
     1     1                                                WAVELENGTH FACT L1/2
     4    C1    L1    P2    L2                              # / TYPES OF OBSERV
     1.0000                                                 INTERVAL
teqc windowed: start @ 2016 Mar 23 21:00:00.000             COMMENT
teqc windowed: delta = 3600.000 sec                         COMMENT
teqc edited: all SBAS satellites excluded                   COMMENT
teqc edited: all Compass satellites excluded                COMMENT
teqc edited: all QZSS satellites excluded                   COMMENT
  2016     3    23    21     0    0.0000000     GPS         TIME OF FIRST OBS
    17                                                      LEAP SECONDS
                                                            END OF HEADER
 16  3 23 21  0  0.0000000  0 17G03G05G07G08G09G16G23G27G28G30R01R02
                                R08R10R11R20R21
  24796342.320   130305654.375 7  24796350.780   101536910.34844
  25190885.640   132378983.006 6  25190888.160   103152461.29945
  21051150.540   110624620.259 9  21051150.260    86201008.51149
  23421564.560   123081202.207 8  23421569.400    95907479.42146
  20185617.780   106076176.016 9  20185619.020    82656791.17049
  23130311.660   121550668.474 8  23130312.240    94714828.27745
  20937631.020   110028009.908 9  20937628.860    85736089.91848
  23236950.980   122111060.630 8  23236954.460    95151519.20447
  24745795.000   130040039.748 5  24745801.000   101329927.53244
  22689126.620   119232196.073 8  22689129.940    92908238.72547
  19696900.600   105291228.038 9  19696908.880    81893217.520 8
  20421021.260   108970512.591 9  20421028.640    84754884.153 8
  22976858.540   123039947.813 8  22976866.840    95697727.605 7
  23872573.280   127254241.125 7  23872585.300    98975574.935 4
  20160733.800   107732910.451 9
  23805155.520   127296861.400 5  23805164.340    99008704.552 6
  23917054.600   127984992.890 8  23917063.100    99543929.943 6
 16  3 23 21  0  1.0000000  0 17G03G05G07G08G09G16G23G27G28G30R01R02
                                R08R10R11R20R21
  24797051.340   130309380.217 6  24797059.760   101539813.58644
  25190350.480   132376170.758 6  25190353.020   103150269.92645
  21050940.380   110623515.850 9  21050940.100    86200147.93349
  23421105.600   123078790.456 8  23421110.440    95905600.13746
  20185562.900   106075887.583 9  20185564.120    82656566.41849
  23130937.160   121553955.559 8  23130937.740    94717389.64445
  20937922.440   110029541.438 9  20937920.300    85737283.31848
  23236742.920   122109967.214 8  23236746.380    95150667.18847
  24745116.520   130036474.432 5  24745122.580   101327149.41242
  22688698.080   119229944.161 8  22688701.420    92906483.99347
  19697284.620   105293280.776 9  19697292.900    81894814.089 8
  20420560.800   108968055.411 9  20420568.160    84752973.015 8
  22977674.080   123044315.119 8  22977682.420    95701124.392 6
  23873217.000   127257672.589 7  23873229.040    98978243.853 4
  20161115.200   107734948.614 9
  23804991.280   127295983.359 5  23805000.160    99008021.626 6
  23916493.240   127981988.873 8  23916501.740    99541593.480 6
 16  3 23 21  0  2.0000000  0 17G03G05G07G08G09G16G23G27G28G30R01R02
                                R08R10R11R20R21
  24797760.380   130313106.231 7  24797768.860   101542716.96044
  25189815.420   132373358.970 6  25189817.980   103148078.93345
  21050730.280   110622411.754 9  21050730.000    86199287.59949
  23420646.740   123076379.102 8  23420651.580    95903721.16146
  20185508.120   106075599.715 9  20185509.340    82656342.10649
  23131562.760   121557243.051 8  23131563.320    94719951.32645
  20938214.000   110031073.525 9  20938211.840    85738477.15048
  23236534.980   122108874.456 8  23236538.440    95149815.68447
  24744438.120   130032909.301 4  24744444.180   101324371.43044
  22688269.600   119227692.552 8  22688272.960    92904729.49447
  19697668.780   105295334.401 9  19697677.060    81896411.353 8
  20420100.480   108965599.034 9  20420107.840    84751062.499 8
  22978489.700   123048682.681 8  22978498.040    95704521.376 6
  23873860.760   127261104.062 7  23873872.760    98980912.772 4
  20161496.680   107736987.149 9
  23804827.240   127295106.116 5  23804836.120    99007339.323 6
  23915931.940   127978985.208 7  23915940.420    99539257.293 6
 16  3 23 21  0  3.0000000  0 17G03G05G07G08G09G16G23G27G28G30R01R02
                                R08R10R11R20R21
  24798469.420   130316832.206 7  24798477.900   101545620.30144
  25189280.420   132370547.602 6  25189283.000   103145888.26945
  21050520.240   110621307.976 9  21050519.940    86198427.51049
  23420187.920   123073968.123 8  23420192.800    95901842.48946
  20185453.460   106075312.401 9  20185454.680    82656118.22349
  23132188.400   121560530.920 8  23132188.980    94722513.29545
  20938505.640   110032606.153 9  20938503.500    85739671.40648
  23236327.140   122107782.328 8  23236330.640    95148964.67546
  24743759.720   130029344.361 4  24743765.660   101321593.56944
  22687841.200   119225441.211 8  22687844.520    92902975.20947
  19698053.140   105297388.905 9  19698061.400    81898009.299 8
  20419640.280   108963143.401 9  20419647.660    84749152.565 8
  22979305.360   123053050.509 8  22979313.720    95707918.563 6
  23874504.480   127264535.521 7  23874516.500    98983581.683 4
  20161878.240   107739026.060 9
  23804663.400   127294229.687 5  23804672.220    99006657.659 6
  23915370.680   127975981.902 7  23915379.200    99536921.386 6
 16  3 23 21  0  4.0000000  0 17G03G05G07G08G09G16G23G27G28G30R01R02
                                R08R10R11R20R21
  24799178.460   130320558.210 6  24799186.920   101548523.67545
  25188745.520   132367736.641 6  25188748.060   103143697.91045
  21050310.260   110620204.466 9  21050309.960    86197567.63449
  23419729.180   123071557.475 8  23419734.080    95899964.06246
  20185398.880   106075025.592 9  20185400.100    82655894.73749
  23132814.120   121563819.127 8  23132814.720    94725075.53945
  20938797.380   110034139.273 9  20938795.240    85740866.04548
  23236119.420   122106690.760 8  23236122.940    95148114.10946
  24743081.340   130025779.524 4  24743087.320   101318815.77845
  22687412.820   119223190.093 8  22687416.140    92901221.09346
  19698437.620   105299444.246 9  19698445.900    81899607.893 8
  20419180.220   108960688.465 9  20419187.600    84747243.170 8
  22980121.060   123057418.583 8  22980129.460    95711315.943 7
  23875148.180   127267966.930 7  23875160.240    98986250.554 4
  20162259.860   107741065.306 9
  23804499.660   127293354.091 5  23804508.500    99005976.643 5
  23914809.500   127972978.915 7  23914818.020    99534585.729 6
 16  3 23 21  0  5.0000000  0 17G03G05G07G08G09G16G23G27G28G30R01R02
                                R08R10R11R20R21
  24799887.520   130324284.146 6  24799895.940   101551426.99345
  25188210.680   132364926.009 6  25188213.200   103141507.79545
  21050100.300   110619101.184 9  21050100.020    86196707.93849
  23419270.500   123069147.130 8  23419275.420    95898085.87346
  20185344.380   106074739.247 9  20185345.600    82655671.60949
  23133439.900   121567107.646 8  23133440.480    94727638.01845
  20939089.220   110035672.848 9  20939087.080    85742061.03648
  23235911.820   122105599.783 8  23235915.340    95147263.99946
  24742403.020   130022214.825 5  24742408.860   101316038.07943
  22686984.480   119220939.161 8  22686987.780    92899467.12447
  19698822.280   105301500.378 9  19698830.560    81901207.109 8
  20418720.300   108958234.196 9  20418727.680    84745334.294 8
  22980936.820   123061786.887 8  22980945.220    95714713.503 7
  23875791.880   127271398.194 7  23875803.940    98988919.311 4
  20162641.540   107743104.845 9
  23804336.060   127292479.200 5  23804344.880    99005296.183 6
  23914248.380   127969976.267 7  23914256.900    99532250.339 6
 16  3 23 21  0  6.0000000  0 17G03G05G07G08G09G16G23G27G28G30R01R02
                                R08R10R11R20R21
  24800596.580   130328010.229 6  24800605.020   101554330.40145
  25187675.920   132362115.911 6  25187678.480   103139318.11044
  21049890.420   110617998.297 9  21049890.140    86195848.54548
  23418811.920   123066737.234 8  23418816.820    95896208.04046
  20185290.020   106074453.565 9  20185291.240    82655449.00049
  23134065.780   121570396.623 8  23134066.340    94730200.85545
  20939381.160   110037207.060 9  20939379.020    85743256.52648
  23235704.320   122104509.511 8  23235707.860    95146414.43846
  24741724.700   130018650.395 4  24741730.640   101313260.58643
  22686556.200   119218688.590 8  22686559.520    92897713.43246
  19699207.100   105303557.477 9  19699215.380    81902807.073 8
  20418260.540   108955780.796 9  20418267.920    84743426.096 8
  22981752.640   123066155.580 8  22981761.060    95718111.365 6
  23876435.620   127274829.568 7  23876447.680    98991588.151 4
  20163023.280   107745144.847 9
  23804172.600   127291605.247 5  23804181.460    99004616.453 5
  23913687.340   127966974.077 8  23913695.880    99529915.304 6
 16  3 23 21  0  7.0000000  0 17G03G05G07G08G09G16G23G27G28G30R01R02
                                R08R10R11R20R21
  24801305.640   130331736.446 6  24801314.160   101557233.95144
  25187141.300   132359306.408 6  25187143.880   103137128.89945
  21049680.640   110616895.885 9  21049680.340    86194989.52348
  23418353.420   123064327.847 8  23418358.320    95894330.60046
  20185235.800   106074168.569 9  20185237.000    82655226.92549
  23134691.740   121573686.144 8  23134692.340    94732764.11445
  20939673.240   110038741.964 9  20939671.100    85744452.55548
  23235497.000   122103420.002 8  23235500.540    95145565.47146
  24741046.460   130015086.330 5  24741052.380   101310483.43844
  22686128.000   119216438.457 8  22686131.320    92895960.08247
  19699592.120   105305615.598 9  19699600.400    81904407.833 7
  20417800.940   108953328.323 9  20417808.340    84741518.619 8
  22982568.520   123070524.674 8  22982576.980    95721509.540 6
  23877079.360   127278261.046 7  23877091.400    98994257.070 4
  20163405.140   107747185.397 9
  23804009.400   127290732.266 5  23804018.200    99003937.465 5
  23913126.400   127963972.381 7  23913134.960    99527580.660 6
 16  3 23 21  0  8.0000000  0 17G03G05G07G08G09G16G23G27G28G30R01R02
                                R08R10R11R20R21
  24802014.760   130335462.744 6  24802023.240   101560137.56644
  25186606.760   132356497.340 6  25186609.400   103134940.01744
  21049470.920   110615793.781 9  21049470.620    86194130.74049
  23417895.000   123061918.836 8  23417899.900    95892453.44946
  20185181.660   106073884.137 9  20185182.880    82655005.28649
  23135317.800   121576976.033 8  23135318.380    94735327.65945
  20939965.440   110040277.412 9  20939963.300    85745649.00448
  23235289.800   122102331.130 8  23235293.340    95144717.00346
  24740368.280   130011522.410 5  24740374.140   101307706.38044
  22685699.860   119214188.561 8  22685703.160    92894206.91747
  19699977.300   105307674.581 9  19699985.560    81906009.261 8
  20417341.500   108950876.631 9  20417348.900    84739611.748 8
  22983384.480   123074894.028 8  22983392.940    95724907.914 6
  23877723.080   127281692.529 7  23877735.160    98996925.995 4
  20163787.080   107749226.312 9
  23803846.340   127289860.080 5  23803855.100    99003259.096 6
  23912565.560   127960971.069 8  23912574.100    99525246.310 6
 16  3 23 21  0  9.0000000  0 17G03G05G07G08G09G16G23G27G28G30R01R02
                                R08R10R11R20R21
  24802723.800   130339188.772 6  24802732.260   101563040.94845
  25186072.220   132353688.471 6  25186074.860   103132751.29244
  21049261.200   110614691.768 9  21049260.920    86193272.02948
  23417436.600   123059509.978 8  23417441.520    95890576.41846
  20185127.600   106073600.027 9  20185128.820    82654783.90349
  23135943.860   121580266.100 8  23135944.480    94737891.34845
  20940257.680   110041813.178 9  20940255.540    85746845.70548
  23235082.680   122101242.689 8  23235086.220    95143868.86946
  24739690.080   130007958.479 5  24739695.980   101304929.30344
  22685271.740   119211938.744 8  22685275.040    92892453.81447
  19700362.580   105309734.204 9  19700370.860    81907611.190 8
  20416882.160   108948425.510 9  20416889.560    84737705.322 8
  22984200.440   123079263.459 8  22984208.920    95728306.350 6
  23878366.760   127285123.751 7  23878378.860    98999594.715 4
  20164169.040   107751267.374 9
  23803683.420   127288988.478 5  23803692.100    99002581.182 6
  23912004.720   127957969.903 8  23912013.260    99522912.072 6
 16  3 23 21  0 10.0000000  0 17G03G05G07G08G09G16G23G27G28G30R01R02
                                R08R10R11R20R21
  24803432.820   130342914.753 6  24803441.280   101565944.29945
  25185537.760   132350879.870 6  25185540.440   103130562.77345
  21049051.540   110613589.876 9  21049051.240    86192413.41849
  23416978.260   123057101.333 8  23416983.180    95888699.56046
  20185073.620   106073316.289 9  20185074.820    82654562.80749
  23136569.980   121583556.351 8  23136570.580    94740455.17645
  20940550.000   110043349.298 9  20940547.860    85748042.67748
  23234875.620   122100154.676 8  23234879.180    95143021.06246
  24739011.900   130004394.543 5  24739017.720   101302152.22844
  22684843.620   119209689.003 8  22684846.940    92890700.76747
  19700748.000   105311794.492 9  19700756.300    81909213.636 8
  20416422.940   108945974.976 9  20416430.340    84735799.354 8
  22985016.400   123083633.014 7  22985024.920    95731704.883 7
  23879010.400   127288554.778 7  23879022.520    99002263.282 4
  20164551.020   107753308.613 9
  23803520.520   127288117.566 5  23803529.260    99001903.799 6
  23911443.920   127954968.925 7  23911452.480    99520577.980 6
 16  3 23 21  0 11.0000000  0 17G03G05G07G08G09G16G23G27G28G30R01R02
                                R08R10R11R20R21
  24804141.820   130346640.507 6  24804150.260   101568847.47245
  25185003.320   132348071.439 6  25185005.980   103128374.37645
  21048841.860   110612488.032 9  21048841.560    86191554.83849
  23416519.920   123054692.774 8  23416524.840    95886822.75546
  20185019.680   106073032.832 9  20185020.880    82654341.93549
  23137196.120   121586846.737 8  23137196.720    94743019.10945
  20940842.360   110044885.700 9  20940840.240    85749239.87348
  23234668.640   122099067.041 8  23234672.200    95142173.55346
  24738333.680   130000830.570 5  24738339.600   101299375.08442
  22684415.500   119207439.288 8  22684418.800    92888947.74947
  19701133.540   105313855.382 9  19701141.820    81910816.546 8
  20415963.800   108943524.912 9  20415971.200    84733893.748 8
  22985832.400   123088002.581 7  22985840.940    95735103.425 6
  23879654.000   127291985.480 7  23879666.120    99004931.601 4
  20164933.040   107755349.967 9
  23803357.760   127287247.124 5  23803366.480    99001226.787 6
  23910883.160   127951968.017 7  23910891.700    99518243.947 6
 16  3 23 21  0 12.0000000  0 18G03G05G07G08G09G16G23G27G28G30R01R02
                                R08R10R11R13R20R21
  24804850.780   130350366.033 6  24804859.240   101571750.46745
  25184468.960   132345263.248 6  25184471.600   103126186.17544
  21048632.220   110611386.351 9  21048631.920    86190696.38349
  23416061.620   123052284.451 8  23416066.560    95884946.14246
  20184965.820   106072749.780 9  20184967.020    82654121.37549
  23137822.300   121590137.335 8  23137822.920    94745583.21345
  20941134.800   110046422.485 9  20941132.680    85750437.36648
  23234461.760   122097979.858 8  23234465.340    95141326.39747
  24737655.480   129997266.600 6  24737661.440   101296597.99144
  22683987.420   119205189.647 8  22683990.700    92887194.78647
  19701519.200   105315916.963 9  19701527.480    81912419.998 8
  20415504.760   108941075.424 9  20415512.160    84731988.593 8
  22986648.420   123092372.267 7  22986656.960    95738502.061 6
  23880297.580   127295416.017 7  23880309.660    99007599.801 4
  20165315.080   107757391.515 9
  24255800.520   129524620.78514  24255812.340   100741420.66615
  23803195.160   127286377.426 5  23803203.840    99000550.355 6
  23910322.400   127948967.365 7  23910330.980    99515910.115 6
 16  3 23 21  0 13.0000000  0 18G03G05G07G08G09G16G23G27G28G30R01R02
                                R08R10R11R13R20R21
  24805559.700   130354091.414 6  24805568.160   101574653.34545
  25183934.620   132342455.291 6  25183937.320   103123998.15244
  21048422.580   110610284.725 9  21048422.280    86189837.97149
  23415603.360   123049876.282 8  23415608.280    95883069.65046
  20184912.020   106072467.038 9  20184913.220    82653901.05549
  23138448.500   121593428.083 8  23138449.140    94748147.43645
  20941427.320   110047959.562 9  20941425.160    85751635.08948
  23234254.960   122096893.085 8  23234258.540    95140479.56846
  24736977.280   129993702.572 6  24736983.340   101293820.81841
  22683559.340   119202940.063 8  22683562.640    92885441.86347
  19701904.980   105317979.189 9  19701913.260    81914023.950 8
  20415045.820   108938626.437 9  20415053.220    84730083.827 8
  22987464.440   123096741.961 7  22987473.000    95741900.701 6
  23880941.100   127298846.274 7  23880953.180    99010267.787 3
  20165697.140   107759433.208 9
  24255205.440   129521443.002 4  24255217.260   100738949.064 5
  23803032.640   127285508.286 5  23803041.320    98999874.367 6
  23909761.680   127945966.828 7  23909770.260    99513576.368 6
 16  3 23 21  0 14.0000000  0 18G03G05G07G08G09G16G23G27G28G30R01R02
                                R08R10R11R13R20R21
  24806268.600   130357816.701 6  24806277.020   101577556.17045
  25183400.340   132339647.594 6  25183403.020   103121810.32244
  21048212.980   110609183.293 9  21048212.700    86188979.71348
  23415145.140   123047468.330 8  23415150.080    95881193.33046
  20184858.300   106072184.722 9  20184859.500    82653681.06649
  23139074.760   121596719.078 8  23139075.380    94750711.84445
  20941719.880   110049497.054 9  20941717.740    85752833.13248
  23234048.240   122095806.804 8  23234051.840    95139633.11446
  24736299.100   129990138.588 6  24736305.140   101291043.69644
  22683131.280   119200690.627 8  22683134.580    92883689.06047
  19702290.900   105320042.142 9  19702299.180    81915628.469 8
  20414587.000   108936178.086 9  20414594.400    84728179.554 8
  22988280.480   123101111.813 7  22988289.060    95745299.465 6
  23881584.600   127302276.385 7  23881596.640    99012935.655 3
  20166079.240   107761475.126 9
  24254610.420   129518265.445 4  24254622.220   100736477.634 6
  23802870.260   127284639.815 5  23802878.940    98999198.896 6
  23909201.020   127942966.546 7  23909209.600    99511242.817 6
 16  3 23 21  0 15.0000000  0 18G03G05G07G08G09G16G23G27G28G30R01R02
                                R08R10R11R13R20R21
  24806977.520   130361542.130 6  24806986.000   101580459.08345
  25182866.160   132336840.435 6  25182868.840   103119622.92444
  21048003.460   110608082.255 9  21048003.180    86188121.76549
  23414687.020   123045060.853 8  23414691.960    95879317.37846
  20184804.700   106071903.047 9  20184805.900    82653461.58149
  23139701.100   121600010.543 8  23139701.740    94753276.61645
  20942012.580   110051035.166 9  20942010.440    85754031.66148
  23233841.660   122094721.232 8  23233845.260    95138787.21246
  24735620.920   129986574.870 6  24735626.920   101288266.78543
  22682703.280   119198441.527 8  22682706.580    92881936.51547
  19702677.000   105322106.044 9  19702685.280    81917233.726 8
  20414128.340   108933730.623 9  20414135.740    84726275.974 8
  22989096.560   123105482.069 7  22989105.200    95748698.540 6
  23882228.080   127305706.549 7  23882240.140    99015603.556 3
  20166461.460   107763517.505 9
  24254015.400   129515088.199 4  24254027.240   100734006.449 6
  23802708.040   127283772.287 5  23802716.700    98998524.152 6
  23908640.440   127939966.675 7  23908649.020    99508909.587 6
 16  3 23 21  0 16.0000000  0 18G03G05G07G08G09G16G23G27G28G30R01R02
                                R08R10R11R13R20R21
  24807686.420   130365267.477 6  24807694.900   101583361.93944
  25182332.020   132334033.603 6  25182334.700   103117435.76945
  21047793.980   110606981.459 9  21047793.700    86187264.00249
  23414228.940   123042653.677 8  23414233.900    95877441.65646
  20184751.180   106071621.845 9  20184752.380    82653242.46049
  23140327.520   121603302.307 8  23140328.120    94755841.62345
  20942305.360   110052573.748 9  20942303.220    85755230.55548
  23233635.200   122093636.230 8  23233638.800    95137941.75847
  24734942.840   129983011.302 6  24734948.760   101285490.0014
  22682275.340   119196192.621 8  22682278.620    92880184.12347
  19703063.240   105324170.747 9  19703071.520    81918839.604 8
  20413669.820   108931283.891 9  20413677.240    84724372.960 8
  22989912.720   123109852.542 7  22989921.360    95752097.789 6
  23882871.580   127309136.614 7  23882883.580    99018271.384 3
  20166843.720   107765560.200 9
  24253420.360   129511911.202 4  24253432.300   100731535.460 5
  23802546.000   127282905.493 5  23802554.600    98997849.975 5
  23908079.880   127936967.104 7  23908088.500    99506576.591 6
 16  3 23 21  0 17.0000000  0 18G03G05G07G08G09G16G23G27G28G30R01R02
                                R08R10R11R13R20R21
  24808395.300   130368992.669 6  24808403.780   101586264.67644
  25181797.940   132331227.064 6  25181800.620   103115248.84244
  21047584.540   110605880.789 9  21047584.240    86186406.33649
  23413770.900   123040246.671 8  23413775.860    95875566.06546
  20184697.740   106071341.005 9  20184698.940    82653023.62849
  23140953.960   121606594.277 8  23140954.560    94758406.79445
  20942598.220   110054112.680 9  20942596.080    85756429.72448
  23233428.800   122092551.667 8  23233432.400    95137096.64247
  24734264.720   129979447.726 6  24734270.660   101282713.19543
  22681847.400   119193943.821 8  22681850.700    92878431.81547
  19703449.620   105326236.130 9  19703457.900    81920446.011 8
  20413211.420   108928837.770 9  20413218.840    84722470.422 8
  22990728.900   123114223.095 7  22990737.560    95755497.098 6
  23883515.060   127312566.490 7  23883526.960    99020939.062 3
  20167226.020   107767603.077 9
  24252825.380   129508734.266 4  24252837.380   100729064.512 6
  23802384.020   127282039.307 5  23802392.620    98997176.265 5
  23907519.380   127933967.750 7  23907528.000    99504243.769 6
 16  3 23 21  0 18.0000000  0 18G03G05G07G08G09G16G23G27G28G30R01R02
                                R08R10R11R13R20R21
  24809104.200   130372717.885 6  24809112.680   101589167.42344
  25181263.920   132328420.910 6  25181266.680   103113062.23444
  21047375.140   110604780.385 9  21047374.840    86185548.87649
  23413312.940   123037840.014 8  23413317.920    95873690.75746
  20184644.400   106071060.691 9  20184645.600    82652805.20049
  23141580.460   121609886.596 8  23141581.040    94760972.23445
  20942891.160   110055652.125 9  20942889.020    85757629.28748
  23233222.540   122091467.692 8  23233226.140    95136251.98647
  24733586.620   129975884.286 6  24733592.520   101279936.48743
  22681419.500   119191695.246 8  22681422.800    92876679.67747
  19703836.140   105328302.349 9  19703844.440    81922053.070 8
  20412753.140   108926392.369 9  20412760.560    84720568.444 8
  22991545.080   123118593.855 7  22991553.780    95758896.567 6
  23884158.520   127315996.307 7  23884170.340    99023606.701 3
  20167608.360   107769646.287 9
  24252230.460   129505557.579 4  24252242.520   100726593.759 5
  23802222.200   127281173.916 5  23802230.780    98996503.166 5
  23906958.940   127930968.709 7  23906967.560    99501911.192 6
 16  3 23 21  0 19.0000000  0 18G03G05G07G08G09G16G23G27G28G30R01R02
                                R08R10R11R13R20R21
  24809813.080   130376443.151 6  24809821.580   101592070.21145
  25180730.000   132325615.225 6  25180732.800   103110875.98844
  21047165.800   110603680.335 9  21047165.520    86184691.69848
  23412855.040   123035433.755 8  23412860.040    95871815.75146
  20184591.160   106070780.958 9  20184592.360    82652587.22649
  23142207.060   121613179.338 8  23142207.640    94763538.00345
  20943184.240   110057192.149 9  20943182.080    85758829.30248
  23233016.380   122090384.396 8  23233020.000    95135407.85946
  24732908.580   129972321.078 6  24732914.580   101277159.97543
  22680991.660   119189446.982 8  22680994.960    92874927.78446
  19704222.840   105330369.479 9  19704231.140    81923660.836 8
  20412295.020   108923947.727 9  20412302.440    84718667.055 8
  22992361.340   123122964.890 8  22992370.040    95762296.250 6
  23884801.940   127319426.146 7  23884813.760    99026274.356 3
  20167990.800   107771689.899 9
  24251635.680   129502381.305 4  24251647.720   100724123.326 5
  23802060.480   127280309.408 5  23802069.100    98995830.766 5
  23906398.580   127927970.078 7  23906407.220    99499578.927 6
 16  3 23 21  0 20.0000000  0 18G03G05G07G08G09G16G23G27G28G30R01R02
                                R08R10R11R13R20R21
  24810521.960   130380168.427 5  24810530.560   101594973.02444
  25180196.180   132322809.932 6  25180198.980   103108690.05244
  21046956.520   110602580.538 9  21046956.240    86183834.71349
  23412397.220   123033027.813 8  23412402.220    95869940.99546
  20184538.040   106070501.726 9  20184539.240    82652369.64349
  23142833.700   121616472.388 8  23142834.280    94766104.01346
  20943477.380   110058732.650 9  20943475.240    85760029.69248
  23232810.340   122089301.677 8  23232813.960    95134564.18246
  24732230.560   129968757.977 6  24732236.580   101274383.55943
  22680563.880   119187198.938 8  22680567.180    92873176.06047
  19704609.680   105332437.417 9  19704618.000    81925269.230 8
  20411837.020   108921503.748 9  20411844.440    84716766.185 8
  22993177.660   123127336.201 7  22993186.360    95765696.153 6
  23885445.360   127322855.918 7  23885457.140    99028941.962 3
  20168373.300   107773733.833 9
  24251040.900   129499205.176 4  24251052.940   100721653.005 6
  23801898.980   127279445.655 5  23801907.580    98995158.957 5
  23905838.280   127924971.756 7  23905846.920    99497246.901 6
 16  3 23 21  0 21.0000000  0 18G03G05G07G08G09G16G23G27G28G30R01R02
                                R08R10R11R13R20R21
  24811230.840   130383893.679 5  24811239.480   101597875.79546
  25179662.400   132320005.007 6  25179665.220   103106504.39644
  21046747.280   110601481.014 9  21046747.000    86182977.94549
  23411939.460   123030622.220 8  23411944.440    95868066.51446
  20184485.000   106070223.002 9  20184486.200    82652152.45549
  23143460.420   121619765.787 8  23143461.020    94768670.29846
  20943770.640   110060273.660 9  20943768.480    85761230.48048
  23232604.420   122088219.534 8  23232608.020    95133720.95446
  24731552.560   129965195.024 6  24731558.520   101271607.21243
  22680136.120   119184951.094 8  22680139.400    92871424.49347
  19704996.700   105334506.194 9  19705005.000    81926878.274 8
  20411379.140   108919060.471 9  20411386.560    84714865.858 8
  22993994.000   123131707.785 7  22994002.720    95769096.265 6
  23886088.760   127326285.628 7  23886100.540    99031609.519 3
  20168755.840   107775778.081 9
  24250446.120   129496029.266 4  24250458.220   100719182.857 6
  23801737.640   127278582.708 5  23801746.200    98994487.778 6
  23905278.060   127921973.794 7  23905286.680    99494915.156 6
 16  3 23 21  0 22.0000000  0 18G03G05G07G08G09G16G23G27G28G30R01R02
                                R08R10R11R13R20R21
  24811939.720   130387618.822 6  24811948.360   101600778.48945
  25179128.720   132317200.442 6  25179131.520   103104319.01244
  21046538.100   110600381.697 9  21046537.800    86182121.33949
  23411481.760   123028216.917 8  23411486.720    95866192.25846
  20184432.040   106069944.734 9  20184433.240    82651935.62149
  23144087.180   121623059.457 8  23144087.800    94771236.79445
  20944063.960   110061815.104 9  20944061.800    85762431.60348
  23232398.600   122087137.921 8  23232402.220    95132878.14146
  24730874.580   129961632.188 6  24730880.540   101268830.96642
  22679708.400   119182703.455 8  22679711.700    92869673.09247
  19705383.840   105336575.746 9  19705392.160    81928487.926 8
  20410921.400   108916617.891 9  20410928.820    84712966.080 8
  22994810.400   123136079.578 7  22994819.120    95772496.542 6
  23886732.140   127329715.217 7  23886743.880    99034276.975 3
  20169138.440   107777822.600 9
  24249851.420   129492853.585 4  24249863.540   100716712.885 6
  23801576.380   127277720.491 5  23801584.960    98993817.172 6
  23904717.900   127918976.080 7  23904726.500    99492583.603 6
 16  3 23 21  0 23.0000000  0 18G03G05G07G08G09G16G23G27G28G30R01R02
                                R08R10R11R13R20R21
  24812648.560   130391343.893 5  24812657.280   101603681.12045
  25178595.100   132314396.224 6  25178597.880   103102133.90144
  21046328.940   110599282.627 9  21046328.660    86181264.91949
  23411024.100   123025811.898 8  23411029.080    95864318.21546
  20184379.180   106069666.950 9  20184380.380    82651719.16849
  23144714.000   121626353.439 8  23144714.620    94773803.53445
  20944357.400   110063357.016 9  20944355.220    85763633.09248
  23232192.880   122086056.879 8  23232196.500    95132035.77446
  24730196.640   129958069.427 6  24730202.500   101266054.7844
  22679280.720   119180455.984 8  22679284.020    92867921.82047
  19705771.140   105338646.092 9  19705779.460    81930098.195 8
  20410463.800   108914176.063 9  20410471.220    84711066.880 8
  22995626.840   123140451.556 7  22995635.560    95775896.957 6
  23887375.500   127333144.693 7  23887387.220    99036944.339 3
  20169521.080   107779867.414 9
  24249256.680   129489678.075 4  24249268.880   100714243.048 6
  23801415.280   127276859.009 5  23801423.860    98993147.133 6
  23904157.740   127915978.641 7  23904166.360    99490252.258 6
 16  3 23 21  0 24.0000000  0 18G03G05G07G08G09G16G23G27G28G30R01R02
                                R08R10R11R13R20R21
  24813357.440   130395069.022 5  24813366.120   101606583.81045
  25178061.540   132311592.373 6  25178064.300   103099949.07245
  21046119.840   110598183.789 9  21046119.560    86180408.68149
  23410566.500   123023407.191 8  23410571.480    95862444.42146
  20184326.420   106069389.642 9  20184327.600    82651503.08449
  23145340.900   121629647.732 8  23145341.500    94776370.51745
  20944650.900   110064899.405 9  20944648.740    85764834.95248
  23231987.260   122084976.386 8  23231990.880    95131193.83446
  24729518.680   129954506.810 6  24729524.380   101263278.68643
  22678853.080   119178208.737 8  22678856.380    92866170.72047
  19706158.600   105340717.247 9  19706166.920    81931709.094 8
  20410006.340   108911734.942 9  20410013.760    84709168.237 8
  22996443.300   123144823.732 7  22996452.060    95779297.528 6
  23888018.860   127336574.092 7  23888030.520    99039611.647 3
  20169903.820   107781912.530 9
  24248662.000   129486502.808 4  24248674.260   100711773.402 6
  23801254.320   127275998.305 5  23801262.900    98992477.705 5
  23903597.660   127912981.527 7  23903606.280    99487921.171 6
 16  3 23 21  0 25.0000000  0 18G03G05G07G08G09G16G23G27G28G30R01R02
                                R08R10R11R13R20R21
  24814066.280   130398794.141 5  24814074.980   101609486.47545
  25177528.060   132308788.885 6  25177530.840   103097764.51844
  21045910.800   110597085.229 9  21045910.500    86179552.65848
  23410108.960   123021002.802 8  23410113.960    95860570.87546
  20184273.740   106069112.849 9  20184274.920    82651287.40349
  23145967.840   121632942.365 8  23145968.500    94778937.75845
  20944944.520   110066442.292 9  20944942.340    85766037.19948
  23231781.760   122083896.489 8  23231785.380    95130352.35846
  24728840.760   129950944.326 6  24728846.480   101260502.74442
  22678425.480   119175961.702 8  22678428.780    92864419.78447
  19706546.200   105342789.226 9  19706554.520    81933320.631 8
  20409549.000   108909294.544 9  20409556.420    84707270.146 8
  22997259.800   123149196.108 7  22997268.580    95782698.257 6
  23888662.160   127340003.392 7  23888673.780    99042278.878 3
  20170286.600   107783957.969 9
  24248067.400   129483327.760 4  24248079.720   100709303.929 6
  23801093.480   127275138.338 5  23801102.060    98991808.840 5
  23903037.620   127909984.720 7  23903046.280    99485590.323 6
 16  3 23 21  0 26.0000000  0 18G03G05G07G08G09G16G23G27G28G30R01R02
                                R08R10R11R13R20R21
  24814775.120   130402519.088 5  24814783.800   101612389.02345
  25176994.620   132305985.684 6  25176997.480   103095580.20944
  21045701.780   110595986.808 9  21045701.480    86178696.74848
  23409651.460   123018598.628 8  23409656.480    95858697.49646
  20184221.140   106068836.434 9  20184222.320    82651072.01349
  23146594.820   121636237.210 8  23146595.480    94781505.16545
  20945238.180   110067985.554 9  20945236.020    85767239.74148
  23231576.360   122082817.058 8  23231580.000    95129511.23846
  24728162.820   129947381.856 6  24728168.400   101257726.7914
  22677997.900   119173714.777 8  22678001.200    92862668.93846
  19706933.940   105344861.903 9  19706942.260    81934932.708 8
  20409091.780   108906854.710 9  20409099.200    84705372.496 8
  22998076.340   123153568.629 7  22998085.120    95786099.098 6
  23889305.460   127343432.492 7  23889316.980    99044945.959 3
  20170669.420   107786003.627 9
  24247472.820   129480152.802 4  24247485.160   100706834.520 6
  23800932.760   127274278.995 5  23800941.340    98991140.454 6
  23902477.620   127906988.132 7  23902486.300    99483259.646 6
 16  3 23 21  0 27.0000000  0 18G03G05G07G08G09G16G23G27G28G30R01R02
                                R08R10R11R13R20R21
  24815483.960   130406243.994 5  24815492.620   101615291.53744
  25176461.260   132303182.811 6  25176464.140   103093396.16044
  21045492.800   110594888.603 9  21045492.500    86177841.00448
  23409194.020   123016194.720 8  23409199.040    95856824.32046
  20184168.620   106068560.490 9  20184169.820    82650856.98949
  23147221.880   121639532.345 8  23147222.540    94784072.79345
  20945531.940   110069529.262 9  20945529.780    85768442.63148
  23231371.060   122081738.157 8  23231374.660    95128670.53646
  24727484.940   129943819.484 7  24727490.500   101254950.8894
  22677570.340   119171468.034 8  22677573.660    92860918.22746
  19707321.820   105346935.354 9  19707330.140    81936545.393 8
  20408634.680   108904415.542 9  20408642.100    84703475.368 8
  22998892.900   123157941.322 7  22998901.720    95789500.075 6
  23889948.740   127346861.510 7  23889960.240    99047612.983 3
  20171052.280   107788049.560 9
  24246878.280   129476977.992 4  24246890.620   100704365.229 6
  23800772.200   127273420.417 5  23800780.760    98990472.662 5
  23901917.640   127903991.799 6  23901926.360    99480929.163 6
 16  3 23 21  0 28.0000000  0 18G03G05G07G08G09G16G23G27G28G30R01R02
                                R08R10R11R13R20R21
  24816192.740   130409968.742 5  24816201.420   101618193.90145
  25175927.940   132300380.182 6  25175930.860   103091212.29245
  21045283.820   110593790.513 9  21045283.540    86176985.35448
  23408736.620   123013791.015 8  23408741.640    95854951.30546
  20184116.180   106068284.892 9  20184117.380    82650642.24249
  23147848.960   121642827.671 8  23147849.620    94786640.57246
  20945825.780   110071073.310 9  20945823.600    85769645.78148
  23231165.820   122080659.687 8  23231169.440    95127830.17046
  24726807.040   129940257.108 6  24726812.420   101252174.9884
  22677142.800   119169221.354 8  22677146.120    92859167.56346
  19707709.800   105349009.455 9  19707718.160    81938158.583 8
  20408177.700   108901976.942 9  20408185.100    84701578.681 8
  22999709.460   123162314.092 7  22999718.300    95792901.102 6
  23890591.980   127350290.261 7  23890603.420    99050279.804 3
  20171435.180   107790095.664 9
  24246283.780   129473803.368 4  24246296.140   100701896.090 6
  23800611.800   127272562.416 5  23800620.300    98989805.326 5
  23901357.720   127900995.624 6  23901366.460    99478598.810 6
 16  3 23 21  0 29.0000000  0 18G03G05G07G08G09G16G23G27G28G30R01R02
                                R08R10R11R13R20R21
  24816901.460   130413693.233 5  24816910.220   101621096.07145
  25175394.660   132297577.759 6  25175397.620   103089028.59944
  21045074.880   110592692.513 9  21045074.580    86176129.76949
  23408279.240   123011387.448 8  23408284.260    95853078.39646
  20184063.800   106068009.620 9  20184065.000    82650427.74249
  23148476.060   121646123.153 8  23148476.740    94789208.48745
  20946119.660   110072617.678 9  20946117.500    85770849.18548
  23230960.680   122079581.632 8  23230964.280    95126990.12446
  24726129.140   129936694.659 6  24726134.180   101249399.06441
  22676715.280   119166974.721 8  22676718.600    92857416.94247
  19708097.920   105351084.190 9  19708106.280    81939772.263 8
  20407720.820   108899538.906 9  20407728.200    84699682.429 8
  23000526.040   123166686.900 7  23000534.900    95796302.160 6
  23891235.160   127353718.762 7  23891246.580    99052946.422 3
  20171818.120   107792141.904 9
  24245689.220   129470628.750 4  24245701.640   100699426.955 6
  23800451.520   127271705.075 5  23800459.960    98989138.506 5
  23900797.840   127897999.611 6  23900806.580    99476268.585 6
 16  3 23 21  0 30.0000000  0 18G03G05G07G08G09G16G23G27G28G30R01R02
                                R08R10R11R13R20R21
  24817610.240   130417417.850 6  24817618.980   101623998.35845
  25174861.460   132294775.792 6  25174864.460   103086845.24345
  21044866.020   110591594.881 9  21044865.720    86175274.47148
  23407821.960   123008984.336 8  23407827.000    95851205.84346
  20184011.540   106067734.963 9  20184012.720    82650213.72349
  23149103.260   121649419.090 8  23149103.960    94791776.75045
  20946413.660   110074162.638 9  20946411.500    85772053.04948
  23230755.660   122078504.253 8  23230759.260    95126150.60546
  24725451.280   129933132.470 6  24725456.300   101246623.35343
  22676287.820   119164728.414 8  22676291.160    92855666.57747
  19708486.220   105353159.830 9  19708494.580    81941386.650 8
  20407264.080   108897101.691 9  20407271.460    84697786.819 8
  23001342.680   123171060.069 7  23001351.580    95799703.506 6
  23891878.340   127357147.308 7  23891889.760    99055613.066 3
  20172201.120   107794188.575 9
  24245094.800   129467454.508 4  24245107.220   100696958.106 6
  23800291.300   127270848.548 5  23800299.760    98988472.315 5
  23900238.040   127895004.057 6  23900246.780    99473938.713 6
 16  3 23 21  0 31.0000000  0 18G03G05G07G08G09G16G23G27G28G30R01R02
                                R08R10R11R13R20R21
  24818319.020   130421142.445 6  24818327.700   101626900.62644
  25174328.360   132291974.262 6  25174331.400   103084662.23645
  21044657.200   110590497.503 9  21044656.900    86174419.37248
  23407364.740   123006581.545 8  23407369.760    95849333.54446
  20183959.380   106067460.802 9  20183960.560    82650000.09449
  23149730.520   121652715.385 8  23149731.200    94794345.29146
  20946707.760   110075708.086 9  20946705.600    85773257.29048
  23230550.760   122077427.457 8  23230554.360    95125311.54946
  24724773.460   129929570.429 6  24724778.480   101243847.73643
  22675860.400   119162482.336 8  22675863.740    92853916.39047
  19708874.660   105355236.286 9  19708883.020    81943001.669 7
  20406807.480   108894665.167 9  20406814.860    84695891.745 8
  23002159.360   123175433.471 7  23002168.280    95803105.028 5
  23892521.520   127360575.768 7  23892532.900    99058279.639 2
  20172584.180   107796235.545 9
  24244500.460   129464280.486 4  24244512.840   100694489.424 6
  23800131.300   127269992.819 5  23800139.720    98987806.753 5
  23899678.280   127892008.788 6  23899687.060    99471609.060 5
 16  3 23 21  0 32.0000000  0 18G03G05G07G08G09G16G23G27G28G30R01R02
                                R08R10R11R13R20R21
  24819027.780   130424866.968 6  24819036.480   101629802.84745
  25173795.300   132289173.028 6  25173798.360   103082479.45344
  21044448.400   110589400.320 9  21044448.100    86173564.42648
  23406907.560   123004179.008 8  23406912.580    95847461.44046
  20183907.280   106067187.078 9  20183908.480    82649786.80049
  23150357.840   121656011.932 8  23150358.520    94796914.02745
  20947001.940   110077253.954 9  20946999.760    85774461.86348
  23230345.940   122076351.178 8  23230349.540    95124472.89346
  24724095.620   129926008.429 7  24724100.620   101241072.15042
  22675433.020   119160236.407 8  22675436.340    92852166.31847
  19709263.240   105357313.474 9  19709271.600    81944617.260 8
  20406350.980   108892229.278 9  20406358.380    84693997.167 8
  23002976.080   123179807.021 7  23002985.000    95806506.672 6
  23893164.680   127364004.112 7  23893176.060    99060946.132 3
  20172967.280   107798282.766 9
  24243906.100   129461106.626 5  24243918.500   100692020.872 6
  23799971.440   127269137.818 5  23799979.820    98987141.752 5
  23899118.600   127889013.793 6  23899127.380    99469279.619 5
 16  3 23 21  0 33.0000000  0 18G03G05G07G08G09G16G23G27G28G30R01R02
                                R08R10R11R13R20R21
  24819736.500   130428591.350 6  24819745.300   101632704.94945
  25173262.320   132286372.081 6  25173265.340   103080296.89744
  21044239.660   110588303.321 9  21044239.360    86172709.62148
  23406450.420   123001776.726 8  23406455.460    95845589.53646
  20183855.260   106066913.772 9  20183856.460    82649573.83449
  23150985.220   121659308.728 8  23150985.900    94799482.95545
  20947296.180   110078800.240 9  20947294.020    85775666.76248
  23230141.240   122075275.393 8  23230144.840    95123634.61746
  24723417.800   129922446.532 7  24723422.780   101238296.6514
  22675005.660   119157990.610 8  22675009.000    92850416.34247
  19709651.960   105359391.403 9  19709660.320    81946233.426 8
  20405894.640   108889794.041 9  20405902.000    84692103.091 8
  23003792.840   123184180.723 7  23003801.760    95809908.431 6
  23893807.760   127367432.309 7  23893819.200    99063612.503 3
  20173350.440   107800330.233 9
  24243311.740   129457932.891 5  24243324.180   100689552.408 6
  23799811.660   127268283.467 5  23799820.020    98986477.255 5
  23898558.980   127886019.038 6  23898567.740    99466950.367 5
 16  3 23 21  0 34.0000000  0 18G03G05G07G08G09G16G23G27G28G30R01R02
                                R08R10R11R13R20R21
  24820445.220   130432315.607 6  24820454.000   101635606.95745
  25172729.360   132283571.405 6  25172732.380   103078114.54345
  21044030.920   110587206.440 9  21044030.620    86171854.90748
  23405993.340   122999374.592 8  23405998.340    95843717.74946
  20183803.340   106066640.838 9  20183804.520    82649361.15949
  23151612.600   121662605.693 8  23151613.300    94802052.01445
  20947590.500   110080346.874 9  20947588.340    85776871.93048
  23229936.600   122074200.053 8  23229940.220    95122796.68546
  24722739.980   129918884.595 7  24722744.960   101235521.11242
  22674578.300   119155744.889 8  22674581.640    92848666.43047
  19710040.800   105361470.013 9  19710049.160    81947850.123 8
  20405438.380   108887359.411 9  20405445.740    84690209.497 8
  23004609.600   123188554.513 7  23004618.520    95813310.262 6
  23894450.840   127370860.260 7  23894462.260    99066278.696 3
  20173733.640   107802377.870 9
  24242717.460   129454759.288 5  24242729.860   100687084.048 6
  23799652.020   127267429.782 5  23799660.360    98985813.279 6
  23897999.300   127883024.409 6  23898008.120    99464621.216 6
 16  3 23 21  0 35.0000000  0 18G03G05G07G08G09G16G23G27G28G30R01R02
                                R08R10R11R13R20R21
  24821153.940   130436039.930 6  24821162.740   101638509.02844
  25172196.480   132280771.230 6  25172199.580   103075932.59945
  21043822.260   110586109.961 9  21043821.960    86171000.51048
  23405536.340   122996972.957 8  23405541.340    95841846.35446
  20183751.520   106066368.538 9  20183752.720    82649148.97349
  23152240.100   121665903.154 8  23152240.780    94804621.46545
  20947884.940   110081894.143 9  20947882.780    85778077.59248
  23229732.120   122073125.430 8  23229735.720    95121959.31846
  24722062.220   129915322.945 7  24722067.180   101232745.79043
  22674151.020   119153499.536 8  22674154.380    92846916.81247
  19710429.840   105363549.588 9  19710438.200    81949467.564 8
  20404982.300   108884925.651 9  20404989.660    84688316.575 8
  23005426.440   123192928.684 7  23005435.360    95816712.386 6
  23895093.960   127374288.292 7  23895105.320    99068944.947 3
  20174116.920   107804425.995 9
  24242123.260   129451586.098 5  24242135.640   100684616.018 6
  23799492.560   127266576.970 5  23799500.840    98985149.984 5
  23897439.760   127880030.291 6  23897448.600    99462292.461 5
 16  3 23 21  0 36.0000000  0 18G03G05G07G08G09G16G23G27G28G30R01R02
                                R08R10R11R13R20R21
  24821862.660   130439764.255 6  24821871.440   101641411.08644
  25171663.700   132277971.337 6  25171666.840   103073750.85246
  21043613.640   110585013.645 9  21043613.340    86170146.23648
  23405079.360   122994571.532 8  23405084.380    95839975.11746
  20183699.780   106066096.648 9  20183700.980    82648937.11249
  23152867.640   121669200.841 8  23152868.300    94807191.08145
  20948179.460   110083441.795 9  20948177.300    85779283.55648
  23229527.720   122072051.298 8  23229531.300    95121122.33246
  24721384.480   129911761.334 7  24721389.400   101229970.50744
  22673723.760   119151254.296 8  22673727.100    92845167.27247
  19710818.980   105365629.876 9  19710827.360    81951085.566 8
  20404526.320   108882492.519 9  20404533.700    84686424.136 8
  23006243.280   123197302.969 7  23006252.220    95820114.602 6
  23895737.020   127377716.153 7  23895748.380    99071611.065 3
  20174500.240   107806474.330 9
  24241529.040   129448413.012 5  24241541.440   100682148.062 6
  23799333.180   127265724.838 5  23799341.480    98984487.216 5
  23896880.260   127877036.395 6  23896889.100    99459963.878 5
 16  3 23 21  0 37.0000000  0 18G03G05G07G08G09G16G23G27G28G30R01R02
                                R08R10R11R13R20R21
  24822571.400   130443488.622 6  24822580.160   101644313.17845
  25171131.000   132275171.982 6  25171134.120   103071569.52245
  21043405.100   110583917.710 9  21043404.800    86169292.26248
  23404622.500   122992170.572 8  23404627.520    95838104.23746
  20183648.160   106065825.378 9  20183649.360    82648725.73349
  23153495.260   121672498.972 8  23153495.920    94809761.05546
  20948474.100   110084990.073 9  20948471.920    85780490.00648
  23229323.440   122070977.857 8  23229327.040    95120285.89546
  24720706.800   129908199.986 7  24720711.720   101227195.43744
  22673296.560   119149009.397 8  22673299.920    92843418.00346
  19711208.320   105367711.108 9  19711216.700    81952704.302 8
  20404070.520   108880060.208 9  20404077.880    84684532.345 8
  23007060.200   123201677.614 7  23007069.140    95823517.093 6
  23896380.100   127381144.070 7  23896391.440    99074277.229 3
  20174883.660   107808523.130 9
  24240934.880   129445240.252 5  24240947.280   100679680.364 6
  23799173.980   127264873.666 5  23799182.280    98983825.196 5
  23896320.840   127874042.954 6  23896329.700    99457635.650 5
 16  3 23 21  0 38.0000000  0 18G03G05G07G08G09G16G23G27G28G30R01R02
                                R08R10R11R13R20R21
  24823280.180   130447213.262 6  24823288.860   101647215.48544
  25170598.440   132272373.329 6  25170601.600   103069388.73944
  21043196.660   110582822.377 9  21043196.360    86168438.75849
  23404165.740   122989770.245 8  23404170.760    95836233.85546
  20183596.700   106065554.954 9  20183597.900    82648515.01749
  23154123.000   121675797.750 8  23154123.660    94812331.53346
  20948768.900   110086539.187 9  20948766.720    85781697.10548
  23229119.360   122069905.352 8  23229122.940    95119450.17946
  24720029.180   129904639.101 7  24720034.140   101224420.71144
  22672869.480   119146765.074 8  22672872.840    92841669.18647
  19711597.860   105369793.490 9  19711606.240    81954323.930 8
  20403614.920   108877628.948 9  20403622.260    84682641.363 8
  23007877.220   123206052.815 7  23007886.160    95826920.019 6
  23897023.220   127384572.237 7  23897034.540    99076943.590 3
  20175267.160   107810572.579 9
  24240340.800   129442068.117 5  24240353.260   100677213.148 6
  23799014.940   127264023.520 5  23799023.280    98983163.969 6
  23895761.580   127871050.198 6  23895770.440    99455307.959 5
 16  3 23 21  0 39.0000000  0 18G03G05G07G08G09G16G23G27G28G30R01R02
                                R08R10R11R13R20R21
  24823988.940   130450937.850 6  24823997.600   101650117.74644
  25170065.940   132269575.020 6  25170069.080   103067208.24945
  21042988.260   110581727.285 9  21042987.960    86167585.44048
  23403709.040   122987370.270 8  23403714.080    95834363.75346
  20183545.320   106065285.008 9  20183546.520    82648304.66749
  23154750.820   121679096.851 8  23154751.460    94814902.25945
  20949063.760   110088088.752 9  20949061.600    85782904.55948
  23228915.380   122068833.408 8  23228918.960    95118614.89446
  24719351.600   129901078.338 7  24719356.580   101221646.09743
  22672442.420   119144520.927 8  22672445.800    92839920.49747
  19711987.580   105371876.646 9  19711995.940    81955944.159 8
  20403159.420   108875198.383 9  20403166.760    84680750.925 8
  23008694.280   123210428.247 7  23008703.220    95830323.127 6
  23897666.320   127388000.336 6  23897677.640    99079609.895 3
  20175650.740   107812622.317 9
  24239746.820   129438896.158 5  24239759.260   100674746.071 6
  23798856.120   127263174.169 5  23798864.440    98982503.358 6
  23895202.380   127868057.699 6  23895211.200    99452980.464 5
 16  3 23 21  0 40.0000000  0 18G03G05G07G08G09G16G23G27G28G30R01R02
                                R08R10R11R13R20R21
  24824697.660   130454662.249 6  24824706.380   101653019.85344
  25169533.500   132266776.932 6  25169536.660   103065027.92845
  21042779.900   110580632.238 9  21042779.580    86166732.15848
  23403252.360   122984970.353 8  23403257.400    95832493.69246
  20183494.020   106065015.356 9  20183495.200    82648094.54949
  23155378.640   121682396.067 8  23155379.280    94817473.07145
  20949358.700   110089638.612 9  20949356.520    85784112.23848
  23228711.460   122067761.823 8  23228715.060    95117779.89446
  24718674.000   129897517.498 7  24718679.000   101218871.43443
  22672015.380   119142276.790 8  22672018.780    92838171.82047
  19712377.380   105373960.401 9  19712385.760    81957564.857 8
  20402704.040   108872768.342 9  20402711.360    84678860.896 8
  23009511.360   123214803.711 7  23009520.280    95833726.257 6
  23898309.360   127391428.165 6  23898320.640    99082275.986 2
  20176034.340   107814672.156 9
  24239152.780   129435724.250 5  24239165.280   100672279.033 6
  23798697.440   127262325.366 5  23798705.700    98981843.176 6
  23894643.180   127865065.302 6  23894651.980    99450653.040 5
 16  3 23 21  0 41.0000000  0 18G03G05G07G08G09G16G23G27G28G30R01R02
                                R08R10R11R13R20R21
  24825406.360   130458386.427 6  24825415.060   101655921.79544
  25169001.080   132263979.027 6  25169004.240   103062847.73545
  21042571.540   110579537.273 9  21042571.220    86165878.93948
  23402795.700   122982570.607 8  23402800.780    95830623.76646
  20183442.760   106064746.012 9  20183443.960    82647884.66949
  23156006.480   121685695.425 8  23156007.120    94820044.00145
  20949653.700   110091188.771 9  20949651.520    85785320.15448
  23228507.620   122066690.647 8  23228511.220    95116945.21447
  24717996.400   129893956.604 7  24718001.440   101216096.71843
  22671588.320   119140032.698 8  22671591.760    92836423.17647
  19712767.320   105376044.787 9  19712775.680    81959186.042 8
  20402248.740   108870338.838 9  20402256.080    84676971.280 8
  23010328.440   123219179.233 7  23010337.360    95837129.439 6
  23898952.340   127394855.692 6  23898963.580    99084941.847 3
  20176417.980   107816722.127 9
  24238558.800   129432552.337 5  24238571.280   100669811.991 6
  23798538.780   127261477.217 5  23798547.100    98981183.503 5
  23894084.000   127862073.046 6  23894092.800    99448325.721 5
 16  3 23 21  0 42.0000000  0 18G03G05G07G08G09G16G23G27G28G30R01R02
                                R08R10R11R13R20R21
  24826115.060   130462110.599 6  24826123.700   101658823.74843
  25168468.720   132261181.462 6  25168471.900   103060667.80644
  21042363.220   110578442.549 9  21042362.900    86165025.90748
  23402339.120   122980171.174 8  23402344.200    95828754.07646
  20183391.600   106064477.167 9  20183392.800    82647675.17749
  23156634.380   121688995.083 8  23156635.040    94822615.16746
  20949948.780   110092739.390 9  20949946.580    85786528.42748
  23228303.880   122065620.017 8  23228307.480    95116110.95346
  24717318.820   129890395.860 7  24717323.860   101213322.14944
  22671161.320   119137788.804 8  22671164.760    92834674.69347
  19713157.380   105378129.970 9  19713165.760    81960807.851 8
  20401793.580   108867910.012 9  20401800.900    84675082.195 8
  23011145.580   123223554.925 7  23011154.440    95840532.746 5
  23899595.340   127398283.124 7  23899606.520    99087607.621 2
  20176801.660   107818772.383 9
  24237964.860   129429380.637 5  24237977.340   100667345.114 6
  23798380.220   127260629.764 5  23798388.620    98980524.375 5
  23893524.860   127859081.093 6  23893533.660    99445998.647 5
 16  3 23 21  0 43.0000000  0 18G03G05G07G08G09G16G23G27G28G30R01R02
                                R08R10R11R13R20R21
  24826823.720   130465834.565 6  24826832.320   101661725.53343
  25167936.420   132258384.175 6  25167939.600   103058488.09145
  21042154.920   110577347.946 9  21042154.620    86164172.97448
  23401882.580   122977771.937 8  23401887.660    95826884.54346
  20183340.500   106064208.676 9  20183341.700    82647465.96649
  23157262.340   121692294.946 8  23157262.980    94825186.48746
  20950243.920   110094290.382 9  20950241.720    85787736.99048
  23228100.240   122064549.835 8  23228103.820    95115277.04546
  24716641.240   129886835.077 7  24716646.260   101210547.52344
  22670734.340   119135544.995 8  22670737.780    92832926.27147
  19713547.580   105380215.837 9  19713555.980    81962430.192 8
  20401338.520   108865481.751 9  20401345.840    84673193.547 8
  23011962.700   123227930.675 7  23011971.560    95843936.101 5
  23900238.300   127401710.356 6  23900249.440    99090273.253 2
  20177185.380   107820822.818 9
  24237370.940   129426209.076 5  24237383.400   100664878.348 6
  23798221.880   127259782.934 5  23798230.260    98979865.725 5
  23892965.760   127856089.372 6  23892974.560    99443671.757 5
 16  3 23 21  0 44.0000000  0 18G03G05G07G08G09G16G23G27G28G30R01R02
                                R08R10R11R13R20R21
  24827532.360   130469558.464 7  24827540.940   101664627.26244
  25167404.180   132255587.187 6  25167407.360   103056308.61945
  21041946.660   110576253.525 9  21041946.360    86163320.17448
  23401426.060   122975372.916 8  23401431.120    95825015.17646
  20183289.480   106063940.609 9  20183290.700    82647257.08249
  23157890.340   121695595.032 8  23157890.960    94827757.98345
  20950539.160   110095841.766 9  20950536.960    85788945.86048
  23227896.700   122063480.159 8  23227900.260    95114443.52746
  24715963.640   129883274.341 7  24715968.760   101207772.93244
  22670307.400   119133301.329 8  22670310.820    92831177.96246
  19713937.920   105382302.436 9  19713946.320    81964053.102 8
  20400883.580   108863054.088 9  20400890.880    84671305.365 8
  23012779.860   123232306.556 7  23012788.700    95847339.560 6
  23900881.200   127405137.383 6  23900892.280    99092938.722 3
  20177569.120   107822873.494 9
  24236777.020   129423037.646 5  24236789.520   100662411.688 6
  23798063.660   127258936.797 5  23798072.020    98979207.614 5
  23892406.740   127853097.863 6  23892415.520    99441345.028 5
 16  3 23 21  0 45.0000000  0 18G03G05G07G08G09G16G23G27G28G30R01R02
                                R08R10R11R13R20R21
  24828241.020   130473282.453 6  24828249.600   101667529.07044
  25166872.040   132252790.668 6  25166875.220   103054129.52345
  21041738.460   110575159.479 9  21041738.160    86162467.67348
  23400969.640   122972974.353 8  23400974.700    95823146.16946
  20183238.600   106063673.162 9  20183239.800    82647048.68449
  23158518.400   121698895.578 8  23158519.040    94830329.83245
  20950834.500   110097393.762 9  20950832.300    85790155.20648
  23227693.280   122062411.180 8  23227696.840    95113610.55646
  24715286.100   129879713.881 7  24715291.240   101204998.54443
  22669880.500   119131057.989 8  22669883.940    92829429.90447
  19714328.420   105384389.970 9  19714336.840    81965676.740 8
  20400428.780   108860627.290 9  20400436.100    84669417.857 8
  23013597.080   123236682.826 7  23013605.900    95850743.324 6
  23901524.120   127408564.490 6  23901535.200    99095604.258 2
  20177952.960   107824924.597 9
  24236183.200   129419866.592 5  24236195.680   100659945.313 6
  23797905.580   127258091.528 5  23797913.940    98978550.183 6
  23891847.740   127850106.741 6  23891856.540    99439018.604 5
 16  3 23 21  0 46.0000000  0 18G03G05G07G08G09G16G23G27G28G30R01R02
                                R08R10R11R13R20R21
  24828949.680   130477006.371 6  24828958.200   101670430.83044
  25166339.940   132249994.516 6  25166343.160   103051950.70945
  21041530.320   110574065.656 9  21041530.020    86161615.34348
  23400513.280   122970576.075 8  23400518.340    95821277.38246
  20183187.780   106063406.172 9  20183189.000    82646840.63849
  23159146.540   121702196.394 8  23159147.160    94832901.89345
  20951129.920   110098946.199 9  20951127.720    85791364.89748
  23227489.960   122061342.728 8  23227493.520    95112777.99346
  24714608.600   129876153.519 7  24714613.660   101202224.26044
  22669453.640   119128814.827 8  22669457.080    92827681.99046
  19714719.080   105386478.272 9  19714727.480    81967300.970 8
  20399974.140   108858201.203 9  20399981.460    84667530.899 8
  23014414.320   123241059.286 8  23014423.160    95854147.231 6
  23902167.020   127411991.466 6  23902178.100    99098269.700 3
  20178336.840   107826975.989 9
  24235589.400   129416695.744 5  24235601.880   100657479.094 6
  23797747.620   127257246.971 5  23797756.000    98977893.311 5
  23891288.820   127847115.973 6  23891297.620    99436692.455 5
 16  3 23 21  0 47.0000000  0 18G03G05G07G08G09G16G23G27G28G30R01R02
                                R08R10R11R13R20R21
  24829658.340   130480730.231 7  24829666.820   101673332.52744
  25165807.920   132247198.708 6  25165811.140   103049772.16845
  21041322.220   110572972.081 9  21041321.920    86160763.20948
  23400056.960   122968178.105 8  23400062.060    95819408.83846
  20183137.080   106063139.679 9  20183138.280    82646632.98349
  23159774.740   121705497.529 8  23159775.340    94835474.20045
  20951425.440   110100499.112 9  20951423.240    85792574.95748
  23227286.740   122060274.847 8  23227290.300    95111945.87846
  24713931.100   129872593.282 7  24713936.160   101199450.05844
  22669026.820   119126571.878 8  22669030.260    92825934.23847
  19715109.880   105388567.372 9  19715118.300    81968925.824 8
  20399519.640   108855775.854 9  20399526.920    84665644.516 8
  23015231.640   123245435.971 7  23015240.440    95857551.310 6
  23902809.900   127415418.335 6  23902820.900    99100935.054 2
  20178720.800   107829027.669 9
  24234995.640   129413525.082 5  24235008.120   100655013.020 6
  23797589.800   127256403.162 5  23797598.180    98977237.021 6
  23890730.000   127844125.516 6  23890738.760    99434366.546 5
 16  3 23 21  0 48.0000000  0 18G03G05G07G08G09G16G23G27G28G30R01R02
                                R08R10R11R13R20R21
  24830367.000   130484454.172 7  24830375.440   101676234.28744
  25165276.000   132244403.395 6  25165279.200   103047594.00845
  21041114.180   110571878.831 9  21041113.880    86159911.32448
  23399600.740   122965780.545 8  23399605.820    95817540.61146
  20183086.480   106062873.756 9  20183087.680    82646425.76849
  23160403.000   121708799.073 8  23160403.620    94838046.82546
  20951721.060   110102052.585 9  20951718.840    85793785.45548
  23227083.640   122059207.608 8  23227087.200    95111114.26646
  24713253.620   129869033.206 7  24713258.680   101196675.98243
  22668600.060   119124329.205 8  22668603.480    92824186.70446
  19715500.860   105390657.347 9  19715509.280    81970551.360 8
  20399065.260   108853351.272 9  20399072.560    84663758.735 8
  23016049.000   123249812.945 7  23016057.800    95860955.617 6
  23903452.800   127418845.234 6  23903463.780    99103600.428 3
  20179104.820   107831079.748 9
  24234401.960   129410354.747 5  24234414.420   100652547.199 6
  23797432.180   127255560.238 5  23797440.560    98976581.414 6
  23890171.220   127841135.376 6  23890179.960    99432040.886 5
 16  3 23 21  0 49.0000000  0 18G03G05G07G08G09G16G23G27G28G30R01R02
                                R08R10R11R13R20R21
  24831075.660   130488178.069 7  24831084.100   101679136.02744
  25164744.120   132241608.409 6  25164747.340   103045416.09345
  21040906.200   110570785.836 9  21040905.880    86159059.64148
  23399144.560   122963383.293 8  23399149.660    95815672.62246
  20183035.960   106062608.321 9  20183037.160    82646218.93649
  23161031.320   121712100.920 8  23161031.940    94840619.69145
  20952016.780   110103606.538 9  20952014.560    85794996.32648
  23226880.660   122058140.959 8  23226884.220    95110283.11346
  24712576.200   129865473.300 7  24712581.320   101193902.04044
  22668173.340   119122086.737 8  22668176.760    92822439.32447
  19715891.980   105392748.118 9  19715900.400    81972177.516 8
  20398611.040   108850927.395 9  20398618.320    84661873.495 8
  23016866.400   123254190.084 8  23016875.180    95864360.049 6
  23904095.620   127422272.019 6  23904106.580    99106265.708 3
  20179488.880   107833132.136 9
  24233808.280   129407184.574 5  24233820.740   100650081.511 6
  23797274.620   127254718.095 5  23797283.060    98975926.414 6
  23889612.520   127838145.606 6  23889621.220    99429715.509 5
 16  3 23 21  0 50.0000000  0 18G03G05G07G08G09G16G23G27G28G30R01R02
                                R08R10R11R13R20R21
  24831784.300   130491902.016 7  24831792.720   101682037.79844
  25164212.380   132238813.931 6  25164215.560   103043238.56345
  21040698.260   110569693.186 9  21040697.960    86158208.22748
  23398688.460   122960986.450 8  23398693.560    95813804.95746
  20182985.560   106062343.473 9  20182986.760    82646012.56049
  23161659.720   121715403.171 8  23161660.360    94843192.87145
  20952312.600   110105161.070 9  20952310.380    85796207.64948
  23226677.800   122057074.967 8  23226681.360    95109452.47246
  24711898.800   129861913.594 6  24711903.980   101191128.24544
  22667746.660   119119844.586 8  22667750.080    92820692.19847
  19716283.260   105394839.785 9  19716291.680    81973804.365 8
  20398156.960   108848504.295 9  20398164.220    84659988.863 8
  23017683.840   123258567.540 8  23017692.600    95867764.733 6
  23904738.480   127425698.832 6  23904749.400    99108931.008 2
  20179873.040   107835184.925 9
  24233214.660   129404014.748 5  24233227.160   100647616.096 6
  23797117.300   127253876.786 5  23797125.720    98975272.071 6
  23889053.900   127835156.238 6  23889062.580    99427390.455 5
 16  3 23 21  0 51.0000000  0 18G03G05G07G08G09G16G23G27G28G30R01R02
                                R08R10R11R13R20R21
  24832492.960   130495625.978 7  24832501.380   101684939.56845
  25163680.680   132236019.832 6  25163683.900   103041061.34145
  21040490.380   110568600.803 9  21040490.080    86157357.02048
  23398232.420   122958589.944 8  23398237.540    95811937.55146
  20182935.260   106062079.136 9  20182936.460    82645806.58449
  23162288.220   121718705.774 8  23162288.840    94845766.32446
  20952608.520   110106716.092 9  20952606.300    85797419.35348
  23226475.060   122056009.564 8  23226478.620    95108622.29446
  24711221.420   129858354.067 6  24711226.600   101188354.57444
  22667320.020   119117602.662 8  22667323.460    92818945.24247
  19716674.700   105396932.283 9  19716683.140    81975431.860 8
  20397703.000   108846081.917 9  20397710.260    84658104.794 8
  23018501.360   123262945.237 8  23018510.100    95871169.602 6
  23905381.320   127429125.587 6  23905392.240    99111596.264 2
  20180257.260   107837238.038 9
  24232621.100   129400845.155 5  24232633.580   100645150.861 6
  23796960.080   127253036.258 5  23796968.560    98974618.329 6
  23888495.320   127832167.211 7  23888503.980    99425065.663 5
 16  3 23 21  0 52.0000000  0 18G03G05G07G08G09G16G23G27G28G30R01R02
                                R08R10R11R13R20R21
  24833201.600   130499349.783 7  24833209.980   101687841.22844
  25163149.060   132233226.031 6  25163152.240   103038884.34944
  21040282.540   110567508.570 9  21040282.240    86156505.93048
  23397776.420   122956193.650 8  23397781.560    95810070.31646
  20182885.040   106061815.205 9  20182886.240    82645600.91949
  23162916.720   121722008.598 8  23162917.340    94848339.94945
  20952904.500   110108271.507 9  20952902.280    85798631.36448
  23226272.400   122054944.633 8  23226275.980    95107792.47646
  24710544.040   129854794.551 6  24710549.260   101185580.92844
  22666893.400   119115360.856 8  22666896.860    92817198.38547
  19717066.280   105399025.494 9  19717074.720    81977059.913 8
  20397249.180   108843660.167 9  20397256.440    84656221.210 8
  23019318.880   123267323.100 8  23019327.620    95874574.598 6
  23906024.140   127432552.137 6  23906035.040    99114261.358 3
  20180641.500   107839291.351 9
  24232027.600   129397675.687 5  24232040.040   100642685.717 6
  23796803.000   127252196.497 5  23796811.540    98973965.186 6
  23887936.780   127829178.413 7  23887945.440    99422741.042 5
 16  3 23 21  0 53.0000000  0 18G03G05G07G08G09G16G23G27G28G30R01R02
                                R08R10R11R13R20R21
  24833910.220   130503073.480 6  24833918.600   101690742.81244
  25162617.460   132230432.481 6  25162620.640   103036707.54945
  21040074.720   110566416.464 9  21040074.420    86155654.93748
  23397320.460   122953797.556 8  23397325.620    95808203.23246
  20182834.880   106061551.631 9  20182836.080    82645395.53649
  23163545.260   121725311.587 8  23163545.880    94850913.71146
  20953200.560   110109827.273 9  20953198.340    85799843.64648
  23226069.840   122053880.168 8  23226073.420    95106963.02346
  24709866.680   129851235.031 6  24709871.860   101182807.30644
  22666466.820   119113119.131 8  22666470.280    92815451.59047
  19717457.980   105401119.401 9  19717466.420    81978688.505 8
  20396795.460   108841239.008 9  20396802.700    84654338.087 8
  23020136.420   123271701.043 8  23020145.160    95877979.660 6
  23906666.920   127435978.478 6  23906677.800    99116926.299 2
  20181025.800   107841344.834 9
  24231434.100   129394506.318 5  24231446.500   100640220.652 6
  23796646.040   127251357.300 5  23796654.620    98973312.471 6
  23887378.300   127826189.790 7  23887386.940    99420416.560 5
 16  3 23 21  0 54.0000000  0 18G03G05G07G08G09G16G23G27G28G30R01R02
                                R08R10R11R13R20R21
  24834618.820   130506797.069 7  24834627.160   101693644.31344
  25162085.940   132227639.251 6  25162089.100   103034530.99845
  21039866.940   110565324.580 9  21039866.640    86154804.11948
  23396864.560   122951401.736 8  23396869.700    95806336.36246
  20182784.820   106061288.535 9  20182786.020    82645190.53149
  23164173.860   121728614.895 8  23164174.500    94853487.71546
  20953496.720   110111383.502 9  20953494.500    85801056.29148
  23225867.380   122052816.252 8  23225870.980    95106134.00246
  24709189.300   129847675.649 6  24709194.500   101180033.75244
  22666040.280   119110877.593 8  22666043.740    92813704.93547
  19717849.840   105403214.096 9  19717858.280    81980317.710 8
  20396341.860   108838818.557 9  20396349.100    84652455.514 8
  23020954.020   123276079.147 8  23020962.720    95881384.846 6
  23907309.660   127439404.762 6  23907320.580    99119591.190 3
  20181410.140   107843398.599 9
  24230840.620   129391337.152 5  24230853.020   100637755.749 5
  23796489.260   127250518.799 5  23796497.840    98972660.307 5
  23886819.840   127823201.446 7  23886828.460    99418092.290 5
 16  3 23 21  0 55.0000000  0 18G03G05G07G08G09G16G23G27G28G30R01R02
                                R08R10R11R13R20R21
  24835327.360   130510520.446 7  24835335.660   101696545.63544
  25161554.420   132224846.199 6  25161557.620   103032354.59445
  21039659.160   110564232.713 9  21039658.880    86153953.31748
  23396408.660   122949006.052 8  23396413.840    95804469.60246
  20182734.800   106061025.701 9  20182736.000    82644985.72349
  23164802.480   121731918.263 8  23164803.120    94856061.76646
  20953792.920   110112939.975 9  20953790.680    85802269.12648
  23225664.980   122051752.654 8  23225668.600    95105305.22847
  24708511.940   129844116.119 6  24708516.980   101177260.08744
  22665613.720   119108636.032 8  22665617.200    92811958.26847
  19718241.800   105405309.365 9  19718250.260    81981947.364 8
  20395888.360   108836398.573 9  20395895.600    84650573.304 8
  23021771.600   123280457.234 8  23021780.300    95884790.017 6
  23907952.340   127442830.658 6  23907963.220    99122255.772 2
  20181794.480   107845452.422 9
  24230247.080   129388167.951 5  24230259.540   100635290.815 5
  23796332.600   127249680.870 5  23796341.160    98972008.587 5
  23886261.420   127820213.207 7  23886270.040    99415768.100 5
 16  3 23 21  0 56.0000000  0 18G03G05G07G08G09G16G23G27G28G30R01R02
                                R08R10R11R13R20R21
  24836035.900   130514243.702 7  24836044.180   101699446.86144
  25161023.000   132222053.458 6  25161026.180   103030178.42845
  21039451.420   110563141.029 9  21039451.140    86153102.65348
  23395952.820   122946610.594 8  23395958.020    95802603.01346
  20182684.880   106060763.302 9  20182686.060    82644781.25449
  23165431.160   121735221.912 8  23165431.800    94858636.03046
  20954089.180   110114496.871 9  20954086.960    85803482.29048
  23225462.660   122050689.587 8  23225466.300    95104476.86046
  24707834.600   129840556.681 6  24707839.640   101174486.51544
  22665187.180   119106394.625 8  22665190.660    92810211.71547
  19718633.900   105407405.375 9  19718642.360    81983577.592 8
  20395434.980   108833979.221 9  20395442.200    84648691.588 8
  23022589.180   123284835.512 8  23022597.900    95888195.340 6
  23908594.960   127446256.435 6  23908605.860    99124920.261 3
  20182178.880   107847506.504 9
  24229653.620   129384998.905 5  24229666.060   100632825.998 5
  23796176.100   127248843.657 5  23796184.620    98971357.430 5
  23885703.060   127817225.208 7  23885711.640    99413444.107 5
 16  3 23 21  0 57.0000000  0 18G03G05G07G08G09G16G23G27G28G30R01R02
                                R08R10R11R13R20R21
  24836744.420   130517966.939 7  24836752.720   101702348.06644
  25160491.620   132219261.069 6  25160494.740   103028002.53445
  21039243.720   110562049.600 9  21039243.440    86152252.18948
  23395497.040   122944215.435 8  23395502.220    95800736.66646
  20182635.040   106060501.386 9  20182636.220    82644577.16649
  23166059.880   121738525.860 8  23166060.500    94861210.53345
  20954385.540   110116054.233 9  20954383.300    85804695.81848
  23225260.480   122049627.092 8  23225264.120    95103648.94046
  24707157.260   129836997.343 6  24707162.360   101171713.01344
  22664760.680   119104153.418 8  22664764.180    92808465.32247
  19719026.140   105409502.176 9  19719034.620    81985208.435 8
  20394981.720   108831560.582 9  20394988.940    84646810.426 8
  23023406.860   123289214.023 8  23023415.520    95891600.846 6
  23909237.580   127449682.129 6  23909248.480    99127584.683 3
  20182563.320   107849560.886 9
  24229060.140   129381830.097 5  24229072.640   100630361.371 5
  23796019.660   127248007.182 5  23796028.200    98970706.840 5
  23885144.760   127814237.519 7  23885153.300    99411120.349 5
 16  3 23 21  0 58.0000000  0 18G03G05G07G08G09G16G23G27G28G30R01R02
                                R08R10R11R13R20R21
  24837452.940   130521690.197 7  24837461.240   101705249.30844
  25159960.360   132216469.147 6  25159963.420   103025827.00446
  21039036.100   110560958.494 9  21039035.820    86151401.97948
  23395041.340   122941820.695 8  23395046.540    95798870.63746
  20182585.300   106060240.042 9  20182586.500    82644373.52149
  23166688.680   121741830.208 8  23166689.300    94863785.34845
  20954682.020   110117612.154 9  20954679.760    85805909.77848
  23225058.400   122048565.233 8  23225062.040    95102821.51746
  24706479.980   129833438.228 6  24706485.180   101168939.68344
  22664334.260   119101912.487 8  22664337.760    92806719.14947
  19719418.560   105411599.851 9  19719427.020    81986839.960 8
  20394528.620   108829142.727 9  20394535.840    84644929.874 8
  23024224.560   123293592.788 8  23024233.220    95895006.544 6
  23909880.200   127453107.802 6  23909891.120    99130249.106 3
  20182947.840   107851615.665 9
  24228466.800   129378661.606 5  24228479.300   100627896.987 5
  23795863.420   127247171.552 5  23795871.940    98970056.908 5
  23884586.540   127811250.211 7  23884595.040    99408796.889 5
 16  3 23 21  0 59.0000000  0 18G03G05G07G08G09G16G23G27G28G30R01R02
                                R08R10R11R13R20R21
  24838161.440   130525413.395 7  24838169.700   101708150.49343
  25159429.140   132213677.570 6  25159432.180   103023651.75145
  21038828.500   110559867.596 9  21038828.220    86150551.92648
  23394585.680   122939426.219 8  23394590.900    95797004.81846
  20182535.660   106059979.145 9  20182536.840    82644170.22749
  23167317.540   121745134.821 8  23167318.140    94866360.36546
  20954978.560   110119170.511 9  20954976.320    85807124.08248
  23224856.460   122047503.900 8  23224860.060    95101994.50446
  24705802.700   129829879.192 6  24705807.940   101166166.41744
  22663907.860   119099671.745 8  22663911.340    92804973.11447
  19719811.120   105413698.285 9  19719819.580    81988472.076 8
  20394075.640   108826725.533 9  20394082.860    84643049.837 8
  23025042.280   123297971.706 8  23025050.960    95898412.363 6
  23910522.820   127456533.304 6  23910533.740    99132913.385 3
  20183332.400   107853670.712 9
  24227873.460   129375493.284 5  24227885.960   100625432.741 5
  23795707.240   127246336.644 5  23795715.820    98969407.539 5
  23884028.360   127808263.207 7  23884036.840    99406473.662 5
 16  3 23 21  1  0.0000000  0 18G03G05G07G08G09G16G23G27G28G30R01R02
                                R08R10R11R13R20R21
  24838869.940   130529136.477 7  24838878.180   101711051.58044
  25158898.000   132210886.292 6  25158901.020   103021476.72444
  21038620.960   110558776.895 9  21038620.660    86149702.03148
  23394130.080   122937032.015 8  23394135.280    95795139.20246
  20182486.080   106059718.693 9  20182487.280    82643967.27749
  23167946.440   121748439.695 8  23167947.060    94868935.58345
  20955275.200   110120729.299 9  20955272.960    85808338.72048
  23224654.580   122046443.087 8  23224658.220    95101167.89746
  24705125.460   129826320.238 6  24705130.700   101163393.22844
  22663481.480   119097431.143 8  22663484.960    92803227.19246
  19720203.820   105415797.452 9  19720212.280    81990104.758 8
  20393622.780   108824308.983 9  20393629.980    84641170.297 8
  23025860.060   123302350.782 8  23025868.720    95901818.304 6
  23911165.400   127459958.718 5  23911176.360    99135577.599 3
  20183717.020   107855726.018 9
  24227280.160   129372325.138 5  24227292.680   100622968.625 5
  23795551.280   127245502.418 5  23795559.820    98968758.697 5
  23883470.220   127805276.423 7  23883478.680    99404150.604 6
 16  3 23 21  1  1.0000000  0 18G03G05G07G08G09G16G23G27G28G30R01R02
                                R08R10R11R13R20R21
  24839578.420   130532859.394 7  24839586.640   101713952.54443
  25158366.880   132208095.206 6  25158369.920   103019301.83545
  21038413.400   110557686.265 9  21038413.120    86148852.19048
  23393674.500   122934637.952 8  23393679.720    95793273.70246
  20182436.580   106059458.555 9  20182437.780    82643764.57349
  23168575.360   121751744.697 8  23168576.000    94871510.91145
  20955571.880   110122288.376 9  20955569.640    85809553.58148
  23224452.780   122045382.681 8  23224456.440    95100341.60746
  24704448.160   129822761.202 6  24704453.480   101160619.95844
  22663055.100   119095190.572 8  22663058.600    92801481.29447
  19720596.620   105417897.225 9  19720605.080    81991737.913 8
  20393170.020   108821892.966 9  20393177.220    84639291.175 8
  23026677.840   123306729.916 8  23026686.480    95905224.288 6
  23911807.940   127463383.797 6  23911818.920    99138241.544 3
  20184101.680   107857781.426 9
  24226686.900   129369157.093 5  24226699.400   100620504.586 5
  23795395.380   127244668.812 5  23795403.940    98968110.336 6
  23882912.120   127802289.784 7  23882920.540    99401827.660 5
 16  3 23 21  1  2.0000000  0 18G03G05G07G08G09G16G23G27G28G30R01R02
                                R08R10R11R13R20R21
  24840286.880   130536582.335 7  24840295.160   101716853.54343
  25157835.860   132205304.633 6  25157838.880   103017127.36445
  21038205.940   110556596.000 9  21038205.660    86148002.63748
  23393219.020   122932244.323 8  23393224.240    95791408.54346
  20182387.200   106059199.038 9  20182388.400    82643562.34949
  23169204.380   121755050.146 8  23169205.000    94874086.58846
  20955868.700   110123848.062 9  20955866.440    85810768.92248
  23224251.120   122044322.961 8  23224254.800    95099515.85346
  24703770.940   129819202.476 6  24703776.280   101157846.95144
  22662628.800   119092950.337 8  22662632.300    92799735.66147
  19720989.600   105419997.944 9  19720998.060    81993371.806 7
  20392717.420   108819477.819 9  20392724.620    84637412.728 8
  23027495.680   123311109.404 8  23027504.320    95908630.552 6
  23912450.480   127466808.982 6  23912461.500    99140905.569 3
  20184486.400   107859837.274 9
  24226093.660   129365989.270 5  24226106.160   100618040.721 5
  23795239.700   127243836.075 5  23795248.220    98967462.648 5
  23882354.080   127799303.607 7  23882362.500    99399505.076 5
 16  3 23 21  1  3.0000000  0 18G03G05G07G08G09G16G23G27G28G30R01R02
                                R08R10R11R13R20R21
  24840995.340   130540305.204 7  24841003.580   101719754.47843
  25157304.880   132202514.340 6  25157307.920   103014953.10844
  21037998.500   110555505.904 9  21037998.220    86147153.20948
  23392763.560   122929850.951 8  23392768.780    95789543.58046
  20182337.900   106058939.933 9  20182339.100    82643360.44749
  23169833.440   121758355.826 8  23169834.040    94876662.44245
  20956165.580   110125408.141 9  20956163.320    85811984.56748
  23224049.560   122043263.720 8  23224053.240    95098690.47246
  24703093.720   129815643.730 6  24703099.040   101155073.92843
  22662202.500   119090710.220 8  22662206.020    92797990.11647
  19721382.720   105422099.385 9  19721391.180    81995006.256 8
  20392264.940   108817063.286 9  20392272.140    84635534.755 8
  23028313.580   123315489.026 8  23028322.200    95912036.916 6
  23913093.000   127470233.983 6  23913104.060    99143569.448 4
  20184871.180   107861893.334 9
  24225500.520   129362821.655 5  24225512.960   100615577.023 5
  23795084.080   127243003.996 5  23795092.620    98966815.473 5
  23881796.080   127796317.644 7  23881804.480    99397182.667 6
 16  3 23 21  1  4.0000000  0 18G03G05G07G08G09G16G23G27G28G30R01R02
                                R08R10R11R13R20R21
  24841703.760   130544027.942 7  24841712.040   101722655.30243
  25156773.980   132199724.308 6  25156777.020   103012779.06945
  21037791.080   110554415.959 9  21037790.800    86146303.90348
  23392308.160   122927457.776 8  23392313.400    95787678.77146
  20182288.660   106058681.202 9  20182289.860    82643158.84049
  23170462.520   121761661.716 8  23170463.140    94879238.45646
  20956462.520   110126968.605 9  20956460.260    85813200.51348
  23223848.080   122042204.961 8  23223851.780    95097865.46546
  24702416.520   129812085.051 6  24702421.840   101152300.93844
  22661776.240   119088470.240 8  22661779.760    92796244.67947
  19721775.960   105424201.535 9  19721784.440    81996641.261 8
  20391812.560   108814649.334 9  20391819.760    84633657.241 8
  23029131.440   123319868.718 8  23029140.080    95915443.332 6
  23913735.500   127473658.790 6  23913746.580    99146233.172 3
  20185255.980   107863949.583 9
  24224907.320   129359654.144 5  24224919.760   100613113.410 5
  23794928.600   127242172.559 5  23794937.140    98966168.804 5
  23881238.120   127793331.888 7  23881246.520    99394860.414 6
 16  3 23 21  1  5.0000000  0 18G03G05G07G08G09G16G23G27G28G30R01R02
                                R08R10R11R13R20R21
  24842412.220   130547750.780 7  24842420.440   101725556.19944
  25156243.180   132196934.822 6  25156246.160   103010605.44845
  21037583.760   110553326.412 9  21037583.480    86145454.90348
  23391852.840   122925065.098 8  23391858.100    95785814.35446
  20182239.540   106058423.127 9  20182240.740    82642957.74349
  23171091.720   121764968.071 8  23171092.320    94881814.83746
  20956759.600   110128529.692 9  20956757.320    85814416.94348
  23223646.740   122041146.923 8  23223650.460    95097041.01647
  24701739.360   129808526.625 6  24701744.680   101149528.15744
  22661350.040   119086230.571 8  22661353.540    92794499.48147
  19722169.380   105426304.644 9  19722177.860    81998277.012 8
  20391360.340   108812236.217 9  20391367.540    84631780.373 8
  23029949.380   123324248.752 8  23029958.060    95918850.022 6
  23914378.000   127477083.647 6  23914389.100    99148896.948 4
  20185640.860   107866006.281 9
  24224314.240   129356487.029 5  24224326.660   100610650.104 5
  23794773.220   127241342.044 5  23794781.840    98965522.848 5
  23880680.260   127790346.602 7  23880688.640    99392538.527 6
 16  3 23 21  1  6.0000000  0 18G03G05G07G08G09G16G23G27G28G30R01R02
                                R08R10R11R13R20R21
  24843120.700   130551473.715 7  24843128.860   101728457.17744
  25155712.460   132194145.833 6  25155715.420   103008432.21644
  21037376.480   110552237.253 9  21037376.220    86144606.21249
  23391397.600   122922672.859 8  23391402.880    95783950.27646
  20182190.560   106058165.662 9  20182191.760    82642757.12149
  23171720.980   121768274.868 8  23171721.600    94884391.56046
  20957056.780   110130091.394 9  20957054.500    85815633.84948
  23223445.540   122040089.589 8  23223449.260    95096217.12346
  24701062.260   129804968.459 6  24701067.680   101146755.56645
  22660923.920   119083991.269 8  22660927.420    92792754.57547
  19722562.980   105428408.680 9  19722571.480    81999913.483 8
  20390908.280   108809823.979 9  20390915.480    84629904.187 8
  23030767.400   123328629.158 8  23030776.100    95922256.996 6
  23915020.500   127480508.568 6  23915031.620    99151560.778 4
  20186025.820   107868063.431 9
  24223721.220   129353320.290 5  24223733.640   100608187.085 5
  23794618.080   127240512.395 5  23794626.680    98964877.570 5
  23880122.440   127787361.755 7  23880130.860    99390216.981 6
 16  3 23 21  1  7.0000000  0 18G03G05G07G08G09G16G23G27G28G30R01R02
                                R08R10R11R13R20R21
  24843829.160   130555196.653 7  24843837.280   101731358.17143
  25155181.780   132191357.256 6  25155184.800   103006259.29344
  21037169.280   110551148.352 9  21037169.000    86143757.71648
  23390942.420   122920280.924 8  23390947.720    95782086.43146
  20182141.660   106057908.730 9  20182142.860    82642556.91649
  23172350.300   121771582.004 8  23172350.960    94886968.54545
  20957354.080   110131653.603 9  20957351.800    85816851.15548
  23223244.440   122039032.851 8  23223248.160    95095393.69146
  24700385.220   129801410.503 5  24700390.620   101143983.13944
  22660497.840   119081752.187 8  22660501.340    92791009.83847
  19722956.760   105430513.539 9  19722965.220    82001550.598 8
  20390456.380   108807412.527 9  20390463.560    84628028.616 8
  23031585.460   123333009.811 8  23031594.180    95925664.158 6
  23915663.000   127483933.428 6  23915674.160    99154224.562 4
  20186410.860   107870120.906 9
  24223128.240   129350153.772 5  24223140.640   100605724.240 5
  23794463.120   127239683.631 5  23794471.700    98964232.975 5
  23879564.720   127784377.253 7  23879573.120    99387895.704 5
 16  3 23 21  1  8.0000000  0 18G03G05G07G08G09G16G23G27G28G30R01R02
                                R08R10R11R13R20R21
  24844537.640   130558919.599 7  24844545.740   101734259.17043
  25154651.220   132188569.092 6  25154654.180   103004086.68745
  21036962.120   110550059.753 9  21036961.840    86142909.45748
  23390487.320   122917889.389 8  23390492.640    95780222.90346
  20182092.860   106057652.334 9  20182094.080    82642357.12549
  23172979.720   121774889.513 8  23172980.340    94889545.81645
  20957651.460   110133216.338 9  20957649.180    85818068.86648
  23223043.460   122037976.726 8  23223047.180    95094570.73646
  24699708.160   129797852.660 5  24699713.560   101141210.80244
  22660071.800   119079513.374 8  22660075.320    92789265.30447
  19723350.660   105432619.235 9  19723359.140    82003188.360 8
  20390004.640   108805001.862 9  20390011.820    84626153.655 8
  23032403.580   123337390.726 8  23032412.320    95929071.528 6
  23916305.480   127487358.243 6  23916316.660    99156888.313 4
  20186795.940   107872178.737 9
  24222535.300   129346987.516 5  24222547.700   100603261.594 5
  23794308.320   127238855.640 5  23794316.840    98963588.982 5
  23879007.060   127781393.126 7  23879015.480    99385574.718 6
 16  3 23 21  1  9.0000000  0 18G03G05G07G08G09G16G23G27G28G30R01R02
                                R08R10R11R13R20R21
  24845246.140   130562642.592 7  24845254.200   101737160.20644
  25154120.720   132185781.369 6  25154123.700   103001914.42845
  21036755.040   110548971.464 9  21036754.740    86142061.44248
  23390032.280   122915498.227 8  23390037.600    95778359.66446
  20182044.180   106057396.487 9  20182045.380    82642157.76449
  23173609.180   121778197.392 8  23173609.800    94892123.38445
  20957948.940   110134779.608 9  20957946.660    85819286.99948
  23222842.620   122036921.252 8  23222846.320    95093748.28347
  24699031.140   129794295.048 5  24699036.600   101138438.64145
  22659645.820   119077274.845 8  22659649.340    92787521.00247
  19723744.720   105434725.781 9  19723753.220    82004826.780 8
  20389553.020   108802591.948 9  20389560.200    84624279.278 8
  23033221.740   123341771.922 8  23033230.520    95932479.113 6
  23916947.980   127490783.060 6  23916959.200    99159552.057 4
  20187181.120   107874236.945 9
  24221942.420   129343821.597 4  24221954.800   100600799.213 5
  23794153.680   127238028.470 5  23794162.160    98962945.622 5
  23878449.460   127778409.389 7  23878457.900    99383254.038 6
 16  3 23 21  1 10.0000000  0 18G03G05G07G08G09G16G23G27G28G30R01R02
                                R08R10R11R13R20R21
  24845954.600   130566365.495 7  24845962.660   101740061.15544
  25153590.320   132182994.001 6  25153593.360   102999742.44844
  21036547.980   110547883.388 9  21036547.700    86141213.59249
  23389577.320   122913107.344 8  23389582.620    95776496.64246
  20181995.580   106057141.111 9  20181996.780    82641958.77049
  23174238.720   121781505.550 8  23174239.320    94894701.17046
  20958246.520   110136343.328 9  20958244.220    85820505.48248
  23222641.860   122035866.311 8  23222645.560    95092926.25546
  24698354.160   129790737.521 5  24698359.620   101135666.55044
  22659219.860   119075036.478 8  22659223.380    92785776.82247
  19724138.940   105436833.095 9  19724147.420    82006465.799 8
  20389101.520   108800182.673 9  20389108.700    84622405.398 8
  23034039.920   123346153.282 8  23034048.740    95935886.828 7
  23917590.500   127494207.693 6  23917601.720    99162215.665 4
  20187566.340   107876295.425 9
  24221349.580   129340655.832 4  24221361.920   100598336.953 4
  23793999.140   127237202.043 5  23794007.600    98962302.841 5
  23877891.920   127775425.952 7  23877900.360    99380933.594 6
 16  3 23 21  1 11.0000000  0 18G03G05G07G08G09G16G23G27G28G30R01R02
                                R08R10R11R13R20R21
  24846663.020   130570088.228 7  24846671.040   101742961.96743
  25153059.920   132180206.838 6  25153062.960   102997570.63345
  21036340.940   110546795.399 9  21036340.660    86140365.80448
  23389122.360   122910716.644 8  23389127.700    95774633.76546
  20181947.040   106056886.060 9  20181948.240    82641760.02949
  23174868.260   121784813.852 8  23174868.860    94897279.06345
  20958544.140   110137907.369 9  20958541.860    85821724.21948
  23222441.200   122034811.783 8  23222444.900    95092104.54946
  24697677.160   129787179.922 5  24697682.660   101132894.40344
  22658793.920   119072798.174 8  22658797.460    92784032.69447
  19724533.280   105438941.033 9  19724541.780    82008105.305 8
  20388650.120   108797773.916 9  20388657.280    84620531.923 8
  23034858.140   123350534.725 8  23034866.980    95939294.613 7
  23918232.920   127497632.140 6  23918244.180    99164879.128 4
  20187951.580   107878354.047 9
  24220756.760   129337490.124 5  24220769.080   100595874.736 4
  23793844.740   127236376.236 5  23793853.160    98961660.543 5
  23877334.440   127772442.631 7  23877342.860    99378613.234 6
 16  3 23 21  1 12.0000000  0 18G03G05G07G08G09G16G23G27G28G30R01R02
                                R08R10R11R13R20R21
  24847371.460   130573810.992 7  24847379.560   101745862.83143
  25152529.640   132177420.135 6  25152532.700   102995399.18645
  21036133.980   110545707.780 9  21036133.680    86139518.31148
  23388667.500   122908326.344 8  23388672.860    95772771.19646
  20181898.640   106056631.633 9  20181899.840    82641561.77249
  23175497.920   121788122.601 8  23175498.500    94899857.30545
  20958841.880   110139472.003 9  20958839.600    85822943.41048
  23222240.660   122033757.933 8  23222244.380    95091283.36546
  24697000.200   129783622.594 5  24697005.800   101130122.46845
  22658368.040   119070560.155 8  22658371.560    92782288.78447
  19724927.780   105441049.899 9  19724936.280    82009745.534 8
  20388198.880   108795365.984 9  20388206.040    84618659.086 8
  23035676.420   123354916.470 8  23035685.260    95942702.626 7
  23918875.360   127501056.587 6  23918886.620    99167542.584 4
  20188336.900   107880413.099 9
  24220163.980   129334324.749 5  24220176.280   100593412.780 4
  23793690.460   127235551.251 5  23793698.880    98961018.887 5
  23876777.040   127769459.734 8  23876785.440    99376293.206 6
 16  3 23 21  1 13.0000000  0 18G03G05G07G08G09G16G23G27G28G30R01R02
                                R08R10R11R13R20R21
  24848079.880   130577533.807 7  24848088.020   101748763.72944
  25151999.420   132174633.860 6  25152002.480   102993228.06145
  21035927.060   110544620.434 9  21035926.780    86138671.03149
  23388212.700   122905936.425 8  23388218.060    95770908.92546
  20181850.320   106056377.709 9  20181851.520    82641363.90949
  23176127.620   121791431.687 8  23176128.200    94902435.81146
  20959139.740   110141037.147 9  20959137.440    85824163.00148
  23222040.220   122032704.680 8  23222043.940    95090462.65246
  24696323.260   129780065.405 5  24696328.920   101127350.62642
  22657942.220   119068322.408 8  22657945.720    92780545.08647
  19725322.440   105443159.596 9  19725330.940    82011386.408 8
  20387747.780   108792958.814 9  20387754.920    84616786.844 8
  23036494.740   123359298.483 8  23036503.600    95946110.846 7
  23919517.740   127504481.026 6  23919529.080    99170206.035 4
  20188722.300   107882472.495 9
  24219571.260   129331159.674 4  24219583.560   100590951.048 4
  23793536.340   127234727.099 5  23793544.760    98960377.885 5
  23876219.700   127766477.215 8  23876228.060    99373973.469 6
 16  3 23 21  1 14.0000000  0 18G03G05G07G08G09G16G23G27G28G30R01R02
                                R08R10R11R13R20R21
  24848788.260   130581256.337 7  24848796.380   101751664.39243
  25151469.260   132171847.787 6  25151472.340   102991057.08944
  21035720.160   110543533.146 9  21035719.880    86137823.79749
  23387757.940   122903546.632 8  23387763.300    95769046.75546
  20181802.060   106056124.099 9  20181803.260    82641166.29149
  23176757.340   121794740.914 8  23176757.920    94905014.42846
  20959437.620   110142602.572 9  20959435.320    85825382.81348
  23221839.880   122031651.836 8  23221843.600    95089642.25547
  24695646.280   129776508.135 5  24695652.020   101124578.74045
  22657516.360   119066084.683 8  22657519.920    92778801.40547
  19725717.240   105445269.919 9  19725725.720    82013027.768 8
  20387296.780   108790552.205 9  20387303.920    84614915.039 8
  23037313.040   123363680.479 8  23037321.940    95949519.060 7
  23920160.080   127507905.131 6  23920171.440    99172869.222 4
  20189107.700   107884531.980 9
  24218978.580   129327994.598 4  24218990.840   100588489.314 4
  23793382.320   127233903.525 5  23793390.740    98959737.329 5
  23875662.380   127763494.813 8  23875670.740    99371653.819 6
 16  3 23 21  1 15.0000000  0 18G03G05G07G08G09G16G23G27G28G30R01R02
                                R08R10R11R13R20R21
  24849496.600   130584978.676 7  24849504.680   101754564.91644
  25150939.140   132169061.830 6  25150942.200   102988886.20545
  21035513.260   110542445.890 9  21035512.980    86136976.58549
  23387303.180   122901156.933 8  23387308.560    95767184.65646
  20181753.840   106055870.748 9  20181755.040    82640968.87949
  23177387.080   121798050.204 8  23177387.660    94907593.09446
  20959735.580   110144168.249 9  20959733.260    85826602.81948
  23221639.580   122030599.313 8  23221643.300    95088822.10946
  24694969.300   129772950.818 4  24694975.060   101121806.86145
  22657090.540   119063846.913 8  22657094.060    92777057.68647
  19726112.120   105447380.814 9  19726120.600    82014669.573 8
  20386845.880   108788146.092 9  20386853.020    84613043.620 8
  23038131.360   123368062.452 8  23038140.260    95952927.250 7
  23920802.380   127511328.952 6  23920813.800    99175532.185 4
  20189493.120   107886591.553 9
  24218385.900   129324829.487 4  24218398.080   100586027.549 4
  23793228.400   127233080.478 5  23793236.820    98959097.183 5
  23875105.080   127760512.519 8  23875113.440    99369334.250 6
 16  3 23 21  1 16.0000000  0 18G03G05G07G08G09G16G23G27G28G30R01R02
                                R08R10R11R13R20R21
  24850204.940   130588700.967 6  24850213.020   101757465.39444
  25150409.060   132166276.294 6  25150412.120   102986715.65745
  21035306.420   110541358.899 9  21035306.120    86136129.57949
  23386848.480   122898767.534 8  23386853.860    95765322.78946
  20181705.720   106055617.913 9  20181706.940    82640771.86449
  23178016.880   121801359.844 8  23178017.440    94910172.02845
  20960033.620   110145734.437 9  20960031.300    85827823.22348
  23221439.400   122029547.415 8  23221443.120    95088002.44246
  24694292.340   129769393.598 4  24694298.200   101119035.04045
  22656664.760   119061609.395 8  22656668.280    92775314.16847
  19726507.160   105449492.537 9  19726515.640    82016312.022 8
  20386395.100   108785740.689 9  20386402.240    84611172.750 8
  23038949.740   123372444.682 8  23038958.660    95956335.643 7
  23921444.660   127514752.679 6  23921456.120    99178195.080 4
  20189878.580   107888651.425 9
  24217793.200   129321664.644 4  24217805.360   100583565.994 4
  23793074.640   127232258.208 5  23793083.020    98958457.636 5
  23874547.820   127757530.516 8  23874556.180    99367014.915 6
 16  3 23 21  1 17.0000000  0 18G03G05G07G08G09G16G23G27G28G30R01R02
                                R08R10R11R13R20R21
  24850913.300   130592423.261 6  24850921.320   101760365.86344
  25149879.080   132163491.196 6  25149882.160   102984545.44945
  21035099.620   110540272.215 9  21035099.340    86135282.81649
  23386393.860   122896378.535 8  23386399.260    95763461.22946
  20181657.720   106055365.632 9  20181658.920    82640575.27949
  23178646.760   121804669.841 8  23178647.320    94912751.25046
  20960331.760   110147301.154 9  20960329.440    85829044.03848
  23221239.340   122028496.119 8  23221243.060    95087183.25246
  24693615.440   129765836.609 4  24693621.440   101116263.38745
  22656239.020   119059372.142 8  22656242.540    92773570.85447
  19726902.360   105451605.107 9  19726910.840    82017955.132 8
  20385944.460   108783336.025 9  20385951.620    84609302.458 8
  23039768.180   123376827.206 8  23039777.100    95959744.267 7
  23922086.940   127518176.377 6  23922098.440    99180857.945 4
  20190264.120   107890711.658 9
  24217200.580   129318500.073 4  24217212.680   100581104.652 4
  23792921.040   127231436.744 5  23792929.400    98957818.713 5
  23873990.620   127754548.893 8  23873999.020    99364695.877 6
 16  3 23 21  1 18.0000000  0 18G03G05G07G08G09G16G23G27G28G30R01R02
                                R08R10R11R13R20R21
  24851621.640   130596145.566 6  24851629.660   101763266.35044
  25149349.180   132160706.463 6  25149352.280   102982375.51544
  21034892.880   110539185.781 9  21034892.600    86134436.24548
  23385939.300   122893989.835 8  23385944.700    95761599.90646
  20181609.800   106055113.839 9  20181611.020    82640379.08049
  23179276.700   121807980.161 8  23179277.280    94915330.72045
  20960629.980   110148868.345 9  20960627.680    85830265.22848
  23221039.400   122027445.395 8  23221043.100    95086364.50746
  24692938.560   129762279.704 4  24692944.600   101113491.81244
  22655813.320   119057135.079 8  22655816.820    92771827.69047
  19727297.700   105453718.472 9  19727306.180    82019598.860 8
  20385493.960   108780932.074 9  20385501.100    84607432.718 8
  23040586.620   123381209.913 8  23040595.580    95963153.028 7
  23922729.160   127521599.989 6  23922740.720    99183520.751 4
  20190649.720   107892772.193 9
  24216608.000   129315335.707 4  24216620.080   100578643.477 4
  23792767.580   127230616.047 5  23792775.900    98957180.393 5
  23873433.520   127751567.626 8  23873441.900    99362377.120 6
 16  3 23 21  1 19.0000000  0 18G03G05G07G08G09G16G23G27G28G30R01R02
                                R08R10R11R13R20R21
  24852329.920   130599867.760 6  24852338.020   101766166.75244
  25148819.340   132157922.122 6  25148822.440   102980205.88645
  21034686.200   110538099.626 9  21034685.900    86133589.89049
  23385484.800   122891601.468 8  23385490.220    95759738.84646
  20181561.980   106054862.546 9  20181563.200    82640183.26549
  23179906.700   121811290.791 8  23179907.280    94917910.42245
  20960928.320   110150436.017 9  20960925.980    85831486.79048
  23220839.540   122026395.248 8  23220843.260    95085546.20846
  24692261.720   129758723.001 5  24692267.780   101110720.39643
  22655387.660   119054898.241 8  22655391.180    92770084.70447
  19727693.220   105455832.654 9  19727701.680    82021243.220 7
  20385043.600   108778528.861 9  20385050.740    84605563.557 8
  23041405.080   123385592.804 8  23041414.080    95966561.931 6
  23923371.400   127525023.532 6  23923382.980    99186183.496 4
  20191035.380   107894833.032 9
  24216015.440   129312171.571 4  24216027.540   100576182.476 4
  23792614.260   127229796.117 5  23792622.580    98956542.670 5
  23872876.460   127748586.667 8  23872884.820    99360058.600 6
 16  3 23 21  1 20.0000000  0 18G03G05G07G08G09G16G23G27G28G30R01R02
                                R08R10R11R13R20R21
  24853038.280   130603590.062 6  24853046.360   101769067.23144
  25148289.580   132155138.204 6  25148292.700   102978036.60245
  21034479.580   110537013.786 9  21034479.280    86132743.78149
  23385030.360   122889213.483 8  23385035.800    95757878.08246
  20181514.260   106054611.812 9  20181515.480    82639987.88849
  23180536.740   121814601.797 8  23180537.340    94920490.42745
  20961226.740   110152004.238 9  20961224.420    85832708.77848
  23220639.840   122025345.746 8  23220643.560    95084728.41646
  24691584.920   129755166.417 5  24691591.040   101107949.06143
  22654962.060   119052661.680 8  22654965.580    92768341.93347
  19728088.880   105457947.707 9  19728097.360    82022888.261 8
  20384593.380   108776126.465 9  20384600.540    84603695.029 8
  23042223.640   123389976.013 8  23042232.640    95969971.081 7
  23924013.640   127528447.020 7  23924025.260    99188846.198 4
  20191421.100   107896894.251 9
  24215422.940   129309007.764 4  24215435.020   100573721.727 4
  23792461.120   127228977.008 5  23792469.380    98955905.589 5
  23872319.440   127745606.053 7  23872327.820    99357740.347 6
 16  3 23 21  1 21.0000000  0 18G03G05G07G08G09G16G23G27G28G30R01R02
                                R08R10R11R13R20R21
  24853746.620   130607312.387 6  24853754.720   101771967.74245
  25147759.920   132152354.733 6  25147763.020   102975867.66944
  21034273.000   110535928.259 9  21034272.720    86131897.91549
  23384576.020   122886825.884 8  23384581.460    95756017.62146
  20181466.660   106054361.633 9  20181467.880    82639792.94349
  23181166.880   121817913.195 8  23181167.500    94923070.73546
  20961525.260   110153573.013 9  20961522.940    85833931.19648
  23220440.240   122024296.880 8  23220443.960    95083911.12346
  24690908.140   129751610.069 5  24690914.160   101105177.85245
  22654536.520   119050425.386 8  22654540.020    92766599.37147
  19728484.720   105460063.632 9  19728493.180    82024533.979 8
  20384143.320   108773724.848 9  20384150.480    84601827.102 8
  23043042.260   123394359.526 8  23043051.280    95973380.467 7
  23924655.880   127531870.478 7  23924667.540    99191508.873 5
  20191806.900   107898955.833 9
  24214830.400   129305844.194 4  24214842.560   100571261.162 4
  23792308.100   127228158.741 5  23792316.360    98955269.160 5
  23871762.520   127742625.853 7  23871770.920    99355422.424 6
 16  3 23 21  1 22.0000000  0 18G03G05G07G08G09G16G23G27G28G30R01R02
                                R08R10R11R13R20R21
  24854454.960   130611034.676 6  24854462.960   101774868.21943
  25147230.300   132149571.655 6  25147233.380   102973699.02944
  21034066.480   110534842.986 9  21034066.200    86131052.25049
  23384121.720   122884438.613 8  23384127.180    95754157.41746
  20181419.140   106054111.969 9  20181420.360    82639598.40049
  23181797.080   121821224.897 8  23181797.680    94925651.27846
  20961823.880   110155142.266 9  20961821.560    85835153.99148
  23220240.760   122023248.609 8  23220244.480    95083094.28946
  24690231.400   129748053.860 5  24690237.320   101102406.76643
  22654111.000   119048189.316 8  22654114.520    92764856.97847
  19728880.700   105462180.364 9  19728889.160    82026180.328 8
  20383693.400   108771323.935 9  20383700.560    84599959.728 8
  23043860.900   123398743.228 8  23043869.920    95976790.001 7
  23925298.100   127535293.874 7  23925309.800    99194171.513 5
  20192192.760   107901017.718 9
  24214237.960   129302680.867 4  24214250.140   100568800.794 4
  23792155.220   127227341.272 5  23792163.500    98954633.352 5
  23871205.680   127739645.991 7  23871214.060    99353104.756 6
 16  3 23 21  1 23.0000000  0 18G03G05G07G08G09G16G23G27G28G30R01R02
                                R08R10R11R13R20R21
  24855163.240   130614756.789 6  24855171.360   101777768.56245
  25146700.760   132146788.814 6  25146703.840   102971530.58445
  21033859.980   110533757.826 9  21033859.680    86130206.66949
  23383667.460   122882051.537 8  23383672.940    95752297.36146
  20181371.700   106053862.655 9  20181372.920    82639404.12849
  23182427.320   121824536.794 8  23182427.900    94928231.97245
  20962122.580   110156711.867 9  20962120.240    85836377.05448
  23220041.360   122022200.783 8  23220045.080    95082277.80247
  24689554.660   129744497.652 5  24689560.580   101099635.69644
  22653685.500   119045953.320 8  22653689.020    92763114.64547
  19729276.800   105464297.764 9  19729285.260    82027827.188 8
  20383243.560   108768923.559 9  20383250.720    84598092.768 8
  23044679.560   123403127.022 7  23044688.600    95980199.612 7
  23925940.280   127538717.015 7  23925951.980    99196833.952 4
  20192578.640   107903079.770 9
  24213645.620   129299517.671 4  24213657.760   100566340.529 4
  23792002.440   127226524.409 5  23792010.740    98953998.014 5
  23870648.860   127736666.356 7  23870657.240    99350787.266 6
 16  3 23 21  1 24.0000000  0 18G03G05G07G08G09G16G23G27G28G30R01R02
                                R08R10R11R13R20R21
  24855871.520   130618478.817 6  24855879.600   101780668.84445
  25146171.280   132144006.328 6  25146174.340   102969362.42345
  21033653.520   110532672.864 9  21033653.220    86129361.24449
  23383213.260   122879664.726 8  23383218.740    95750437.50746
  20181324.340   106053613.784 9  20181325.560    82639210.20349
  23183057.620   121827848.938 8  23183058.180    94930812.86446
  20962421.360   110158281.893 9  20962419.000    85837600.44948
  23219842.060   122021153.457 8  23219845.780    95081461.70246
  24688877.920   129740941.501 5  24688883.860   101096864.70844
  22653260.040   119043717.481 8  22653263.540    92761372.43347
  19729673.040   105466415.910 9  19729681.500    82029474.637 8
  20382793.840   108766523.817 9  20382801.000    84596226.303 8
  23045498.240   123407510.965 7  23045507.320    95983609.335 7
  23926582.440   127542140.068 7  23926594.160    99199496.324 4
  20192964.580   107905142.076 9
  24213053.300   129296354.555 4  24213065.380   100563880.323 4
  23791849.840   127225708.313 5  23791858.120    98953363.265 5
  23870092.060   127733686.917 8  23870100.460    99348469.928 6
 16  3 23 21  1 25.0000000  0 18G03G05G07G08G09G16G23G27G28G30R01R02
                                R08R10R11R13R20R21
  24856579.780   130622200.738 6  24856587.900   101783569.03044
  25145641.840   132141224.108 6  25145644.940   102967194.45945
  21033447.100   110531588.085 9  21033446.800    86128515.96249
  23382759.100   122877278.183 8  23382764.580    95748577.87346
  20181277.060   106053365.342 9  20181278.300    82639016.61049
  23183687.940   121831161.331 8  23183688.500    94933393.94546
  20962720.200   110159852.331 9  20962717.860    85838824.16748
  23219642.860   122020106.652 8  23219646.580    95080646.00546
  24688201.220   129737385.429 5  24688207.160   101094093.76043
  22652834.600   119041481.786 8  22652838.100    92759630.33647
  19730069.420   105468534.783 9  19730077.880    82031122.650 8
  20382344.260   108764124.743 9  20382351.420    84594360.360 8
  23046316.900   123411895.029 7  23046326.060    95987019.154 7
  23927224.540   127545562.958 7  23927236.320    99202158.566 4
  20193350.560   107907204.628 9
  24212460.940   129293191.696 3  24212473.080   100561420.319 4
  23791697.320   127224892.803 5  23791705.600    98952728.973 5
  23869535.320   127730707.702 7  23869543.720    99346152.768 6
 16  3 23 21  1 26.0000000  0 17G03G05G07G08G09G16G23G27G28G30R01R02
                                R08R10R11R20R21
  24857288.120   130625923.001 6  24857296.180   101786469.49044
  25145112.560   132138442.654 6  25145115.660   102965027.07645
  21033240.780   110530503.924 9  21033240.480    86127671.16149
  23382305.060   122874892.324 8  23382310.560    95746718.76646
  20181229.960   106053117.764 9  20181231.180    82638823.69249
  23184318.400   121834474.402 8  23184318.960    94935975.55745
  20963019.200   110161423.621 9  20963016.860    85840048.54748
  23219443.820   122019060.784 8  23219447.560    95079831.04646
  24687524.620   129733829.874 5  24687530.480   101091323.19845
  22652409.280   119039246.670 8  22652412.760    92757888.68747
  19730466.020   105470654.827 9  19730474.480    82032771.570 8
  20381894.880   108761726.803 9  20381902.060    84592495.297 8
  23047135.720   123416279.722 7  23047144.900    95990429.459 7
  23927866.720   127548986.112 7  23927878.520    99204821.009 4
  20193736.660   107909267.854 9
  23791545.040   127224078.544 5  23791553.320    98952095.654 5
  23868978.720   127727729.233 7  23868987.120    99343836.187 6
 16  3 23 21  1 27.0000000  0 17G03G05G07G08G09G16G23G27G28G30R01R02
                                R08R10R11R20R21
  24857996.360   130629644.956 6  24858004.380   101789369.70745
  25144583.300   132135661.293 6  25144586.400   102962859.77344
  21033034.480   110529419.753 9  21033034.160    86126826.35449
  23381851.060   122872506.525 8  23381856.560    95744859.70646
  20181182.880   106052870.420 9  20181184.120    82638630.95949
  23184948.860   121837787.537 8  23184949.420    94938557.22046
  20963318.260   110162995.129 9  20963315.920    85841273.09448
  23219244.860   122018015.216 8  23219248.580    95079016.31546
  24686847.960   129730274.144 5  24686853.800   101088552.50545
  22651983.940   119037011.491 8  22651987.420    92756146.98847
  19730862.720   105472775.408 9  19730871.180    82034420.909 8
  20381445.600   108759329.353 9  20381452.780    84590630.615 8
  23047954.500   123420664.332 7  23047963.720    95993839.696 7
  23928508.860   127552408.917 7  23928520.680    99207483.184 4
  20194122.780   107911331.122 9
  23791392.820   127223264.643 5  23791401.100    98951462.616 5
  23868422.120   127724750.827 8  23868430.540    99341519.659 6
 16  3 23 21  1 28.0000000  0 17G03G05G07G08G09G16G23G27G28G30R01R02
                                R08R10R11R20R21
  24858704.560   130633366.561 6  24858712.520   101792269.64344
  25144054.060   132132880.010 6  25144057.160   102960692.53645
  21032828.160   110528335.476 9  21032827.840    86125981.46349
  23381397.040   122870120.725 8  23381402.540    95743000.64746
  20181135.840   106052623.218 9  20181137.080    82638438.33449
  23185579.320   121841100.621 8  23185579.880    94941138.84546
  20963617.340   110164566.778 9  20963614.980    85842497.75248
  23219045.940   122016969.905 8  23219049.660    95078201.78546
  24686171.280   129726718.222 5  24686177.080   101085781.67345
  22651558.560   119034776.193 8  22651562.060    92754405.20046
  19731259.500   105474896.438 9  19731267.960    82036070.597 8
  20380996.380   108756932.269 9  20381003.560    84588766.218 8
  23048773.280   123425048.808 7  23048782.520    95997249.832 7
  23929150.900   127555831.296 7  23929162.720    99210145.032 4
  20194508.900   107913394.355 9
  23791240.720   127222451.270 5  23791249.000    98950829.994 5
  23867865.540   127721772.358 8  23867873.940    99339203.077 6
 16  3 23 21  1 29.0000000  0 17G03G05G07G08G09G16G23G27G28G30R01R02
                                R08R10R11R20R21
  24859412.740   130637087.962 6  24859420.660   101795169.42345
  25143524.840   132130098.893 6  25143527.920   102958525.43844
  21032621.840   110527251.291 9  21032621.520    86125136.64649
  23380943.040   122867735.055 8  23380948.580    95741141.68946
  20181088.860   106052376.362 9  20181090.100    82638245.97949
  23186209.820   121844413.879 8  23186210.360    94943720.59845
  20963916.480   110166138.741 9  20963914.120    85843722.65848
  23218847.100   122015924.984 8  23218850.820    95077387.55846
  24685494.600   129723162.289 5  24685500.380   101083010.83245
  22651133.220   119032540.935 8  22651136.700    92752663.43647
  19731656.400   105477018.093 9  19731664.860    82037720.773 8
  20380547.260   108754535.695 9  20380554.440    84586902.214 8
  23049592.060   123429433.332 7  23049601.340    96000660.001 7
  23929792.880   127559253.418 7  23929804.740    99212806.675 4
  20194895.020   107915457.728 9
  23791088.660   127221638.447 5  23791096.980    98950197.801 5
  23867308.980   127718794.056 8  23867317.360    99336886.619 6
 16  3 23 21  1 30.0000000  0 17G03G05G07G08G09G16G23G27G28G30R01R02
                                R08R10R11R20R21
  24860120.900   130640809.365 6  24860128.840   101798069.21444
  25142995.700   132127318.264 6  25142998.820   102956358.72444
  21032415.580   110526167.432 9  21032415.280    86124292.08248
  23380489.160   122865349.828 8  23380494.680    95739283.07146
  20181042.000   106052130.077 9  20181043.220    82638054.07049
  23186840.400   121847727.510 8  23186840.920    94946302.65245
  20964215.720   110167711.265 9  20964213.380    85844948.00048
  23218648.400   122014880.729 8  23218652.080    95076573.86046
  24684817.960   129719606.543 5  24684823.720   101080240.13645
  22650707.900   119030305.966 8  22650711.400    92750921.90647
  19732053.480   105479140.633 9  19732061.920    82039371.633 8
  20380098.300   108752139.859 9  20380105.480    84585038.786 8
  23050410.880   123433818.165 7  23050420.220    96004070.414 7
  23930434.860   127562675.536 7  23930446.740    99215468.324 4
  20195281.240   107917521.490 9
  23790936.800   127220826.487 5  23790945.120    98949566.279 5
  23866752.500   127715816.174 8  23866760.860    99334570.491 6
 16  3 23 21  1 31.0000000  0 17G03G05G07G08G09G16G23G27G28G30R01R02
                                R08R10R11R20R21
  24860829.080   130644530.934 6  24860837.080   101800969.13244
  25142466.700   132124538.201 6  25142469.820   102954192.44744
  21032209.420   110525083.996 9  21032209.100    86123447.84549
  23380035.340   122862965.064 8  23380040.880    95737424.81446
  20180995.260   106051884.454 9  20180996.500    82637862.67449
  23187471.060   121851041.640 8  23187471.560    94948885.09146
  20964515.080   110169284.437 9  20964512.720    85846173.84848
  23218449.820   122013837.216 8  23218453.520    95075760.73146
  24684141.380   129716051.078 5  24684147.120   101077469.62944
  22650282.680   119028071.380 8  22650286.180    92749180.67147
  19732450.720   105481264.143 9  19732459.160    82041023.250 8
  20379649.480   108749744.894 9  20379656.660    84583176.037 8
  23051229.800   123438203.382 7  23051239.160    96007481.124 7
  23931076.840   127566097.717 7  23931088.760    99218130.018 4
  20195667.520   107919585.725 9
  23790785.160   127220015.477 5  23790793.440    98948935.493 5
  23866196.100   127712838.829 8  23866204.460    99332254.780 6
 16  3 23 21  1 32.0000000  0 17G03G05G07G08G09G16G23G27G28G30R01R02
                                R08R10R11R20R21
  24861537.280   130648252.511 6  24861545.300   101803869.06044
  25141937.780   132121758.497 6  25141940.760   102952026.45544
  21032003.300   110524000.836 9  21032002.980    86122603.82249
  23379581.600   122860580.658 8  23379587.140    95735566.83746
  20180948.620   106051639.354 9  20180949.840    82637671.68549
  23188101.780   121854356.104 8  23188102.280    94951467.78246
  20964814.560   110170858.123 9  20964812.180    85847400.09648
  23218251.340   122012794.315 8  23218255.080    95074948.08046
  24683464.820   129712495.786 5  24683470.600   101074699.27843
  22649857.500   119025837.036 8  22649860.980    92747439.62947
  19732848.120   105483388.490 9  19732856.560    82042675.520 8
  20379200.800   108747350.737 9  20379207.980    84581313.913 8
  23052048.740   123442588.849 6  23052058.160    96010892.026 7
  23931718.840   127569519.853 7  23931730.760    99220791.679 4
  20196053.880   107921650.292 9
  23790633.680   127219205.290 5  23790641.880    98948305.348 5
  23865639.780   127709861.819 8  23865648.100    99329939.324 6
 16  3 23 21  1 33.0000000  0 17G03G05G07G08G09G16G23G27G28G30R01R02
                                R08R10R11R20R21
  24862245.440   130651973.977 5  24862253.500   101806768.90145
  25141408.880   132118979.135 6  25141411.840   102949860.71645
  21031797.220   110522917.879 9  21031796.900    86121759.95949
  23379127.900   122858196.537 8  23379133.440    95733709.08346
  20180902.060   106051394.703 9  20180903.300    82637481.05049
  23188732.560   121857670.838 8  23188733.040    94954050.68245
  20965114.100   110172432.232 9  20965111.720    85848626.67548
  23218053.000   122011751.926 8  23218056.720    95074135.83146
  24682788.280   129708940.592 5  24682794.040   101071929.00144
  22649432.360   119023602.834 8  22649435.820    92745698.69547
  19733245.680   105485513.598 9  19733254.100    82044328.382 8
  20378752.280   108744957.289 9  20378759.460    84579452.345 8
  23052867.700   123446974.463 7  23052877.200    96014303.040 7
  23932360.780   127572941.850 7  23932372.720    99223453.231 4
  20196440.280   107923715.102 9
  23790482.300   127218395.785 5  23790490.480    98947675.733 5
  23865083.500   127706885.023 8  23865091.800    99327624.034 6
 16  3 23 21  1 34.0000000  0 17G03G05G07G08G09G16G23G27G28G30R01R02
                                R08R10R11R20R21
  24862953.580   130655695.302 6  24862961.740   101809668.61845
  25140880.060   132116200.041 6  25140882.980   102947695.17245
  21031591.180   110521835.065 9  21031590.840    86120916.20848
  23378674.260   122855812.643 8  23378679.800    95731851.50746
  20180855.580   106051150.441 9  20180856.820    82637290.71649
  23189363.360   121860985.770 8  23189363.880    94956633.73946
  20965413.720   110174006.727 9  20965411.340    85849853.55048
  23217854.720   122010710.023 8  23217858.440    95073323.95946
  24682111.760   129705385.405 5  24682117.600   101069158.74645
  22649007.220   119021368.743 8  22649010.680    92743957.84647
  19733643.360   105487639.402 9  19733651.780    82045981.783 8
  20378303.860   108742564.469 9  20378311.040    84577591.262 8
  23053686.660   123451360.150 7  23053696.240    96017714.109 7
  23933002.720   127576363.666 7  23933014.620    99226114.648 4
  20196826.740   107925780.099 9
  23790331.040   127217586.938 5  23790339.200    98947046.630 5
  23864527.240   127703908.462 7  23864535.520    99325308.925 6
 16  3 23 21  1 35.0000000  0 17G03G05G07G08G09G16G23G27G28G30R01R02
                                R08R10R11R20R21
  24863661.700   130659416.576 5  24863669.920   101812568.29244
  25140351.260   132113421.234 6  25140354.200   102945529.86145
  21031385.160   110520752.418 9  21031384.820    86120072.59148
  23378220.660   122853428.970 8  23378226.220    95729994.10746
  20180809.180   106050906.603 9  20180810.420    82637100.71149
  23189994.220   121864300.951 8  23189994.740    94959216.99746
  20965713.400   110175581.627 9  20965711.040    85851080.74348
  23217656.540   122009668.598 8  23217660.300    95072512.46846
  24681435.220   129701830.298 6  24681441.020   101066388.54244
  22648582.120   119019134.803 8  22648585.560    92742217.11547
  19734041.160   105489765.930 9  19734049.600    82047635.749 8
  20377855.560   108740172.257 9  20377862.740    84575730.655 8
  23054505.680   123455745.965 6  23054515.300    96021125.280 7
  23933644.640   127579785.296 7  23933656.520    99228775.919 4
  20197213.220   107927845.315 9
  23790179.980   127216778.800 5  23790188.040    98946418.086 5
  23863971.060   127700932.142 7  23863979.300    99322993.999 6
 16  3 23 21  1 36.0000000  0 17G03G05G07G08G09G16G23G27G28G30R01R02
                                R08R10R11R20R21
  24864369.820   130663137.764 6  24864378.100   101815467.90144
  25139822.560   132110642.846 6  25139825.520   102943364.88245
  21031179.180   110519670.030 9  21031178.840    86119229.17448
  23377767.120   122851045.611 8  23377772.680    95728136.95146
  20180762.860   106050663.250 9  20180764.100    82636911.08449
  23190625.140   121867616.424 8  23190625.640    94961800.48045
  20966013.200   110177157.010 9  20966010.820    85852308.31748
  23217458.480   122008627.760 8  23217462.220    95071701.42446
  24680758.760   129698275.321 6  24680764.540   101063618.44144
  22648157.040   119016901.048 8  22648160.500    92740476.52847
  19734439.120   105491893.265 9  19734447.560    82049290.341 8
  20377407.380   108737780.717 9  20377414.560    84573870.573 8
  23055324.720   123460132.010 7  23055334.380    96024536.627 7
  23934286.540   127583206.862 7  23934298.420    99231437.143 4
  20197599.740   107929910.840 9
  23790028.960   127215971.399 5  23790037.020    98945790.111 5
  23863414.920   127697956.165 7  23863423.160    99320679.346 6
 16  3 23 21  1 37.0000000  0 17G03G05G07G08G09G16G23G27G28G30R01R02
                                R08R10R11R20R21
  24865077.900   130666858.889 5  24865086.280   101818367.45444
  25139293.940   132107864.793 6  25139296.880   102941200.16545
  21030973.240   110518587.845 9  21030972.920    86118385.91149
  23377313.640   122848662.532 8  23377319.180    95726280.01046
  20180716.640   106050420.357 9  20180717.880    82636721.82149
  23191256.120   121870932.183 8  23191256.620    94964384.18945
  20966313.060   110178732.825 9  20966310.680    85853536.21848
  23217260.500   122007587.447 8  23217264.260    95070890.79346
  24680082.280   129694720.387 6  24680088.080   101060848.35644
  22647732.020   119014667.471 8  22647735.460    92738736.08147
  19734837.240   105494021.351 9  19734845.660    82050945.521 8
  20376959.320   108735389.818 9  20376966.520    84572010.985 8
  23056143.820   123464518.261 7  23056153.520    96027948.137 6
  23934928.380   127586628.297 7  23934940.280    99234098.259 4
  20197986.340   107931976.612 9
  23789878.140   127215164.758 5  23789886.140    98945162.726 5
  23862858.800   127694980.383 7  23862867.060    99318364.847 6
 16  3 23 21  1 38.0000000  0 17G03G05G07G08G09G16G23G27G28G30R01R02
                                R08R10R11R20R21
  24865786.020   130670580.019 5  24865794.340   101821267.02443
  25138765.380   132105087.162 6  25138768.340   102939035.76545
  21030767.380   110517505.962 9  21030767.020    86117542.88548
  23376860.200   122846279.822 8  23376865.780    95724423.35546
  20180670.520   106050178.018 9  20180671.780    82636532.98349
  23191887.160   121874248.297 8  23191887.640    94966968.17046
  20966613.040   110180309.180 9  20966610.660    85854764.54948
  23217062.660   122006547.780 8  23217066.420    95070080.66146
  24679405.860   129691165.684 6  24679411.620   101058078.47844
  22647307.020   119012434.171 8  22647310.480    92736995.84447
  19735235.500   105496150.300 9  19735243.920    82052601.368 8
  20376511.420   108732999.716 9  20376518.620    84570152.019 8
  23056962.960   123468904.794 7  23056972.700    96031359.868 6
  23935570.260   127590049.718 7  23935582.140    99236759.367 4
  20198372.980   107934042.758 9
  23789727.480   127214358.908 5  23789735.420    98944535.952 5
  23862302.780   127692005.058 7  23862311.040    99316050.714 6
 16  3 23 21  1 39.0000000  0 17G03G05G07G08G09G16G23G27G28G30R01R02
                                R08R10R11R20R21
  24866494.180   130674301.262 5  24866502.440   101824166.68744
  25138236.940   132102310.071 6  25138239.880   102936871.78345
  21030561.580   110516424.489 9  21030561.240    86116700.17849
  23376406.880   122843897.594 8  23376412.420    95722567.08146
  20180624.540   106049936.329 9  20180625.780    82636344.65249
  23192518.300   121877564.897 8  23192518.780    94969552.52946
  20966913.120   110181886.172 9  20966910.740    85855993.37348
  23216864.960   122005508.844 8  23216868.720    95069271.10246
  24678729.480   129687611.275 6  24678735.300   101055308.82043
  22646882.120   119010201.235 8  22646885.560    92735255.90147
  19735633.960   105498280.209 9  19735642.360    82054257.962 8
  20376063.700   108730610.530 9  20376070.880    84568293.763 8
  23057782.180   123473291.642 7  23057791.940    96034771.845 6
  23936212.120   127593471.199 7  23936224.040    99239420.521 4
  20198759.720   107936109.360 9
  23789576.980   127213553.980 5  23789584.860    98943909.893 5
  23861746.860   127689030.186 7  23861755.100    99313736.922 6
 16  3 23 21  1 40.0000000  0 17G03G05G07G08G09G16G23G27G28G30R01R02
                                R08R10R11R20R21
  24867202.300   130678022.636 5  24867210.600   101827066.45344
  25137708.580   132099533.494 6  25137711.500   102934708.20945
  21030355.840   110515343.391 9  21030355.500    86115857.76748
  23375953.640   122841515.838 8  23375959.200    95720711.17245
  20180578.660   106049695.254 9  20180579.920    82636156.80349
  23193149.500   121880881.933 8  23193150.000    94972137.23545
  20967213.340   110183463.768 9  20967210.960    85857222.66548
  23216667.380   122004470.604 8  23216671.160    95068462.08446
  24678053.140   129684057.108 6  24678058.880   101052539.35744
  22646457.280   119007968.636 8  22646460.720    92733516.21547
  19736032.580   105500411.040 9  19736040.980    82055915.273 8
  20375616.120   108728222.211 9  20375623.320    84566436.183 8
  23058601.480   123477678.836 7  23058611.240    96038184.090 6
  23936854.000   127596892.700 7  23936865.880    99242081.693 3
  20199146.540   107938176.393 9
  23789426.600   127212749.911 5  23789434.480    98943284.497 5
  23861191.000   127686055.798 7  23861199.260    99311423.509 6
 16  3 23 21  1 41.0000000  0 17G03G05G07G08G09G16G23G27G28G30R01R02
                                R08R10R11R20R21
  24867910.420   130681743.787 5  24867918.700   101829966.06245
  25137180.280   132096757.177 6  25137183.120   102932544.84945
  21030150.140   110514262.415 9  21030149.800    86115015.45049
  23375500.440   122839134.267 8  23375505.980    95718855.40246
  20180532.860   106049454.555 9  20180534.100    82635969.24349
  23193780.740   121884199.151 8  23193781.220    94974722.07645
  20967513.600   110185041.723 9  20967511.220    85858452.24148
  23216469.900   122003432.818 8  23216473.660    95067653.42246
  24677376.820   129680502.978 6  24677382.500   101049769.91543
  22646032.440   119005736.113 8  22646035.860    92731776.58947
  19736431.320   105502542.536 9  19736439.720    82057573.103 8
  20375168.680   108725834.476 9  20375175.860    84564579.056 8
  23059420.740   123482066.123 7  23059430.540    96041596.416 6
  23937495.820   127600313.994 7  23937507.720    99244742.707 3
  20199533.400   107940243.605 9
  23789276.360   127211946.566 5  23789284.240    98942659.674 5
  23860635.180   127683081.589 7  23860643.460    99309110.240 6
 16  3 23 21  1 42.0000000  0 17G03G05G07G08G09G16G23G27G28G30R01R02
                                R08R10R11R20R21
  24868618.480   130685464.910 5  24868626.760   101832865.63444
  25136652.020   132093981.184 6  25136654.860   102930381.73345
  21029944.480   110513181.651 9  21029944.140    86114173.29648
  23375047.300   122836753.003 8  23375052.840    95716999.87646
  20180487.140   106049214.313 9  20180488.400    82635782.04249
  23194412.020   121887516.634 8  23194412.500    94977307.12745
  20967813.960   110186620.118 9  20967811.580    85859682.15448
  23216272.520   122002395.558 8  23216276.260    95066845.16846
  24676700.500   129676948.900 6  24676706.220   101047000.52044
  22645607.640   119003503.779 8  22645611.040    92730037.10847
  19736830.200   105504674.784 9  19736838.600    82059231.516 8
  20374721.340   108723447.381 9  20374728.520    84562722.429 8
  23060240.060   123486453.545 7  23060249.880    96045008.845 6
  23938137.620   127603735.171 7  23938149.540    99247403.639 4
  20199920.300   107942311.087 9
  23789126.240   127211143.909 5  23789134.120    98942035.384 5
  23860079.440   127680107.669 7  23860087.700    99306797.195 6
 16  3 23 21  1 43.0000000  0 17G03G05G07G08G09G16G23G27G28G30R01R02
                                R08R10R11R20R21
  24869326.560   130689185.948 5  24869334.880   101835765.12545
  25136123.820   132091205.524 6  25136126.660   102928218.87844
  21029738.860   110512101.087 9  21029738.520    86113331.29648
  23374594.200   122834371.983 8  23374599.720    95715144.53846
  20180441.500   106048974.518 9  20180442.760    82635595.18949
  23195043.380   121890834.387 8  23195043.840    94979892.38345
  20968114.400   110188198.938 9  20968112.020    85860912.40448
  23216075.240   122001358.845 8  23216078.980    95066037.34346
  24676024.200   129673394.914 6  24676029.880   101044231.18544
  22645182.880   119001271.587 8  22645186.300    92728297.74047
  19737229.220   105506807.785 9  19737237.620    82060890.517 8
  20374274.100   108721060.932 9  20374281.300    84560866.304 8
  23061059.380   123490841.146 7  23061069.240    96048421.415 6
  23938779.360   127607156.184 7  23938791.300    99250064.440 3
  20200307.260   107944378.830 9
  23788976.280   127210341.987 4  23788984.140    98941411.671 5
  23859523.740   127677133.988 7  23859532.000    99304484.334 6
 16  3 23 21  1 44.0000000  0 17G03G05G07G08G09G16G23G27G28G30R01R02
                                R08R10R11R20R21
  24870034.580   130692906.702 5  24870042.920   101838664.40645
  25135595.660   132088430.058 6  25135598.500   102926056.16944
  21029533.240   110511020.568 9  21029532.900    86112489.33748
  23374141.140   122831991.102 8  23374146.660    95713289.31446
  20180395.940   106048735.020 9  20180397.200    82635408.56949
  23195674.740   121894152.259 8  23195675.240    94982477.73645
  20968414.900   110189778.042 9  20968412.520    85862142.87348
  23215878.020   122000322.494 8  23215881.760    95065229.79146
  24675347.860   129669840.860 6  24675353.540   101041461.80944
  22644758.120   118999039.403 8  22644761.540    92726558.37847
  19737628.360   105508941.366 9  19737636.760    82062549.967 8
  20373826.980   108718674.990 9  20373834.180    84559010.571 8
  23061878.740   123495228.768 7  23061888.600    96051834.002 6
  23939421.100   127610576.918 7  23939433.000    99252725.023 4
  20200694.240   107946446.670 9
  23788826.480   127209540.588 4  23788834.240    98940788.362 5
  23858968.040   127674160.464 7  23858976.340    99302171.593 6
 16  3 23 21  1 45.0000000  0 17G03G05G07G08G09G16G23G27G28G30R01R02
                                R08R10R11R20R21
  24870742.600   130696627.388 5  24870750.940   101841563.62245
  25135067.560   132085654.835 6  25135070.380   102923893.64345
  21029327.660   110509940.190 9  21029327.320    86111647.48448
  23373688.100   122829610.424 8  23373693.620    95711434.24946
  20180350.440   106048495.905 9  20180351.700    82635222.24449
  23196306.140   121897470.328 8  23196306.660    94985063.24245
  20968715.460   110191357.509 9  20968713.080    85863373.62848
  23215680.900   121999286.629 8  23215684.620    95064422.62246
  24674671.560   129666286.835 6  24674677.280   101038692.44743
  22644333.380   118996807.340 8  22644336.780    92724819.10847
  19738027.620   105511075.645 9  19738036.020    82064209.958 8
  20373379.960   108716289.662 9  20373387.160    84557155.314 8
  23062698.120   123499616.500 7  23062708.000    96055246.669 6
  23940062.800   127613997.423 7  23940074.700    99255385.424 4
  20201081.240   107948514.702 9
  23788676.740   127208739.917 5  23788684.480    98940165.615 5
  23858412.400   127671187.125 7  23858420.700    99299858.992 6
 16  3 23 21  1 46.0000000  0 17G03G05G07G08G09G16G23G27G28G30R01R02
                                R08R10R11R20R21
  24871450.620   130700348.016 5  24871459.020   101844462.79845
  25134539.560   132082880.008 6  25134542.380   102921731.46144
  21029122.120   110508860.067 9  21029121.780    86110805.83048
  23373235.140   122827230.090 8  23373240.660    95709579.44746
  20180305.020   106048257.284 9  20180306.280    82635036.30749
  23196937.600   121900788.715 8  23196938.140    94987648.99845
  20969016.120   110192937.462 9  20969013.720    85864604.75848
  23215483.880   121998251.311 8  23215487.600    95063615.88046
  24673995.300   129662732.949 6  24674000.960   101035923.20342
  22643908.660   118994575.476 8  22643912.060    92723079.99546
  19738427.040   105513210.726 9  19738435.440    82065870.574 8
  20372933.100   108713905.081 9  20372940.300    84555300.644 8
  23063517.520   123504004.406 7  23063527.420    96058659.473 6
  23940704.460   127617417.829 7  23940716.360    99258045.744 4
  20201468.300   107950583.033 9
  23788527.160   127207939.950 5  23788534.820    98939543.414 5
  23857856.840   127668214.115 7  23857865.140    99297546.657 6
 16  3 23 21  1 47.0000000  0 17G03G05G07G08G09G16G23G27G28G30R01R02
                                R08R10R11R20R21
  24872158.560   130704068.410 5  24872167.080   101847361.77045
  25134011.580   132080105.410 6  25134014.480   102919569.43045
  21028916.600   110507780.024 9  21028916.240    86109964.23848
  23372782.200   122824849.898 8  23372787.720    95707724.75646
  20180259.680   106048018.997 9  20180260.940    82634850.62949
  23197569.080   121904107.238 8  23197569.620    94990234.86045
  20969316.840   110194517.737 9  20969314.440    85865836.13948
  23215286.940   121997216.424 8  23215290.660    95062809.47246
  24673319.000   129659179.021 7  24673324.720   101033153.92743
  22643483.960   118992343.655 8  22643487.340    92721340.91147
  19738826.580   105515346.437 9  19738834.960    82067531.683 8
  20372486.340   108711521.100 9  20372493.540    84553446.436 8
  23064336.920   123508392.384 7  23064346.840    96062072.330 6
  23941346.100   127620838.030 7  23941358.000    99260705.907 4
  20201855.380   107952651.493 9
  23788377.600   127207140.605 5  23788385.300    98938921.695 5
  23857301.280   127665241.238 7  23857309.580    99295234.424 6
 16  3 23 21  1 48.0000000  0 17G03G05G07G08G09G16G23G27G28G30R01R02
                                R08R10R11R20R21
  24872866.560   130707789.025 5  24872875.160   101850260.92244
  25133483.680   132077331.426 6  25133486.720   102917407.88444
  21028711.160   110506700.471 9  21028710.820    86109123.03048
  23372329.380   122822470.276 8  23372334.840    95705870.50545
  20180214.480   106047781.441 9  20180215.740    82634665.51849
  23198200.680   121907426.308 8  23198201.200    94992821.13845
  20969617.680   110196098.723 9  20969615.300    85867068.07048
  23215090.180   121996182.359 8  23215093.880    95062003.71046
  24672642.800   129655625.477 7  24672648.520   101030384.9444
  22643059.340   118990112.278 8  22643062.740    92719602.17847
  19739226.300   105517483.191 9  19739234.680    82069193.602 8
  20372039.760   108709138.053 9  20372046.960    84551592.957 8
  23065156.440   123512780.794 7  23065166.360    96065485.525 6
  23941987.740   127624258.327 7  23941999.640    99263366.138 4
  20202242.580   107954720.492 9
  23788228.320   127206342.225 5  23788236.000    98938300.736 5
  23856745.800   127662268.969 7  23856754.160    99292922.665 6
 16  3 23 21  1 49.0000000  0 17G03G05G07G08G09G16G23G27G28G30R01R02
                                R08R10R11R20R21
  24873574.580   130711509.685 5  24873583.200   101853160.12144
  25132955.920   132074557.897 6  25132959.000   102915246.69945
  21028505.800   110505621.260 9  21028505.460    86108282.08748
  23371876.620   122820091.072 8  23371882.080    95704016.57846
  20180169.380   106047544.481 9  20180170.660    82634480.87449
  23198832.380   121910745.798 8  23198832.880    94995407.75446
  20969918.640   110197680.281 9  20969916.240    85868300.45548
  23214893.520   121995148.935 8  23214897.220    95061198.44446
  24671966.620   129652072.148 7  24671972.360   101027616.13041
  22642634.780   118987881.197 8  22642638.180    92717863.68046
  19739626.200   105519620.843 9  19739634.580    82070856.221 8
  20371593.320   108706755.774 9  20371600.520    84549740.076 8
  23065976.000   123517169.476 8  23065985.920    96068898.930 6
  23942629.380   127627678.672 7  23942641.300    99266026.406 4
  20202629.840   107956789.889 9
  23788079.180   127205544.742 5  23788086.860    98937680.470 5
  23856190.440   127659297.072 7  23856198.800    99290611.200 6
 16  3 23 21  1 50.0000000  0 17G03G05G07G08G09G16G23G27G28G30R01R02
                                R08R10R11R20R21
  24874282.580   130715230.311 6  24874291.200   101856059.30544
  25132428.220   132071784.791 6  25132431.240   102913085.83545
  21028300.480   110504542.331 9  21028300.140    86107441.36048
  23371423.940   122817712.217 8  23371429.380    95702162.92746
  20180124.380   106047308.036 9  20180125.660    82634296.63349
  23199464.100   121914065.619 8  23199464.620    94997994.62245
  20970219.700   110199262.351 9  20970217.300    85869533.23748
  23214696.980   121994116.121 8  23214700.680    95060393.65246
  24671290.480   129648518.998 7  24671296.200   101024847.4464
  22642210.280   118985650.361 8  22642213.660    92716125.36847
  19740026.240   105521759.329 9  19740034.640    82072519.483 8
  20371147.000   108704374.210 9  20371154.220    84547887.748 8
  23066795.620   123521558.418 8  23066805.540    96072312.541 5
  23943271.020   127631098.929 7  23943282.960    99268686.606 4
  20203017.140   107958859.612 9
  23787930.220   127204748.025 4  23787937.880    98937060.804 5
  23855635.160   127656325.555 7  23855643.500    99288300.020 6
 16  3 23 21  1 51.0000000  0 17G03G05G07G08G09G16G23G27G28G30R01R02
                                R08R10R11R20R21
  24874990.560   130718950.857 6  24874999.240   101858958.42645
  25131900.600   132069011.954 6  25131903.580   102910925.18645
  21028095.200   110503463.543 9  21028094.840    86106600.74848
  23370971.320   122815333.583 8  23370976.740    95700309.45046
  20180079.460   106047071.977 9  20180080.740    82634112.68949
  23200095.880   121917385.635 8  23200096.420    95000581.64745
  20970520.820   110200844.798 9  20970518.440    85870766.30848
  23214500.540   121993083.793 8  23214504.220    95059589.23446
  24670614.360   129644965.848 7  24670620.120   101022078.74343
  22641785.800   118983419.638 8  22641789.160    92714387.14247
  19740426.420   105523898.496 9  19740434.800    82074183.280 8
  20370700.820   108701993.258 9  20370708.040    84546035.896 8
  23067615.220   123525947.443 8  23067625.160    96075726.222 6
  23943912.640   127634519.029 7  23943924.580    99271346.679 4
  20203404.500   107960929.531 9
  23787781.360   127203952.044 5  23787789.000    98936441.710 5
  23855079.920   127653354.282 7  23855088.240    99285989.030 6
 16  3 23 21  1 52.0000000  0 17G03G05G07G08G09G16G23G27G28G30R01R02
                                R08R10R11R20R21
  24875698.520   130722671.262 6  24875707.200   101861857.41945
  25131373.020   132066239.460 6  25131375.980   102908764.79845
  21027889.960   110502384.965 9  21027889.600    86105760.30048
  23370518.720   122812955.217 8  23370524.120    95698456.18245
  20180034.640   106046836.381 9  20180035.920    82633929.11049
  23200727.720   121920705.937 8  23200728.260    95003168.90045
  20970822.040   110202427.683 9  20970819.660    85871999.72348
  23214304.200   121992051.988 8  23214307.860    95058785.23546
  24669938.260   129641412.834 7  24669944.080   101019310.15143
  22641361.340   118981189.086 8  22641364.700    92712649.04947
  19740826.760   105526038.423 9  19740835.120    82075847.665 8
  20370254.760   108699613.020 9  20370261.980    84544184.603 8
  23068434.920   123530336.653 8  23068444.800    96079140.043 5
  23944554.220   127637939.006 7  23944566.180    99274006.657 4
  20203791.900   107962999.698 9
  23787632.580   127203156.678 5  23787640.260    98935823.091 5
  23854524.700   127650383.278 7  23854533.040    99283678.247 6
 16  3 23 21  1 53.0000000  0 17G03G05G07G08G09G16G23G27G28G30R01R02
                                R08R10R11R20R21
  24876406.480   130726391.599 6  24876415.180   101864756.38845
  25130845.480   132063467.268 6  25130848.460   102906604.65745
  21027684.740   110501306.577 9  21027684.380    86104919.99848
  23370066.200   122810577.119 8  23370071.580    95696603.12246
  20179989.880   106046601.212 9  20179991.160    82633745.86649
  23201359.580   121924026.466 8  23201360.120    95005756.32446
  20971123.340   110204010.983 9  20971120.940    85873233.45948
  23214107.960   121991020.669 8  23214111.600    95057981.61146
  24669262.140   129637859.857 7  24669268.020   101016541.57943
  22640936.920   118978958.665 8  22640940.260    92710911.05747
  19741227.200   105528179.068 9  19741235.580    82077512.610 8
  20369808.820   108697233.428 9  20369816.040    84542333.811 8
  23069254.600   123534725.997 8  23069264.440    96082553.975 5
  23945195.760   127641358.823 7  23945207.740    99276666.515 4
  20204179.360   107965070.108 9
  23787484.000   127202362.113 5  23787491.640    98935205.093 5
  23853969.520   127647412.510 7  23853977.880    99281367.656 6
 16  3 23 21  1 54.0000000  0 18G03G05G07G08G09G16G23G27G28G30R01R02
                                R08R10R11R13R20R21
  24877114.380   130730111.828 6  24877123.140   101867655.25845
  25130318.020   132060695.398 6  25130321.040   102904444.75144
  21027479.560   110500228.349 9  21027479.200    86104079.81848
  23369613.700   122808199.271 8  23369619.020    95694750.25845
  20179945.220   106046366.460 9  20179946.480    82633562.93549
  23201991.500   121927347.233 8  23201992.040    95008343.93345
  20971424.700   110205594.669 9  20971422.320    85874467.50048
  23213911.800   121989989.886 8  23213915.440    95057178.40246
  24668586.040   129634306.920 7  24668591.960   101013773.03643
  22640512.500   118976728.364 8  22640515.860    92709173.16546
  19741627.800   105530320.443 9  19741636.160    82079178.121 8
  20369363.000   108694854.474 9  20369370.220    84540483.513 8
  23070074.340   123539115.499 8  23070084.120    96085968.030 5
  23945837.260   127644778.459 7  23945849.280    99279326.230 4
  20204566.860   107967140.721 9
  24195299.880   129201551.48215  24195312.800   100490148.68715
  23787335.520   127201568.164 5  23787343.120    98934587.573 5
  23853414.420   127644441.996 7  23853422.760    99279057.267 6
 16  3 23 21  1 55.0000000  0 18G03G05G07G08G09G16G23G27G28G30R01R02
                                R08R10R11R13R20R21
  24877822.300   130733831.909 6  24877831.040   101870554.01445
  25129790.580   132057923.816 6  25129793.660   102902285.07545
  21027274.400   110499150.260 9  21027274.040    86103239.74848
  23369161.240   122805821.638 8  23369166.560    95692897.56146
  20179900.620   106046132.088 9  20179901.900    82633380.30849
  23202623.460   121930668.202 8  23202624.000    95010931.69945
  20971726.140   110207178.731 9  20971723.760    85875701.83348
  23213715.740   121988959.552 8  23213719.400    95056375.54646
  24667909.960   129630754.017 7  24667915.720   101011004.55341
  22640088.120   118974498.175 8  22640091.460    92707435.35547
  19742028.520   105532462.497 9  19742036.880    82080844.159 8
  20368917.300   108692476.122 9  20368924.520    84538633.689 8
  23070894.100   123543505.095 8  23070903.800    96089382.160 5
  23946478.760   127648197.917 7  23946490.780    99281985.806 4
  20204954.380   107969211.537 9
  24194708.720   129198394.504 4  24194721.600   100487693.251 5
  23787187.180   127200774.932 5  23787194.760    98933970.604 5
  23852859.340   127641471.673 7  23852867.700    99276747.021 6
 16  3 23 21  1 56.0000000  0 18G03G05G07G08G09G16G23G27G28G30R01R02
                                R08R10R11R13R20R21
  24878530.240   130737552.233 6  24878538.980   101873452.95145
  25129263.260   132055152.898 6  25129266.380   102900125.90846
  21027069.360   110498072.746 9  21027069.000    86102400.12749
  23368708.920   122803444.649 8  23368714.220    95691045.36546
  20179856.160   106045898.533 9  20179857.460    82633198.31949
  23203255.540   121933989.789 8  23203256.080    95013519.94345
  20972027.720   110208763.592 9  20972025.340    85876936.79148
  23213519.840   121987930.112 8  23213523.500    95055573.38546
  24667233.940   129627201.563 7  24667239.640   101008236.37243
  22639663.820   118972268.508 8  22639667.160    92705697.95447
  19742429.440   105534605.679 9  19742437.820    82082511.081 8
  20368471.800   108690098.806 9  20368479.020    84536784.663 8
  23071713.960   123547895.223 8  23071723.560    96092796.708 5
  23947120.260   127651617.592 7  23947132.320    99284645.558 4
  20205342.020   107971282.962 9
  24194117.640   129195238.109 4  24194130.520   100485238.273 5
  23787039.020   127199982.734 5  23787046.580    98933354.446 5
  23852304.380   127638502.042 7  23852312.760    99274437.317 6
 16  3 23 21  1 57.0000000  0 18G03G05G07G08G09G16G23G27G28G30R01R02
                                R08R10R11R13R20R21
  24879238.240   130741272.700 6  24879246.920   101876352.00945
  25128736.060   132052382.512 6  25128739.180   102897967.15844
  21026864.400   110496995.643 9  21026864.040    86101560.82648
  23368256.700   122801068.133 8  23368261.980    95689193.53346
  20179811.840   106045665.637 9  20179813.140    82633016.84049
  23203887.700   121937311.863 8  23203888.260    95016108.56545
  20972329.420   110210349.089 9  20972327.040    85878172.24148
  23213324.080   121986901.417 8  23213327.740    95054771.80946
  24666558.000   129623649.432 7  24666563.740   101005468.4254
  22639239.620   118970039.238 8  22639242.940    92703960.86447
  19742830.560   105536749.818 9  19742838.920    82084178.742 8
  20368026.440   108687722.376 9  20368033.680    84534936.328 8
  23072533.880   123552285.710 8  23072543.420    96096211.532 5
  23947761.800   127655037.338 7  23947773.880    99287305.362 4
  20205729.740   107973354.847 9
  24193526.620   129192082.057 4  24193539.500   100482783.572 5
  23786891.040   127199191.440 4  23786898.580    98932738.988 5
  23851749.480   127635532.895 7  23851757.900    99272127.985 6
 16  3 23 21  1 58.0000000  0 18G03G05G07G08G09G16G23G27G28G30R01R02
                                R08R10R11R13R20R21
  24879946.160   130744992.798 6  24879954.860   101879250.78044
  25128208.880   132049612.249 6  25128212.100   102895808.51744
  21026659.420   110495918.492 9  21026659.060    86100721.49048
  23367804.480   122798691.669 8  23367809.740    95687341.73945
  20179767.580   106045432.952 9  20179768.860    82632835.52949
  23204519.880   121940633.946 8  23204520.420    95018697.19846
  20972631.160   110211934.780 9  20972628.800    85879407.84048
  23213128.380   121985873.017 8  23213132.040    95053970.46346
  24665882.020   129620097.105 7  24665887.640   101002700.3714
  22638815.380   118967809.852 8  22638818.720    92702223.68347
  19743231.760   105538894.470 9  19743240.120    82085846.803 8
  20367581.180   108685346.383 9  20367588.420    84533088.338 8
  23073353.780   123556676.090 8  23073363.200    96099626.276 5
  23948403.240   127658456.678 7  23948415.380    99289964.846 4
  20206117.480   107975426.748 9
  24192935.580   129188925.964 4  24192948.460   100480328.831 5
  23786743.160   127198400.704 4  23786750.700    98932123.974 5
  23851194.600   127632563.754 7  23851203.060    99269818.655 6
 16  3 23 21  1 59.0000000  0 18G03G05G07G08G09G16G23G27G28G30R01R02
                                R08R10R11R13R20R21
  24880654.080   130748712.992 6  24880662.800   101882149.62344
  25127681.780   132046842.394 6  25127685.080   102893650.19045
  21026454.500   110494841.646 9  21026454.140    86099882.38948
  23367352.320   122796315.584 8  23367357.580    95685490.24846
  20179723.400   106045200.816 9  20179724.680    82632654.64249
  23205152.100   121943956.398 8  23205152.660    95021286.12145
  20972933.020   110213521.012 9  20972930.640    85880643.86448
  23212932.820   121984845.230 8  23212936.480    95053169.59146
  24665206.060   129616544.950 7  24665211.660   100999932.5074
  22638391.200   118965580.760 8  22638394.540    92700486.72847
  19743633.120   105541039.964 9  19743641.500    82087515.522 8
  20367136.080   108682971.165 9  20367143.300    84531240.943 8
  23074173.720   123561066.765 8  23074183.040    96103041.253 5
  23949044.720   127661876.066 7  23949056.860    99292624.372 4
  20206505.280   107977499.015 9
  24192344.560   129185770.107 4  24192357.480   100477874.274 5
  23786595.400   127197610.736 5  23786602.960    98931509.563 5
  23850639.800   127629594.979 7  23850648.300    99267509.620 6
 16  3 23 21  2  0.0000000  0 18G03G05G07G08G09G16G23G27G28G30R01R02
                                R08R10R11R13R20R21
  24881361.980   130752433.027 6  24881370.720   101885048.34544
  25127154.780   132044072.877 6  25127157.980   102891492.12345
  21026249.620   110493764.973 9  21026249.260    86099043.42348
  23366900.220   122793939.716 8  23366905.440    95683638.92546
  20179679.300   106044969.093 9  20179680.600    82632474.07849
  23205784.380   121947279.065 8  23205784.960    95023875.21045
  20973234.940   110215107.631 9  20973232.580    85881880.19048
  23212737.320   121983817.952 8  23212741.000    95052369.11346
  24664530.140   129612992.885 7  24664535.720   100997164.66942
  22637967.020   118963351.761 8  22637970.360    92698749.84647
  19744034.620   105543186.171 9  19744042.980    82089184.791 8
  20366691.080   108680596.581 9  20366698.300    84529394.043 8
  23074993.700   123565457.560 8  23075002.900    96106456.316 5
  23949686.160   127665295.225 7  23949698.300    99295283.720 4
  20206893.120   107979571.495 9
  24191753.560   129182614.408 4  24191766.540   100475419.845 5
  23786447.860   127196821.487 4  23786455.380    98930895.701 5
  23850085.040   127626626.483 7  23850093.580    99265200.796 6
 16  3 23 21  2  1.0000000  0 18G03G05G07G08G09G16G23G27G28G30R01R02
                                R08R10R11R13R20R21
  24882069.880   130756152.956 6  24882078.600   101887946.98345
  25126627.800   132041303.660 6  25126631.040   102889334.29245
  21026044.780   110492688.492 9  21026044.400    86098204.60748
  23366448.160   122791564.135 8  23366453.360    95681787.82745
  20179635.300   106044737.819 9  20179636.580    82632293.86549
  23206416.720   121950602.021 8  23206417.300    95026464.53145
  20973536.940   110216694.678 9  20973534.580    85883116.85048
  23212541.940   121982791.202 8  23212545.600    95051569.05046
  24663854.220   129609440.867 7  24663859.820   100994396.83243
  22637542.900   118961122.961 8  22637546.220    92697013.12546
  19744436.240   105545333.125 9  19744444.620    82090854.645 8
  20366246.200   108678222.677 9  20366253.440    84527547.675 8
  23075813.720   123569848.488 8  23075822.800    96109871.483 5
  23950327.580   127668714.248 7  23950339.740    99297942.954 4
  20207281.000   107981644.238 9
  24191162.640   129179458.931 4  24191175.640   100472965.587 6
  23786300.380   127196032.950 5  23786307.920    98930282.387 5
  23849530.360   127623658.257 7  23849538.880    99262892.184 6
 16  3 23 21  2  2.0000000  0 18G03G05G07G08G09G16G23G27G28G30R01R02
                                R08R10R11R13R20R21
  24882777.780   130759872.825 6  24882786.480   101890845.56145
  25126100.900   132038534.774 6  25126104.140   102887176.70845
  21025839.980   110491612.221 9  21025839.600    86097365.95448
  23365996.160   122789188.828 8  23366001.340    95679936.94245
  20179591.380   106044506.986 9  20179592.660    82632113.99749
  23207049.120   121953925.234 8  23207049.660    95029054.03945
  20973839.020   110218282.164 9  20973836.660    85884353.84648
  23212346.660   121981764.988 8  23212350.320    95050769.40546
  24663178.320   129605888.944 7  24663183.780   100991629.10841
  22637118.800   118958894.314 8  22637122.120    92695276.51847
  19744838.020   105547480.834 9  19744846.400    82092525.082 8
  20365801.480   108675849.467 9  20365808.700    84525701.850 8
  23076633.780   123574239.573 8  23076642.700    96113286.771 5
  23950968.940   127672133.121 7  23950981.120    99300602.084 4
  20207668.940   107983717.226 9
  24190571.800   129176303.612 4  24190584.760   100470511.458 6
  23786153.040   127195245.086 4  23786160.600    98929669.602 5
  23848975.700   127620690.312 6  23848984.240    99260583.780 6
 16  3 23 21  2  3.0000000  0 18G03G05G07G08G09G16G23G27G28G30R01R02
                                R08R10R11R13R20R21
  24883485.660   130763592.699 7  24883494.360   101893744.15844
  25125574.120   132035766.311 6  25125577.300   102885019.46245
  21025635.220   110490536.219 9  21025634.860    86096527.51548
  23365544.220   122786813.857 8  23365549.380    95678086.31346
  20179547.560   106044276.687 9  20179548.840    82631934.54149
  23207681.560   121957248.768 8  23207682.100    95031643.79845
  20974141.200   110219870.157 9  20974138.860    85885591.24348
  23212151.480   121980739.368 8  23212155.160    95049970.21446
  24662502.440   129602337.179 7  24662508.000   100988861.50243
  22636694.760   118956665.887 8  22636698.060    92693540.08047
  19745239.940   105549629.364 9  19745248.320    82094196.159 8
  20365356.880   108673477.002 9  20365364.100    84523856.599 8
  23077453.860   123578630.914 8  23077462.640    96116702.262 5
  23951610.280   127675551.947 7  23951622.500    99303261.175 4
  20208056.940   107985790.546 9
  24189981.000   129173148.551 4  24189993.940   100468057.526 6
  23786005.880   127194458.075 4  23786013.420    98929057.476 5
  23848421.120   127617722.730 6  23848429.680    99258275.663 6
 16  3 23 21  2  4.0000000  0 18G03G05G07G08G09G16G23G27G28G30R01R02
                                R08R10R11R13R20R21
  24884193.540   130767312.463 7  24884202.240   101896642.66344
  25125047.360   132032998.226 6  25125050.520   102882862.51144
  21025430.520   110489460.479 9  21025430.140    86095689.27848
  23365092.340   122784439.217 8  23365097.480    95676235.94245
  20179503.820   106044046.871 9  20179505.100    82631755.46649
  23208314.080   121960572.618 8  23208314.600    95034233.80845
  20974443.480   110221458.638 9  20974441.120    85886829.02148
  23211956.420   121979714.313 8  23211960.100    95049171.46646
  24661826.580   129598785.558 7  24661832.060   100986094.04942
  22636270.740   118954437.684 8  22636274.040    92691803.82247
  19745642.040   105551778.702 9  19745650.400    82095867.865 8
  20364912.400   108671105.246 9  20364919.640    84522011.904 8
  23078273.980   123583022.469 8  23078282.660    96120117.921 5
  23952251.580   127678970.687 6  23952263.860    99305920.204 4
  20208444.980   107987864.167 9
  24189390.240   129169993.677 4  24189403.140   100465603.738 6
  23785858.840   127193671.824 4  23785866.400    98928445.948 5
  23847866.620   127614755.422 7  23847875.160    99255967.763 6
 16  3 23 21  2  5.0000000  0 18G03G05G07G08G09G16G23G27G28G30R01R02
                                R08R10R11R13R20R21
  24884901.420   130771032.316 7  24884910.120   101899541.23444
  25124520.680   132030230.572 6  25124523.840   102880705.88945
  21025225.860   110488385.041 9  21025225.500    86094851.27248
  23364640.540   122782064.970 8  23364645.680    95674385.88045
  20179460.200   106043817.625 9  20179461.480    82631576.83349
  23208946.660   121963896.843 8  23208947.160    95036824.11645
  20974745.860   110223047.667 9  20974743.500    85888067.22048
  23211761.480   121978689.912 8  23211765.160    95048373.22946
  24661150.760   129595234.126 7  24661156.200   100983326.7244
  22635846.780   118952209.746 8  22635850.080    92690067.76647
  19746044.280   105553928.905 9  19746052.660    82097540.244 8
  20364468.080   108668734.229 9  20364475.300    84520167.778 8
  23079094.140   123587414.252 8  23079102.680    96123533.756 5
  23952892.940   127682389.431 6  23952905.220    99308579.230 4
  20208833.100   107989938.163 9
  24188799.500   129166839.153 5  24188812.420   100463150.225 6
  23785711.940   127192886.372 4  23785719.540    98927835.038 5
  23847312.140   127611788.553 7  23847320.720    99253660.204 6
 16  3 23 21  2  6.0000000  0 18G03G05G07G08G09G16G23G27G28G30R01R02
                                R08R10R11R13R20R21
  24885609.300   130774752.098 7  24885617.920   101902439.76945
  25123994.080   132027463.273 6  25123997.220   102878549.55644
  21025021.260   110487309.853 9  21025020.880    86094013.46648
  23364188.820   122779691.095 8  23364193.920    95672536.10545
  20179416.660   106043588.861 9  20179417.960    82631398.57349
  23209579.300   121967221.365 8  23209579.800    95039414.64845
  20975048.340   110224637.152 9  20975045.980    85889305.78048
  23211566.660   121977666.071 8  23211570.320    95047575.43546
  24660474.980   129591682.812 7  24660480.420   100980559.4774
  22635422.860   118949982.000 8  22635426.160    92688331.86246
  19746446.660   105556079.883 9  19746455.040    82099213.225 8
  20364023.880   108666363.936 9  20364031.120    84518324.216 8
  23079914.340   123591806.239 8  23079922.760    96126949.754 5
  23953534.260   127685808.059 6  23953546.580    99311238.155 4
  20209221.280   107992012.436 9
  24188208.820   129163684.773 5  24188221.700   100460696.831 6
  23785565.240   127192101.674 4  23785572.800    98927224.718 5
  23846757.760   127608821.985 7  23846766.340    99251352.870 6
 16  3 23 21  2  7.0000000  0 18G03G05G07G08G09G16G23G27G28G30R01R02
                                R08R10R11R13R20R21
  24886317.120   130778471.665 7  24886325.740   101905338.12944
  25123467.500   132024696.190 6  25123470.680   102876393.38145
  21024816.660   110486234.701 9  21024816.300    86093175.68548
  23363737.100   122777317.269 8  23363742.180    95670686.37546
  20179373.200   106043360.387 9  20179374.480    82631220.54249
  23210211.940   121970545.981 8  23210212.480    95042005.25745
  20975350.840   110226226.924 9  20975348.500    85890544.55948
  23211371.920   121976642.611 8  23211375.540    95046777.93846
  24659799.160   129588131.431 7  24659804.520   100977792.1604
  22634998.940   118947754.285 8  22635002.240    92686595.98347
  19746849.160   105558231.437 9  19746857.520    82100886.653 8
  20363579.800   108663994.170 9  20363587.020    84516481.074 8
  23080734.520   123596198.193 8  23080742.860    96130365.723 5
  23954175.500   127689226.389 6  23954187.840    99313896.854 4
  20209609.480   107994086.790 9
  24187618.180   129160530.495 5  24187631.020   100458243.508 6
  23785418.640   127191317.534 4  23785426.180    98926614.836 5
  23846203.460   127605855.571 6  23846211.960    99249045.654 5
 16  3 23 21  2  8.0000000  0 18G03G05G07G08G09G16G23G27G28G30R01R02
                                R08R10R11R13R20R21
  24887024.900   130782191.087 7  24887033.520   101908236.36544
  25122940.980   132021929.387 5  25122944.160   102874237.44045
  21024612.080   110485159.705 9  21024611.720    86092338.02848
  23363285.440   122774943.720 8  23363290.480    95668836.85946
  20179329.800   106043132.335 9  20179331.080    82631042.83849
  23210844.660   121973870.834 8  23210845.160    95044596.04945
  20975653.440   110227817.082 9  20975651.100    85891783.64448
  23211177.260   121975619.629 8  23211180.880    95045980.81146
  24659123.380   129584580.104 7  24659128.640   100975024.90342
  22634575.040   118945526.665 8  22634578.320    92684860.17547
  19747251.780   105560383.711 9  19747260.160    82102560.644 8
  20363135.820   108661625.059 9  20363143.040    84514638.431 8
  23081554.740   123600590.295 8  23081563.000    96133781.806 5
  23954816.740   127692644.543 6  23954829.080    99316555.412 4
  20209997.720   107996161.365 9
  24187027.500   129157376.252 5  24187040.340   100455790.209 6
  23785272.160   127190534.144 5  23785279.700    98926005.538 5
  23845649.140   127602889.381 6  23845657.640    99246738.618 6
 16  3 23 21  2  9.0000000  0 18G03G05G07G08G09G16G23G27G28G30R01R02
                                R08R10R11R13R20R21
  24887732.680   130785910.393 7  24887741.320   101911134.51244
  25122414.520   132019162.850 5  25122417.700   102872081.69444
  21024407.560   110484084.898 9  21024407.200    86091500.51648
  23362833.820   122772570.438 8  23362838.840    95666987.55146
  20179286.480   106042904.694 9  20179287.760    82630865.45649
  23211477.400   121977195.908 8  23211477.860    95047187.01845
  20975956.120   110229407.647 9  20975953.780    85893023.04348
  23210982.700   121974597.162 8  23210986.300    95045184.08146
  24658447.580   129581028.824 7  24658452.740   100972257.69442
  22634151.180   118943299.205 8  22634154.460    92683124.49846
  19747654.540   105562536.692 9  19747662.920    82104235.183 8
  20362691.960   108659256.585 9  20362699.200    84512796.285 8
  23082375.000   123604982.573 8  23082383.180    96137198.026 5
  23955457.940   127696062.510 7  23955470.300    99319213.829 4
  20210386.000   107998236.149 9
  24186436.840   129154222.200 5  24186449.680   100453337.064 6
  23785125.700   127189751.339 5  23785133.340    98925396.692 5
  23845094.840   127599923.364 6  23845103.360    99244431.716 6
 16  3 23 21  2 10.0000000  0 18G03G05G07G08G09G16G23G27G28G30R01R02
                                R08R10R11R13R20R21
  24888440.460   130789629.655 7  24888449.060   101914032.63645
  25121888.120   132016396.736 5  25121891.320   102869926.26645
  21024203.080   110483010.356 9  21024202.720    86090663.21348
  23362382.260   122770197.482 8  23362387.260    95665138.49846
  20179243.260   106042677.569 9  20179244.540    82630688.47549
  23212110.200   121980521.310 8  23212110.640    95049778.23245
  20976258.880   110230998.711 9  20976256.540    85894262.83548
  23210788.240   121973575.289 8  23210791.840    95044387.81546
  24657771.840   129577477.705 7  24657776.980   100969490.57444
  22633727.360   118941071.956 8  22633730.640    92681388.97947
  19748057.460   105564690.493 9  19748065.820    82105910.359 8
  20362248.240   108656888.820 9  20362255.480    84510954.692 8
  23083195.320   123609375.082 8  23083203.400    96140614.422 5
  23956099.120   127699480.441 6  23956111.520    99321872.226 4
  20210774.320   108000311.254 9
  24185846.240   129151068.416 5  24185859.100   100450884.117 6
  23784979.520   127188969.421 5  23784987.100    98924788.532 5
  23844540.620   127596957.715 6  23844549.140    99242125.108 5
 16  3 23 21  2 11.0000000  0 19G03G05G07G08G09G16G23G27G28G30R01R02
                                R03R08R10R11R13R20R21
  24889148.220   130793348.893 7  24889156.780   101916930.73145
  25121361.820   132013631.013 5  25121365.000   102867771.16045
  21023998.640   110481936.043 9  21023998.280    86089826.08548
  23361930.780   122767824.852 8  23361935.720    95663289.70246
  20179200.140   106042450.930 9  20179201.400    82630511.87149
  23212743.060   121983847.015 8  23212743.500    95052369.68644
  20976561.740   110232590.236 9  20976559.380    85895502.98048
  23210593.880   121972553.967 8  23210597.480    95043591.98246
  24657096.100   129573926.686 7  24657101.140   100966723.53443
  22633303.560   118938844.908 8  22633306.840    92679653.61947
  19748460.520   105566845.061 9  19748468.880    82107586.132 8
  20361804.660   108654521.758 9  20361811.900    84509113.642 8
  24705489.360   132250418.36315
  23084015.660   123613767.775 8  23084023.700    96144030.959 5
  23956740.280   127702898.269 6  23956752.720    99324530.537 4
  20211162.700   108002386.628 9
  24185255.680   129147914.845 5  24185268.540   100448431.335 6
  23784833.480   127188188.263 5  23784841.040    98924180.966 5
  23843986.400   127593992.411 6  23843994.960    99239818.771 5
 16  3 23 21  2 12.0000000  0 19G03G05G07G08G09G16G23G27G28G30R01R02
                                R03R08R10R11R13R20R21
  24889855.960   130797068.116 7  24889864.540   101919828.82145
  25120835.600   132010865.688 6  25120838.680   102865616.37744
  21023794.260   110480862.008 9  21023793.900    86088989.17548
  23361479.360   122765452.592 8  23361484.280    95661441.18446
  20179157.100   106042224.822 9  20179158.380    82630335.68549
  23213376.000   121987173.069 8  23213376.440    95054961.41245
  20976864.700   110234182.275 9  20976862.340    85896743.53048
  23210399.660   121971533.271 8  23210403.260    95042796.63646
  24656420.400   129570375.866 7  24656425.400   100963956.64144
  22632879.820   118936618.100 8  22632883.080    92677918.44447
  19748863.740   105569000.468 9  19748872.120    82109262.560 8
  20361361.220   108652155.461 9  20361368.460    84507273.191 8
  24704690.080   132246137.531 5
  23084836.040   123618160.712 8  23084844.040    96147447.686 5
  23957381.440   127706316.026 6  23957393.900    99327188.782 4
  20211551.160   108004462.342 9
  24184665.200   129144761.509 5  24184678.040   100445978.741 6
  23784687.540   127187407.862 5  23784695.100    98923573.985 5
  23843432.300   127591027.499 6  23843440.880    99237512.733 5
 16  3 23 21  2 13.0000000  0 19G03G05G07G08G09G16G23G27G28G30R01R02
                                R03R08R10R11R13R20R21
  24890563.720   130800787.241 7  24890572.260   101922726.83044
  25120309.420   132008100.682 6  25120312.580   102863461.84245
  21023589.920   110479788.158 9  21023589.560    86088152.41148
  23361027.980   122763080.561 8  23361032.880    95659592.85446
  20179114.160   106041999.141 9  20179115.440    82630159.82849
  23214008.960   121990499.369 8  23214009.440    95057553.33545
  20977167.720   110235774.729 9  20977165.380    85897984.40048
  23210205.520   121970513.072 8  23210209.120    95042001.67646
  24655744.700   129566825.081 7  24655749.720   100961189.79542
  22632456.100   118934391.434 8  22632459.360    92676183.38447
  19749267.100   105571156.618 9  19749275.460    82110939.566 8
  20360917.900   108649789.845 9  20360925.140    84505433.265 8
  24703890.660   132241856.786 5
  23085656.440   123622553.770 8  23085664.420    96150864.504 6
  23958022.560   127709733.639 6  23958035.020    99329846.915 4
  20211939.620   108006538.269 9
  24184074.760   129141608.389 5  24184087.560   100443526.314 6
  23784541.720   127186628.201 4  23784549.300    98922967.582 5
  23842878.260   127588062.829 6  23842886.840    99235206.874 6
 16  3 23 21  2 14.0000000  0 19G03G05G07G08G09G16G23G27G28G30R01R02
                                R03R08R10R11R13R20R21
  24891271.460   130804506.282 7  24891280.000   101925624.78244
  25119783.320   132005336.032 6  25119786.500   102861307.55645
  21023385.600   110478714.535 9  21023385.240    86087315.81848
  23360576.660   122760708.816 8  23360581.540    95657744.74845
  20179071.300   106041773.929 9  20179072.580    82629984.33849
  23214641.980   121993825.946 8  23214642.460    95060145.47045
  20977470.860   110237367.641 9  20977468.500    85899225.62848
  23210011.500   121969493.434 8  23210015.080    95041207.15146
  24655069.040   129563274.422 7  24655073.960   100958423.05642
  22632032.400   118932164.962 8  22632035.680    92674448.47147
  19749670.600   105573313.554 9  19749678.960    82112617.179 8
  20360474.720   108647424.909 9  20360481.960    84503593.874 8
  24703090.280   132237576.120 5
  23086476.860   123626946.931 8  23086484.800    96154281.402 6
  23958663.660   127713151.130 6  23958676.120    99332504.957 4
  20212328.180   108008614.466 9
  24183484.340   129138455.422 5  24183497.120   100441074.007 6
  23784396.040   127185849.211 5  23784403.640    98922361.697 5
  23842324.280   127585098.424 6  23842332.860    99232901.226 6
 16  3 23 21  2 15.0000000  0 19G03G05G07G08G09G16G23G27G28G30R01R02
                                R03R08R10R11R13R20R21
  24891979.200   130808225.413 7  24891987.700   101928522.78844
  25119257.280   132002571.860 6  25119260.480   102859153.64845
  21023181.360   110477641.258 9  21023181.000    86086479.49548
  23360125.420   122758337.497 8  23360130.280    95655896.97545
  20179028.560   106041549.297 9  20179029.840    82629809.30549
  23215275.100   121997152.925 8  23215275.540    95062737.92345
  20977774.080   110238961.120 9  20977771.720    85900467.29348
  23209817.600   121968474.475 8  23209821.160    95040413.15546
  24654393.400   129559723.978 7  24654398.280   100955656.46443
  22631608.780   118929938.803 8  22631612.060    92672713.80547
  19750074.280   105575471.375 9  19750082.640    82114295.481 8
  20360031.680   108645060.773 9  20360038.920    84501755.102 8
  24702290.960   132233295.592 5
  23087297.360   123631340.393 8  23087305.260    96157698.535 6
  23959304.760   127716568.628 6  23959317.260    99335163.011 4
  20212716.780   108010691.064 9
  24182894.000   129135302.786 5  24182906.740   100438621.952 6
  23784250.500   127185071.168 5  23784258.160    98921756.555 5
  23841770.380   127582134.436 6  23841778.940    99230595.906 6
 16  3 23 21  2 16.0000000  0 19G03G05G07G08G09G16G23G27G28G30R01R02
                                R03R08R10R11R13R20R21
  24892686.920   130811944.378 7  24892695.400   101931420.66645
  25118731.300   131999807.955 6  25118734.540   102856999.95845
  21022977.160   110476568.129 9  21022976.800    86085643.29448
  23359674.220   122755966.415 8  23359679.040    95654049.37646
  20178985.900   106041325.089 9  20178987.180    82629634.59249
  23215908.240   122000480.101 8  23215908.720    95065330.52845
  20978077.380   110240554.980 9  20978075.020    85901709.26248
  23209623.800   121967455.986 8  23209627.340    95039619.52746
  24653717.780   129556173.602 6  24653722.600   100952889.93244
  22631185.180   118927712.723 8  22631188.460    92670979.20147
  19750478.080   105577629.901 9  19750486.420    82115974.331 8
  20359588.760   108642697.248 9  20359596.000    84499916.805 8
  24701491.080   132229015.051 5
  23088117.840   123635734.008 8  23088125.740    96161115.784 6
  23959945.820   127719985.895 6  23959958.320    99337820.885 4
  20213105.420   108012767.849 9
  24182303.640   129132150.272 5  24182316.380   100436169.997 6
  23784105.160   127184293.681 5  23784112.800    98921151.843 5
  23841216.540   127579170.740 6  23841225.080    99228290.823 5
 16  3 23 21  2 17.0000000  0 19G03G05G07G08G09G16G23G27G28G30R01R02
                                R03R08R10R11R13R20R21
  24893394.600   130815663.245 7  24893403.080   101934318.46945
  25118205.400   131997044.411 6  25118208.660   102854846.54544
  21022772.980   110475495.190 9  21022772.640    86084807.24148
  23359223.080   122753595.590 8  23359227.880    95652201.98446
  20178943.320   106041101.300 9  20178944.600    82629460.21449
  23216541.420   122003807.550 8  23216541.900    95067923.34345
  20978380.760   110242149.258 9  20978378.400    85902951.55948
  23209430.100   121966438.031 8  23209433.620    95038826.32346
  24653042.160   129552623.269 6  24653046.940   100950123.45041
  22630761.600   118925486.824 8  22630764.900    92669244.73247
  19750882.000   105579789.157 9  19750890.380    82117653.757 8
  20359145.960   108640334.375 9  20359153.200    84498079.016 8
  24700691.500   132224734.478 6
  23088938.380   123640127.804 8  23088946.260    96164533.175 6
  23960586.840   127723403.065 6  23960599.380    99340478.674 4
  20213494.120   108014844.877 9
  24181713.340   129128997.908 6  24181726.060   100433718.154 6
  23783959.900   127183516.991 5  23783967.580    98920547.750 5
  23840662.740   127576207.297 6  23840671.280    99225985.940 6
 16  3 23 21  2 18.0000000  0 19G03G05G07G08G09G16G23G27G28G30R01R02
                                R03R08R10R11R13R20R21
  24894102.300   130819382.168 7  24894110.760   101937216.31644
  25117679.600   131994281.340 6  25117682.840   102852693.50644
  21022568.880   110474422.614 9  21022568.520    86083971.46748
  23358772.020   122751225.217 8  23358776.780    95650354.94245
  20178900.840   106040878.121 9  20178902.120    82629286.30849
  23217174.680   122007135.385 8  23217175.160    95070516.46045
  20978684.240   110243744.122 9  20978681.900    85904194.31048
  23209236.520   121965420.740 8  23209240.000    95038033.62946
  24652366.600   129549073.185 6  24652371.220   100947357.15343
  22630338.080   118923261.229 8  22630341.380    92667510.50547
  19751286.100   105581949.322 9  19751294.480    82119333.883 8
  20358703.320   108637972.371 9  20358710.560    84496241.904 8
  24699891.600   132220454.208 6
  23089759.000   123644521.933 8  23089766.840    96167950.826 6
  23961227.860   127726820.214 6  23961240.400    99343136.442 4
  20213882.880   108016922.320 9
  24181123.140   129125845.905 6  24181135.780   100431266.596 6
  23783814.740   127182741.167 5  23783822.500    98919944.340 5
  23840109.020   127573244.265 6  23840117.580    99223681.365 5
 16  3 23 21  2 19.0000000  0 19G03G05G07G08G09G16G23G27G28G30R01R02
                                R03R08R10R11R13R20R21
  24894809.960   130823100.957 7  24894818.420   101940114.06445
  25117153.860   131991518.539 6  25117157.100   102850540.67145
  21022364.800   110473350.161 9  21022364.440    86083135.79248
  23358321.000   122748855.043 8  23358325.720    95648508.05245
  20178858.440   106040655.318 9  20178859.720    82629112.69649
  23217807.980   122010463.436 8  23217808.440    95073109.74446
  20978987.800   110245339.351 9  20978985.460    85905437.34648
  23209043.020   121964403.912 8  23209046.500    95037241.29746
  24651691.040   129545523.127 6  24651695.680   100944590.88343
  22629914.580   118921035.719 8  22629917.900    92665776.34447
  19751690.340   105584110.155 9  19751698.700    82121014.529 8
  20358260.780   108635610.991 9  20358268.040    84494405.276 8
  24699092.100   132216173.857 5
  23090579.620   123648916.144 8  23090587.440    96171368.542 6
  23961868.880   127730237.148 6  23961881.420    99345794.049 4
  20214271.700   108018999.952 9
  24180532.940   129122694.035 6  24180545.540   100428815.141 6
  23783669.800   127181965.974 5  23783677.560    98919341.414 5
  23839555.340   127570281.470 7  23839563.900    99221376.976 5
 16  3 23 21  2 20.0000000  0 19G03G05G07G08G09G16G23G27G28G30R01R02
                                R03R08R10R11R13R20R21
  24895517.640   130826819.725 7  24895526.040   101943011.80744
  25116628.200   131988756.138 6  25116631.420   102848388.13644
  21022160.760   110472277.966 9  21022160.420    86082300.31348
  23357870.060   122746485.209 8  23357874.740    95646661.43346
  20178816.140   106040433.015 9  20178817.420    82628939.47049
  23218441.360   122013791.789 8  23218441.800    95075703.26645
  20979291.460   110246935.066 9  20979289.100    85906680.75448
  23208849.640   121963387.672 8  23208853.120    95036449.42246
  24651015.480   129541973.170 6  24651020.140   100941824.68643
  22629491.120   118918810.432 8  22629494.440    92664042.35647
  19752094.720   105586271.777 9  19752103.080    82122695.788 8
  20357818.400   108633250.345 9  20357825.660    84492569.220 8
  24698292.820   132211893.696 5
  23091400.260   123653310.527 8  23091408.100    96174786.389 6
  23962509.880   127733653.988 6  23962522.380    99348451.581 4
  20214660.560   108021077.872 9
  24179942.720   129119542.360 5  24179955.340   100426363.834 7
  23783525.060   127181191.575 5  23783532.740    98918739.104 5
  23839001.720   127567318.951 6  23839010.260    99219072.792 6
 16  3 23 21  2 21.0000000  0 19G03G05G07G08G09G16G23G27G28G30R01R02
                                R03R08R10R11R13R20R21
  24896225.320   130830538.514 7  24896233.740   101945909.54645
  25116102.600   131985994.170 6  25116105.840   102846235.94744
  21021956.780   110471206.096 9  21021956.460    86081465.09048
  23357419.180   122744115.774 8  23357423.820    95644815.12445
  20178773.940   106040211.289 9  20178775.220    82628766.69949
  23219074.800   122017120.546 8  23219075.220    95078297.09245
  20979595.220   110248531.338 9  20979592.860    85907924.60248
  23208656.380   121962372.086 8  23208659.840    95035658.05946
  24650340.000   129538423.464 6  24650344.680   100939058.68443
  22629067.720   118916585.437 8  22629071.020    92662308.59547
  19752499.260   105588434.275 9  19752507.620    82124377.731 8
  20357376.160   108630890.479 9  20357383.420    84490733.772 8
  24697493.160   132207613.715 5
  23092220.960   123657705.169 8  23092228.780    96178204.438 6
  23963150.880   127737070.839 6  23963163.360    99351109.131 3
  20215049.480   108023156.191 9
  24179352.620   129116390.986 5  24179365.180   100423912.764 7
  23783380.360   127180417.935 5  23783388.060    98918137.382 5
  23838448.180   127564356.903 6  23838456.720    99216768.977 6
 16  3 23 21  2 22.0000000  0 19G03G05G07G08G09G16G23G27G28G30R01R02
                                R03R08R10R11R13R20R21
  24896932.980   130834257.203 7  24896941.420   101948807.20745
  25115577.080   131983232.549 6  25115580.340   102844084.03044
  21021752.860   110470134.405 9  21021752.520    86080630.00848
  23356968.340   122741746.612 8  23356972.980    95642969.02046
  20178731.840   106039990.007 9  20178733.120    82628594.27149
  23219708.260   122020449.511 8  23219708.700    95080891.07945
  20979899.060   110250128.018 9  20979896.700    85909168.76848
  23208463.220   121961357.024 8  23208466.680    95034867.10546
  24649664.500   129534873.819 6  24649669.240   100936292.74944
  22628644.340   118914360.573 8  22628647.660    92660574.93747
  19752903.940   105590597.489 9  19752912.300    82126060.231 8
  20356934.040   108628531.247 9  20356941.300    84488898.814 8
  24696693.460   132203333.709 5
  23093041.700   123662099.954 7  23093049.500    96181622.600 6
  23963791.820   127740487.505 6  23963804.300    99353766.547 4
  20215438.460   108025234.769 9
  24178762.500   129113239.776 5  24178775.060   100421461.818 7
  23783235.820   127179645.122 5  23783243.540    98917536.307 5
  23837894.700   127561395.119 7  23837903.240    99214465.374 5
 16  3 23 21  2 23.0000000  0 19G03G05G07G08G09G16G23G27G28G30R01R02
                                R03R08R10R11R13R20R21
  24897640.600   130837975.705 7  24897649.020   101951704.73844
  25115051.580   131980471.185 5  25115054.840   102841932.30444
  21021548.940   110469062.838 9  21021548.600    86079795.02548
  23356517.540   122739377.642 8  23356522.160    95641123.07446
  20178689.800   106039769.083 9  20178691.080    82628422.12149
  23220341.780   122023778.668 8  23220342.200    95083485.22545
  20980202.960   110251725.060 9  20980200.600    85910413.21748
  23208270.160   121960342.397 8  23208273.620    95034076.48746
  24648989.000   129531324.184 6  24648993.800   100933526.81244
  22628220.980   118912135.810 8  22628224.320    92658841.35147
  19753308.740   105592761.380 9  19753317.120    82127743.255 8
  20356492.020   108626172.602 9  20356499.300    84487064.311 8
  24695894.020   132199053.677 5
  23093862.400   123666494.856 7  23093870.240    96185040.847 6
  23964432.740   127743903.972 6  23964445.180    99356423.799 4
  20215827.480   108027313.509 9
  24178172.360   129110088.635 6  24178184.960   100419010.923 7
  23783091.360   127178872.899 5  23783099.140    98916935.687 5
  23837341.260   127558433.518 7  23837349.780    99212161.915 5
 16  3 23 21  2 24.0000000  0 19G03G05G07G08G09G16G23G27G28G30R01R02
                                R03R08R10R11R13R20R21
  24898348.240   130841694.200 7  24898356.580   101954602.26244
  25114526.160   131977710.174 6  25114529.460   102839780.87345
  21021345.080   110467991.541 9  21021344.740    86078960.24848
  23356066.820   122737009.016 8  23356071.420    95639277.39746
  20178647.860   106039548.679 9  20178649.140    82628250.37949
  23220975.360   122027108.151 8  23220975.800    95086079.62345
  20980506.960   110253322.593 9  20980504.600    85911658.04448
  23208077.200   121959328.380 8  23208080.660    95033286.34246
  24648313.540   129527774.694 6  24648318.460   100930760.9984
  22627797.680   118909911.256 8  22627800.980    92657107.93947
  19753713.700   105594926.083 9  19753722.060    82129426.911 8
  20356050.160   108623814.718 9  20356057.420    84485230.401 8
  24695094.680   132194773.717 5
  23094683.180   123670889.970 7  23094691.060    96188459.262 6
  23965073.600   127747320.370 6  23965086.100    99359081.006 4
  20216216.540   108029392.568 9
  24177582.340   129106937.760 5  24177594.900   100416560.243 7
  23782947.100   127178101.380 5  23782954.860    98916335.613 5
  23836787.840   127555472.246 7  23836796.360    99209858.707 5
 16  3 23 21  2 25.0000000  0 19G03G05G07G08G09G16G23G27G28G30R01R02
                                R03R08R10R11R13R20R21
  24899055.840   130845412.600 7  24899064.140   101957499.70044
  25114000.800   131974949.515 5  25114004.100   102837629.71045
  21021141.240   110466920.444 9  21021140.940    86078125.62548
  23355616.140   122734640.664 8  23355620.700    95637431.93246
  20178606.000   106039328.708 9  20178607.280    82628078.96949
  23221608.980   122030437.889 8  23221609.400    95088674.22845
  20980811.040   110254920.558 9  20980808.680    85912903.20948
  23207884.360   121958314.886 8  23207887.780    95032496.60046
  24647638.140   129524225.278 6  24647642.980   100927995.22344
  22627374.400   118907686.878 8  22627377.700    92655374.66146
  19754118.800   105597091.532 9  19754127.160    82131111.147 8
  20355608.420   108621457.503 9  20355615.680    84483397.014 8
  24694295.220   132190493.813 5
  23095503.980   123675285.231 7  23095511.880    96191877.792 7
  23965714.480   127750736.653 7  23965726.980    99361738.113 4
  20216605.660   108031471.881 9
  24176992.340   129103787.030 5  24177004.840   100414109.675 7
  23782802.960   127177330.695 5  23782810.740    98915736.191 5
  23836234.520   127552511.252 7  23836243.020    99207555.710 5
 16  3 23 21  2 26.0000000  0 19G03G05G07G08G09G16G23G27G28G30R01R02
                                R03R08R10R11R13R20R21
  24899763.460   130849131.040 7  24899771.680   101960397.17544
  25113475.540   131972189.331 5  25113478.860   102835478.92746
  21020937.480   110465849.670 9  21020937.160    86077291.26048
  23355165.560   122732272.708 8  23355170.100    95635586.77446
  20178564.260   106039109.334 9  20178565.540    82627908.03149
  23222242.680   122033768.012 8  23222243.080    95091269.13645
  20981115.240   110256519.079 9  20981112.860    85914148.80648
  23207691.620   121957302.057 8  23207695.020    95031707.38546
  24646962.780   129520676.085 6  24646967.580   100925229.62944
  22626951.160   118905462.755 8  22626954.460    92653641.57946
  19754524.060   105599257.855 9  19754532.420    82132796.062 8
  20355166.820   108619101.105 9  20355174.100    84481564.260 8
  24693495.880   132186214.059 5
  23096324.840   123679680.763 7  23096332.760    96195296.531 7
  23966355.360   127754152.904 7  23966367.840    99364395.195 3
  20216994.840   108033551.581 9
  24176402.400   129100636.640 5  24176414.880   100411659.371 7
  23782658.960   127176560.817 5  23782666.780    98915137.397 5
  23835681.240   127549550.689 7  23835689.760    99205253.054 5
 16  3 23 21  2 27.0000000  0 19G03G05G07G08G09G16G23G27G28G30R01R02
                                R03R08R10R11R13R20R21
  24900471.080   130852849.584 7  24900479.320   101963294.73644
  25112950.400   131969429.691 6  25112953.680   102833328.56144
  21020733.800   110464779.311 9  21020733.480    86076457.21248
  23354715.040   122729905.254 8  23354719.580    95633742.00046
  20178522.640   106038890.601 9  20178523.900    82627737.58949
  23222876.480   122037098.604 8  23222876.880    95093864.40445
  20981419.540   110258118.239 9  20981417.180    85915394.90648
  23207499.040   121956289.953 8  23207502.400    95030918.73246
  24646287.440   129517127.210 6  24646292.260   100922464.27343
  22626528.000   118903239.037 8  22626531.300    92651908.81347
  19754929.480   105601425.129 9  19754937.860    82134481.720 8
  20354725.400   108616745.574 9  20354732.680    84479732.184 8
  24692696.700   132181934.615 5
  23097145.740   123684076.650 7  23097153.720    96198715.544 7
  23966996.280   127757569.216 7  23967008.740    99367052.337 3
  20217384.120   108035631.743 9
  24175812.480   129097486.625 5  24175825.000   100409209.358 7
  23782515.140   127175791.889 5  23782522.980    98914539.340 5
  23835128.080   127546590.602 7  23835136.560    99202950.764 5
 16  3 23 21  2 28.0000000  0 19G03G05G07G08G09G16G23G27G28G30R01R02
                                R03R08R10R11R13R20R21
  24901178.700   130856568.018 7  24901186.900   101966192.21544
  25112425.300   131966670.317 6  25112428.560   102831178.38944
  21020530.140   110463709.100 9  21020529.820    86075623.28348
  23354264.580   122727538.005 8  23354269.100    95631897.39746
  20178481.100   106038672.270 9  20178482.360    82627567.46149
  23223510.300   122040429.403 8  23223510.700    95096459.83045
  20981723.920   110259717.782 9  20981721.560    85916641.30248
  23207306.540   121955278.332 8  23207309.900    95030130.45646
  24645612.100   129513578.337 6  24645616.940   100919698.90444
  22626104.860   118901015.406 8  22626108.140    92650176.11847
  19755335.040   105603593.091 9  19755343.440    82136167.910 8
  20354284.100   108614390.675 9  20354291.360    84477900.596 8
  24691897.320   132177655.150 6
  23097966.680   123688472.658 7  23097974.700    96202134.647 7
  23967637.140   127760985.337 7  23967649.580    99369709.330 3
  20217773.420   108037712.090 9
  24175222.620   129094336.702 5  24175235.120   100406759.417 7
  23782371.480   127175023.685 5  23782379.340    98913941.839 5
  23834574.940   127543630.715 7  23834583.420    99200648.630 5
 16  3 23 21  2 29.0000000  0 19G03G05G07G08G09G16G23G27G28G30R01R02
                                R03R08R10R11R13R20R21
  24901886.260   130860286.140 7  24901894.420   101969089.45144
  25111900.240   131963911.105 6  25111903.520   102829028.36244
  21020326.480   110462638.885 9  21020326.180    86074789.34948
  23353814.140   122725170.861 8  23353818.620    95630052.87545
  20178439.580   106038454.184 9  20178440.860    82627397.52449
  23224144.140   122043760.260 8  23224144.540    95099055.29745
  20982028.340   110261317.546 9  20982025.980    85917887.86948
  23207114.100   121954267.043 8  23207117.460    95029342.43846
  24644936.740   129510029.351 6  24644941.580   100916933.47143
  22625681.720   118898791.745 8  22625685.000    92648443.39547
  19755740.700   105605761.608 9  19755749.100    82137854.533 8
  20353842.860   108612036.268 9  20353850.140    84476069.390 8
  24691097.920   132173375.584 5
  23098787.580   123692868.621 7  23098795.660    96205553.712 7
  23968277.900   127764401.116 7  23968290.380    99372366.066 3
  20218162.740   108039792.476 9
  24174632.740   129091186.791 5  24174645.240   100404309.485 7
  23782227.880   127174255.922 5  23782235.780    98913344.682 5
  23834021.860   127540670.974 7  23834030.320    99198346.607 5
 16  3 23 21  2 30.0000000  0 19G03G05G07G08G09G16G23G27G28G30R01R02
                                R03R08R10R11R13R20R21
  24902593.720   130864003.665 7  24902601.820   101971986.21144
  25111375.120   131961151.717 6  25111378.400   102826878.21044
  21020122.760   110461568.377 9  21020122.460    86073955.18348
  23353363.640   122722803.507 8  23353368.100    95628208.18445
  20178398.080   106038236.053 9  20178399.340    82627227.54949
  23224777.920   122047090.878 8  23224778.380    95101650.58345
  20982332.760   110262917.245 9  20982330.400    85919134.38548
  23206921.680   121953255.774 8  23206925.020    95028554.43746
  24644261.320   129506479.969 6  24644266.200   100914167.68942
  22625258.500   118896567.762 8  22625261.800    92646710.42347
  19756146.420   105607930.368 9  19756154.800    82139541.347 7
  20353401.680   108609682.007 9  20353408.960    84474238.298 8
  24690298.540   132169095.552 6
  23099608.420   123697264.216 7  23099616.560    96208972.496 7
  23968918.580   127767816.258 7  23968931.080    99375022.302 3
  20218552.020   108041872.606 9
  24174042.820   129088036.515 5  24174055.300   100401859.272 6
  23782084.340   127173488.376 5  23782092.260    98912747.698 5
  23833468.720   127537710.964 7  23833477.140    99196044.377 5
 16  3 23 21  2 31.0000000  0 19G03G05G07G08G09G16G23G27G28G30R01R02
                                R03R08R10R11R13R20R21
  24903301.140   130867721.048 7  24903309.200   101974882.86544
  25110850.080   131958392.572 6  25110853.340   102824728.22244
  21019919.080   110460497.997 9  21019918.780    86073121.12148
  23352913.180   122720436.313 8  23352917.640    95626363.62345
  20178356.640   106038018.292 9  20178357.900    82627057.86649
  23225411.740   122050421.672 8  23225412.180    95104246.00744
  20982637.240   110264517.306 9  20982634.880    85920381.18648
  23206729.320   121952244.979 8  23206732.660    95027766.80046
  24643585.900   129502930.584 6  24643590.740   100911401.94343
  22624835.300   118894343.825 8  22624838.600    92644977.48847
  19756552.260   105610099.808 9  19756560.640    82141228.688 7
  20352960.600   108607328.316 9  20352967.880    84472407.650 8
  24689498.840   132164815.460 6
  23100429.280   123701659.919 6  23100437.500    96212391.366 7
  23969559.200   127771231.198 7  23969571.700    99377678.375 3
  20218941.300   108043952.902 9
  24173452.940   129084886.365 5  24173465.380   100399409.157 6
  23781940.900   127172721.421 5  23781948.860    98912151.173 5
  23832915.640   127534751.134 7  23832924.020    99193742.287 5
 16  3 23 21  2 32.0000000  0 19G03G05G07G08G09G16G23G27G28G30R01R02
                                R03R08R10R11R13R20R21
  24904008.520   130871438.268 7  24904016.540   101977779.38444
  25110325.100   131955633.759 6  25110328.340   102822578.48845
  21019715.420   110459427.751 9  21019715.120    86072287.16748
  23352462.780   122718069.375 8  23352467.240    95624519.25546
  20178315.280   106037800.925 9  20178316.540    82626888.49149
  23226045.620   122053752.665 8  23226046.060    95106841.58545
  20982941.800   110266117.740 9  20982939.440    85921628.27448
  23206537.060   121951234.648 8  23206540.400    95026979.53046
  24642910.460   129499381.239 6  24642915.380   100908636.23443
  22624412.140   118892120.044 8  22624415.420    92643244.67347
  19756958.220   105612269.942 9  19756966.620    82142916.566 8
  20352519.640   108604975.221 9  20352526.920    84470577.467 8
  24688699.240   132160535.321 6
  23101250.100   123706055.705 6  23101258.440    96215810.294 7
  23970199.800   127774645.933 7  23970212.280    99380334.275 3
  20219330.660   108046033.388 9
  24172863.000   129081736.300 5  24172875.460   100396959.111 6
  23781797.600   127171955.134 5  23781805.580    98911555.176 5
  23832362.580   127531791.572 7  23832370.920    99191440.405 5
 16  3 23 21  2 33.0000000  0 19G03G05G07G08G09G16G23G27G28G30R01R02
                                R03R08R10R11R13R20R21
  24904715.940   130875155.715 7  24904723.940   101980676.09043
  25109800.260   131952875.541 6  25109803.420   102820429.21744
  21019511.840   110458358.015 9  21019511.560    86071453.60948
  23352012.480   122715703.029 8  23352016.920    95622675.34846
  20178274.060   106037584.315 9  20178275.320    82626719.70449
  23226679.600   122057084.232 8  23226680.000    95109437.60245
  20983246.500   110267718.905 9  20983244.120    85922875.93248
  23206344.960   121950225.161 8  23206348.320    95026192.92046
  24642235.140   129495832.311 6  24642240.040   100905870.84843
  22623989.060   118889896.689 8  22623992.320    92641512.18846
  19757364.400   105614441.129 9  19757372.780    82144605.266 8
  20352078.840   108602623.106 9  20352086.120    84468748.048 8
  24687899.740   132156255.554 6
  23102071.020   123710451.909 6  23102079.480    96219229.549 7
  23970840.440   127778060.843 7  23970852.920    99382990.310 4
  20219720.080   108048114.432 9
  24172273.240   129078586.731 5  24172285.660   100394509.446 7
  23781654.540   127171189.882 5  23781662.500    98910959.986 5
  23831809.620   127528832.616 7  23831817.960    99189138.995 5
 16  3 23 21  2 34.0000000  0 19G03G05G07G08G09G16G23G27G28G30R01R02
                                R03R08R10R11R13R20R21
  24905423.400   130878873.311 7  24905431.360   101983572.91644
  25109275.480   131950117.869 6  25109278.580   102818280.36845
  21019308.360   110457288.713 9  21019308.080    86070620.38648
  23351562.280   122713337.191 8  23351566.720    95620831.84246
  20178232.980   106037368.381 9  20178234.220    82626551.44349
  23227313.640   122060416.276 8  23227314.060    95112033.99445
  20983551.300   110269320.734 9  20983548.940    85924124.10948
  23206153.020   121949216.426 8  23206156.360    95025406.89546
  24641559.840   129492283.664 6  24641564.760   100903105.68544
  22623566.040   118887673.751 8  22623569.320    92639780.02746
  19757770.740   105616613.308 9  19757779.140    82146294.738 8
  20351638.240   108600271.931 9  20351645.520    84466919.359 8
  24687100.420   132151976.051 6
  23102892.000   123714848.589 5  23102900.560    96222649.168 7
  23971481.080   127781475.839 7  23971493.560    99385646.410 4
  20220109.620   108050195.949 9
  24171683.480   129075437.603 4  24171695.940   100392060.120 6
  23781511.560   127170425.614 5  23781519.600    98910365.560 5
  23831256.760   127525874.159 7  23831265.060    99186837.967 5
 16  3 23 21  2 35.0000000  0 19G03G05G07G08G09G16G23G27G28G30R01R02
                                R03R08R10R11R13R20R21
  24906130.840   130882590.970 7  24906138.860   101986469.79344
  25108750.820   131947360.718 6  25108753.920   102816131.94044
  21019104.940   110456219.778 9  21019104.660    86069787.45448
  23351112.160   122710971.800 8  23351116.600    95618988.68445
  20178192.000   106037153.055 9  20178193.240    82626383.65849
  23227947.800   122063748.746 8  23227948.200    95114630.72245
  20983856.240   110270923.144 9  20983853.860    85925372.74048
  23205961.200   121948208.394 8  23205964.540    95024621.41646
  24640884.580   129488735.262 6  24640889.500   100900340.71044
  22623143.080   118885451.115 8  22623146.360    92638048.10947
  19758177.280   105618786.393 9  19758185.660    82147984.913 8
  20351197.800   108597921.638 9  20351205.060    84465091.353 8
  24686300.860   132147696.790 6
  23103712.980   123719245.579 5  23103721.720    96226069.020 7
  23972121.720   127784890.850 7  23972134.200    99388302.528 3
  20220499.220   108052277.880 9
  24171093.780   129072288.804 4  24171106.260   100389611.052 6
  23781368.780   127169662.209 5  23781376.840    98909771.805 5
  23830703.960   127522916.138 7  23830712.260    99184537.281 5
 16  3 23 21  2 36.0000000  0 19G03G05G07G08G09G16G23G27G28G30R01R02
                                R03R08R10R11R13R20R21
  24906838.300   130886308.666 7  24906846.340   101989366.70743
  25108226.220   131944604.034 5  25108229.300   102813983.86645
  21018901.580   110455151.169 9  21018901.300    86068954.77249
  23350662.100   122708606.803 8  23350666.540    95617145.82946
  20178151.140   106036938.301 9  20178152.380    82626216.31649
  23228582.040   122067081.595 8  23228582.400    95117227.73945
  20984161.260   110272526.117 9  20984158.920    85926621.80848
  23205769.500   121947201.012 8  23205772.820    95023836.44646
  24640209.380   129485187.091 6  24640214.300   100897575.92044
  22622720.180   118883228.769 8  22622723.460    92636316.41547
  19758583.940   105620960.350 9  19758592.340    82149675.766 8
  20350757.500   108595572.158 9  20350764.780    84463263.980 8
  24685501.740   132143417.665 6
  23104534.080   123723642.843 5  23104542.940    96229489.087 7
  23972762.380   127788305.841 7  23972774.820    99390958.625 4
  20220888.900   108054360.177 9
  24170504.160   129069140.322 4  24170516.660   100387162.233 6
  23781226.200   127168899.716 5  23781234.240    98909178.753 6
  23830151.260   127519958.483 7  23830159.500    99182236.885 5
 16  3 23 21  2 37.0000000  0 19G03G05G07G08G09G16G23G27G28G30R01R02
                                R03R08R10R11R13R20R21
  24907545.740   130890026.348 7  24907553.720   101992263.59644
  25107701.660   131941847.741 5  25107704.820   102811836.10044
  21018698.280   110454082.842 9  21018698.020    86068122.30849
  23350212.140   122706242.174 8  23350216.560    95615303.27145
  20178110.360   106036724.076 9  20178111.600    82626049.39049
  23229216.320   122070414.793 8  23229216.700    95119825.03845
  20984466.400   110274129.607 9  20984464.040    85927871.28248
  23205577.920   121946194.236 8  23205581.240    95023051.94246
  24639534.220   129481639.098 6  24639539.100   100894811.25543
  22622297.320   118881006.685 8  22622300.600    92634584.92147
  19758990.780   105623135.140 9  19758999.180    82151367.270 8
  20350317.340   108593223.393 9  20350324.620    84461437.161 8
  24684702.440   132139138.695 6
  23105355.180   123728040.361 5  23105364.180    96232909.356 7
  23973403.020   127791720.783 7  23973415.440    99393614.694 4
  20221278.640   108056442.808 9
  24169914.580   129065992.083 4  24169927.100   100384713.602 6
  23781083.680   127168138.018 5  23781091.820    98908586.314 6
  23829598.620   127517001.259 7  23829606.860    99179936.822 5
 16  3 23 21  2 38.0000000  0 19G03G05G07G08G09G16G23G27G28G30R01R02
                                R03R08R10R11R13R20R21
  24908253.240   130893744.086 7  24908261.220   101995160.52144
  25107177.240   131939091.938 6  25107180.380   102809688.75344
  21018495.040   110453014.845 9  21018494.780    86067290.10148
  23349762.240   122703877.952 8  23349766.660    95613461.02245
  20178069.720   106036510.428 9  20178070.960    82625882.90749
  23229850.680   122073748.364 8  23229851.060    95122422.62845
  20984771.640   110275733.654 9  20984769.280    85929121.18548
  23205386.480   121945188.131 8  23205389.780    95022267.96646
  24638859.100   129478091.308 6  24638864.000   100892046.76443
  22621874.540   118878784.882 8  22621877.800    92632853.64847
  19759397.800   105625310.796 9  19759406.180    82153059.443 8
  20349877.320   108590875.397 9  20349884.600    84459610.944 8
  24683903.020   132134859.937 5
  23106176.320   123732438.083 5  23106185.480    96236329.782 7
  23974043.640   127795135.712 7  23974056.060    99396270.754 4
  20221668.440   108058525.807 9
  24169325.040   129062844.151 4  24169337.620   100382265.211 6
  23780941.360   127167377.185 5  23780949.560    98907994.554 6
  23829046.060   127514044.444 7  23829054.280    99177637.067 5
 16  3 23 21  2 39.0000000  0 19G03G05G07G08G09G16G23G27G28G30R01R02
                                R03R08R10R11R13R20R21
  24908960.700   130897461.680 7  24908968.680   101998057.33044
  25106652.880   131936336.470 6  25106656.020   102807541.63844
  21018291.840   110451947.022 9  21018291.560    86066458.03148
  23349312.380   122701513.990 8  23349316.800    95611618.97446
  20178029.140   106036297.226 9  20178030.380    82625716.77749
  23230485.080   122077082.169 8  23230485.460    95125020.39845
  20985076.960   110277338.111 9  20985074.600    85930371.41148
  23205195.120   121944182.527 8  23205198.440    95021484.38146
  24638183.960   129474543.589 6  24638188.860   100889282.32844
  22621451.760   118876563.200 8  22621455.040    92631122.46947
  19759804.920   105627487.172 9  19759813.320    82154752.181 8
  20349437.420   108588528.052 9  20349444.720    84457785.235 8
  24683103.540   132130581.237 5
  23106997.520   123736835.971 5  23107006.800    96239750.338 7
  23974684.240   127798550.476 7  23974696.680    99398926.685 4
  20222058.280   108060609.042 9
  24168735.540   129059696.358 4  24168748.140   100379816.936 6
  23780799.240   127166617.013 5  23780807.440    98907403.313 6
  23828493.580   127511087.905 7  23828501.740    99175337.528 5
 16  3 23 21  2 40.0000000  0 19G03G05G07G08G09G16G23G27G28G30R01R02
                                R03R08R10R11R13R20R21
  24909668.160   130901179.389 7  24909676.160   102000954.22643
  25106128.600   131933581.463 6  25106131.700   102805394.85644
  21018088.720   110450879.590 9  21018088.440    86065626.26448
  23348862.620   122699150.511 8  23348867.060    95609777.30045
  20177988.680   106036084.636 9  20177989.920    82625551.12549
  23231119.560   122080416.403 8  23231119.940    95127618.49845
  20985382.400   110278943.177 9  20985380.040    85931622.10848
  23205003.900   121943177.630 8  23205007.220    95020701.34246
  24637508.900   129470996.120 6  24637513.740   100886518.07643
  22621029.040   118874341.881 8  22621032.340    92629391.57347
  19760212.240   105629664.469 9  19760220.640    82156445.632 8
  20348997.700   108586181.595 9  20349004.980    84455960.213 8
  24682304.260   132126302.744 5
  23107818.780   123741234.228 5  23107828.200    96243171.180 7
  23975324.840   127801965.309 7  23975337.300    99401582.666 3
  20222448.220   108062692.705 9
  24168146.160   129056548.976 4  24168158.740   100377368.976 6
  23780657.260   127165857.753 5  23780665.480    98906812.777 5
  23827941.160   127508131.772 7  23827949.300    99173038.308 5
 16  3 23 21  2 41.0000000  0 19G03G05G07G08G09G16G23G27G28G30R01R02
                                R03R08R10R11R13R20R21
  24910375.620   130904896.937 7  24910383.560   102003850.99943
  25105604.380   131930826.789 6  25105607.540   102803248.34345
  21017885.620   110449812.292 9  21017885.340    86064794.60849
  23348412.900   122696787.222 8  23348417.340    95607935.77846
  20177948.300   106035872.453 9  20177949.540    82625385.78649
  23231754.080   122083750.864 8  23231754.460    95130216.77645
  20985687.900   110280548.622 9  20985685.540    85932873.10448
  23204812.760   121942173.217 8  23204816.080    95019918.68446
  24636833.840   129467448.698 6  24636838.740   100883753.82644
  22620606.360   118872120.651 8  22620609.660    92627660.75147
  19760619.660   105631842.445 9  19760628.060    82158139.614 8
  20348558.100   108583835.781 9  20348565.380    84454135.693 8
  24681505.020   132122024.216 5
  23108640.040   123745632.520 6  23108649.580    96246592.044 7
  23975965.400   127805379.932 7  23975977.880    99404238.482 4
  20222838.180   108064776.549 9
  24167556.840   129053401.680 4  24167569.360   100374921.090 6
  23780515.400   127165099.196 5  23780523.660    98906222.786 5
  23827388.780   127505175.881 7  23827396.920    99170739.281 5
 16  3 23 21  2 42.0000000  0 19G03G05G07G08G09G16G23G27G28G30R01R02
                                R03R08R10R11R13R20R21
  24911083.040   130908614.491 7  24911090.940   102006747.79444
  25105080.260   131928072.530 5  25105083.440   102801102.15543
  21017682.580   110448745.307 9  21017682.300    86063963.19148
  23347963.260   122694424.327 8  23347967.700    95606094.56545
  20177908.040   106035660.801 9  20177909.260    82625220.86249
  23232388.700   122087085.684 8  23232389.040    95132815.33445
  20985993.500   110282154.590 9  20985991.160    85934124.50848
  23204621.760   121941169.437 8  23204625.060    95019136.52046
  24636158.820   129463901.462 6  24636163.800   100880989.74044
  22620183.720   118869899.697 8  22620187.020    92625930.13747
  19761027.260   105634021.274 9  19761035.660    82159834.259 8
  20348118.620   108581490.749 9  20348125.920    84452311.775 8
  24680705.760   132117745.829 6
  23109461.380   123750031.117 6  23109471.040    96250013.148 7
  23976605.980   127808794.485 7  23976618.420    99406894.241 3
  20223228.200   108066860.745 9
  24166967.560   129050254.632 4  24166980.020   100372473.388 6
  23780373.720   127164341.414 5  23780381.960    98905633.402 5
  23826836.460   127502220.375 7  23826844.620    99168440.558 5
 16  3 23 21  2 43.0000000  0 19G03G05G07G08G09G16G23G27G28G30R01R02
                                R03R08R10R11R13R20R21
  24911790.480   130912331.898 6  24911798.280   102009644.48343
  25104556.180   131925318.545 6  25104559.460   102798956.19044
  21017479.560   110447678.441 9  21017479.280    86063131.86848
  23347513.660   122692061.647 8  23347518.120    95604253.52046
  20177867.840   106035449.549 9  20177869.060    82625056.24849
  23233023.320   122090420.703 8  23233023.680    95135414.04045
  20986299.180   110283760.931 9  20986296.840    85935376.20448
  23204430.820   121940166.101 8  23204434.140    95018354.69846
  24635483.800   129460354.237 5  24635488.720   100878225.67544
  22619761.100   118867678.832 8  22619764.380    92624199.59847
  19761434.980   105636200.784 9  19761443.400    82161529.433 7
  20347679.280   108579146.290 9  20347686.560    84450488.309 8
  24679906.480   132113467.406 6
  23110282.760   123754429.813 6  23110292.520    96253434.334 7
  23977246.500   127812208.841 7  23977258.940    99409549.843 3
  20223618.260   108068945.134 9
  24166378.320   129047107.744 4  24166390.700   100370025.810 6
  23780232.120   127163584.221 5  23780240.380    98905044.476 5
  23826284.240   127499265.096 7  23826292.340    99166142.018 5
 16  3 23 21  2 44.0000000  0 19G03G05G07G08G09G16G23G27G28G30R01R02
                                R03R08R10R11R13R20R21
  24912497.900   130916049.344 6  24912505.680   102012541.18043
  25104032.200   131922565.017 5  25104035.500   102796810.58245
  21017276.600   110446611.900 9  21017276.340    86062300.79948
  23347064.140   122689699.380 8  23347068.580    95602412.79545
  20177827.740   106035238.854 9  20177828.960    82624892.07249
  23233658.040   122093756.079 8  23233658.400    95138013.03145
  20986604.960   110285367.818 9  20986602.600    85936628.31848
  23204240.040   121939163.427 8  23204243.320    95017573.39646
  24634808.800   129456807.219 5  24634813.640   100875461.77344
  22619338.540   118865458.254 8  22619341.820    92622469.27547
  19761842.880   105638381.172 9  19761851.280    82163225.284 8
  20347240.060   108576802.614 9  20347247.360    84448665.452 8
  24679107.300   132109189.177 6
  23111104.220   123758828.748 6  23111114.040    96256855.708 7
  23977887.000   127815623.192 7  23977899.460    99412205.449 3
  20224008.380   108071029.871 9
  24165789.020   129043961.115 4  24165801.460   100367578.426 6
  23780090.740   127162827.984 5  23780098.960    98904456.290 5
  23825732.060   127496310.197 7  23825740.160    99163843.768 5
 16  3 23 21  2 45.0000000  0 19G03G05G07G08G09G16G23G27G28G30R01R02
                                R03R08R10R11R13R20R21
  24913205.320   130919766.770 6  24913213.040   102015437.86743
  25103508.300   131919811.896 5  25103511.580   102794665.30745
  21017073.700   110445545.648 9  21017073.440    86061469.95649
  23346614.680   122687337.444 8  23346619.120    95600572.32546
  20177787.760   106035028.694 9  20177788.980    82624728.31149
  23234292.800   122097091.802 8  23234293.160    95140612.29545
  20986910.840   110286975.228 9  20986908.480    85937880.84348
  23204049.360   121938161.368 8  23204052.640    95016792.57046
  24634133.820   129453260.383 5  24634138.740   100872698.02545
  22618916.020   118863237.920 8  22618919.300    92620739.14447
  19762250.920   105640562.382 9  19762259.320    82164921.781 8
  20346801.000   108574459.687 9  20346808.280    84446843.177 8
  24678308.100   132104911.067 6
  23111925.720   123763227.875 6  23111935.600    96260277.237 7
  23978527.500   127819037.476 7  23978539.920    99414861.008 4
  20224398.580   108073114.944 9
  24165199.800   129040814.769 4  24165212.240   100365131.264 6
  23779949.480   127162072.529 5  23779957.700    98903868.710 6
  23825179.940   127493355.670 7  23825188.040    99161545.804 6
 16  3 23 21  2 46.0000000  0 19G03G05G07G08G09G16G23G27G28G30R01R02
                                R03R08R10R11R13R20R21
  24913912.720   130923484.121 6  24913920.400   102018334.52343
  25102984.460   131917059.111 6  25102987.740   102792520.28446
  21016870.840   110444479.611 9  21016870.580    86060639.27649
  23346165.260   122684975.820 8  23346169.740    95598732.10346
  20177747.840   106034819.003 9  20177749.080    82624564.91349
  23234927.620   122100427.790 8  23234928.000    95143211.76745
  20987216.820   110288583.080 9  20987214.460    85939133.71148
  23203858.780   121937159.853 8  23203862.040    95016012.17146
  24633458.860   129449713.675 5  24633463.800   100869934.39644
  22618493.540   118861017.765 8  22618496.820    92619009.15347
  19762659.100   105642744.367 9  19762667.500    82166618.878 8
  20346362.060   108572117.467 9  20346369.360    84445021.453 8
  24677508.860   132100633.071 6
  23112747.240   123767627.243 7  23112757.200    96263698.956 7
  23979167.980   127822451.658 7  23979180.400    99417516.490 4
  20224788.820   108075200.276 9
  24164610.620   129037668.650 4  24164623.060   100362684.276 6
  23779808.320   127161317.806 5  23779816.580    98903281.705 6
  23824627.900   127490401.474 7  23824635.980    99159248.095 6
 16  3 23 21  2 47.0000000  0 19G03G05G07G08G09G16G23G27G28G30R01R02
                                R03R08R10R11R13R20R21
  24914620.100   130927201.363 6  24914627.780   102021231.06443
  25102460.700   131914306.676 6  25102464.040   102790375.52345
  21016668.000   110443413.738 9  21016667.740    86059808.72948
  23345715.920   122682614.488 8  23345720.400    95596892.11046
  20177708.020   106034609.737 9  20177709.240    82624401.84649
  23235562.480   122103764.013 8  23235562.880    95145811.42745
  20987522.860   110290191.336 9  20987520.500    85940386.90148
  23203668.300   121936158.879 8  23203671.540    95015232.18946
  24632783.940   129446166.965 5  24632788.860   100867170.77744
  22618071.060   118858797.720 8  22618074.340    92617279.25247
  19763067.420   105644927.069 9  19763075.820    82168316.531 8
  20345923.260   108569775.927 9  20345930.540    84443200.255 8
  24676709.820   132096355.078 6
  23113568.800   123772026.714 7  23113578.820    96267120.751 7
  23979808.460   127825865.671 7  23979820.900    99420171.837 4
  20225179.100   108077285.822 9
  24164021.480   129034522.635 4  24164033.920   100360237.376 6
  23779667.340   127160563.757 5  23779675.580    98902695.229 5
  23824075.880   127487447.539 7  23824083.960    99156950.587 6
 16  3 23 21  2 48.0000000  0 19G03G05G07G08G09G16G23G27G28G30R01R02
                                R03R08R10R11R13R20R21
  24915327.460   130930918.538 6  24915335.100   102024127.57142
  25101937.000   131911554.603 6  25101940.320   102788231.06145
  21016465.220   110442348.137 9  21016464.960    86058978.38749
  23345266.620   122680253.467 8  23345271.100    95595052.35746
  20177668.300   106034400.967 9  20177669.500    82624239.17349
  23236197.400   122107100.524 8  23236197.820    95148411.31045
  20987828.980   110291800.073 9  20987826.640    85941640.46148
  23203477.920   121935158.449 8  23203481.160    95014452.63146
  24632109.040   129442620.423 5  24632113.880   100864407.2484
  22617648.640   118856577.896 8  22617651.920    92615549.52147
  19763475.900   105647110.549 9  19763484.280    82170014.791 8
  20345484.600   108567435.132 9  20345491.880    84441379.637 8
  24675910.680   132092077.171 6
  23114390.400   123776426.379 7  23114400.460    96270542.701 7
  23980448.920   127829279.603 7  23980461.340    99422827.115 4
  20225569.440   108079371.665 9
  24163432.260   129031376.789 4  24163444.820   100357790.604 6
  23779526.460   127159810.477 5  23779534.720    98902109.351 5
  23823523.900   127484493.884 7  23823532.000    99154653.306 6
 16  3 23 21  2 49.0000000  0 19G03G05G07G08G09G16G23G27G28G30R01R02
                                R03R08R10R11R13R20R21
  24916034.820   130934635.758 6  24916042.460   102027024.09443
  25101413.380   131908802.967 6  25101416.720   102786086.92944
  21016262.500   110441282.810 9  21016262.240    86058148.26449
  23344817.420   122677892.813 8  23344821.920    95593212.88746
  20177628.680   106034192.736 9  20177629.880    82624076.91349
  23236832.400   122110437.403 8  23236832.840    95151011.47345
  20988135.220   110293409.336 9  20988132.860    85942894.43048
  23203287.660   121934158.660 8  23203290.900    95013673.57946
  24631434.160   129439074.076 5  24631439.080   100861643.86445
  22617226.260   118854358.339 8  22617229.560    92613819.99947
  19763884.520   105649294.875 9  19763892.900    82171713.710 8
  20345046.060   108565095.079 9  20345053.360    84439559.593 8
  24675111.400   132087799.422 6
  23115212.080   123780826.296 7  23115222.180    96273964.848 7
  23981089.340   127832693.471 7  23981101.760    99425482.348 4
  20225959.860   108081457.847 9
  24162843.180   129028231.287 3  24162855.780   100355344.107 6
  23779385.780   127159057.952 5  23779394.000    98901524.056 6
  23822971.980   127481540.630 7  23822980.140    99152356.340 6
 16  3 23 21  2 50.0000000  0 19G03G05G07G08G09G16G23G27G28G30R01R02
                                R03R08R10R11R13R20R21
  24916742.160   130938352.926 6  24916749.740   102029920.58443
  25100889.840   131906051.698 6  25100893.200   102783943.07944
  21016059.820   110440217.759 9  21016059.560    86057318.35648
  23344368.260   122675532.521 8  23344372.760    95591373.70546
  20177589.160   106033985.023 9  20177590.360    82623915.05949
  23237467.460   122113774.608 8  23237467.860    95153611.88945
  20988441.540   110295019.095 9  20988439.180    85944148.78648
  23203097.520   121933159.465 8  23203100.760    95012894.98646
  24630759.320   129435527.875 5  24630764.300   100858880.60044
  22616803.940   118852139.009 8  22616807.240    92612090.65347
  19764293.280   105651480.009 9  19764301.700    82173413.260 8
  20344607.680   108562755.738 9  20344614.960    84437740.110 8
  24674312.300   132083521.791 6
  23116033.800   123785226.420 7  23116043.920    96277387.154 7
  23981729.760   127836107.291 7  23981742.160    99428137.546 4
  20226350.320   108083544.349 9
  24162254.300   129025086.017 3  24162266.780   100352897.790 6
  23779245.260   127158306.304 5  23779253.460    98900939.438 5
  23822420.200   127478587.749 7  23822428.320    99150059.660 6
 16  3 23 21  2 51.0000000  0 18G03G05G07G08G09G16G23G27G28G30R01R02
                                R03R08R10R11R20R21
  24917449.480   130942069.970 6  24917456.980   102032816.97443
  25100366.360   131903300.742 6  25100369.700   102781799.47745
  21015857.180   110439152.847 9  21015856.920    86056488.55749
  23343919.140   122673172.438 8  23343923.640    95589534.67946
  20177549.700   106033777.707 9  20177550.900    82623753.51449
  23238102.540   122117111.982 8  23238102.920    95156212.43145
  20988747.940   110296629.228 9  20988745.580    85945403.43648
  23202907.480   121932160.730 8  23202910.700    95012116.75046
  24630084.500   129431981.699 5  24630089.620   100856117.33744
  22616381.620   118849919.784 8  22616384.940    92610361.39047
  19764702.200   105653665.852 9  19764710.600    82175113.356 8
  20344169.400   108560417.040 9  20344176.680    84435921.122 8
  24673513.180   132079244.076 6
  23116855.500   123789626.580 7  23116865.640    96280809.493 7
  23982370.160   127839520.904 7  23982382.560    99430792.586 4
  20226740.800   108085631.049 9
  23779104.800   127157555.300 5  23779113.040    98900355.324 5
  23821868.420   127475635.100 7  23821876.560    99147763.156 6
 16  3 23 21  2 52.0000000  0 18G03G05G07G08G09G16G23G27G28G30R01R02
                                R03R08R10R11R20R21
  24918156.800   130945786.967 6  24918164.240   102035713.32743
  25099842.940   131900550.162 5  25099846.240   102779656.14643
  21015654.580   110438088.193 9  21015654.320    86055658.95449
  23343470.080   122670812.680 8  23343474.600    95587695.91446
  20177510.340   106033570.887 9  20177511.540    82623592.35549
  23238737.680   122120449.686 8  23238738.080    95158813.24045
  20989054.440   110298239.854 9  20989052.080    85946658.46848
  23202717.540   121931162.596 8  23202720.760    95011338.98646
  24629409.700   129428435.677 5  24629414.780   100853354.19544
  22615959.360   118847700.769 8  22615962.680    92608632.29247
  19765111.260   105655852.474 9  19765119.640    82176814.062 8
  20343731.260   108558079.081 9  20343738.560    84434102.710 8
  24672713.980   132074966.469 6
  23117677.260   123794026.990 7  23117687.440    96284232.025 7
  23983010.540   127842934.450 7  23983022.980    99433447.570 4
  20227131.360   108087718.044 9
  23778964.520   127156805.064 5  23778972.760    98899771.797 5
  23821316.720   127472682.783 8  23821324.840    99145466.909 6
 16  3 23 21  2 53.0000000  0 18G03G05G07G08G09G16G23G27G28G30R01R02
                                R03R08R10R11R20R21
  24918864.120   130949503.838 6  24918871.600   102038609.59043
  25099319.560   131897799.863 5  25099322.840   102777513.03745
  21015452.000   110437023.704 9  21015451.760    86054829.48448
  23343021.080   122668453.182 8  23343025.620    95585857.35146
  20177471.080   106033364.488 9  20177472.260    82623431.52349
  23239372.880   122123787.598 8  23239373.280    95161414.21245
  20989361.000   110299850.867 9  20989358.640    85947913.80248
  23202527.680   121930164.954 8  23202530.880    95010561.60046
  24628734.900   129424889.713 5  24628740.060   100850591.12744
  22615537.120   118845481.883 8  22615540.420    92606903.29047
  19765520.440   105658039.795 9  19765528.820    82178515.309 8
  20343293.260   108555741.786 9  20343300.540    84432284.814 8
  24671914.900   132070688.926 6
  23118499.080   123798427.574 8  23118509.260    96287654.693 7
  23983650.880   127846347.761 7  23983663.320    99436102.366 4
  20227521.940   108089805.251 9
  23778824.400   127156055.555 5  23778832.580    98899188.843 5
  23820765.060   127469730.696 8  23820773.180    99143170.839 6
 16  3 23 21  2 54.0000000  0 18G03G05G07G08G09G16G23G27G28G30R01R02
                                R03R08R10R11R20R21
  24919571.360   130953220.507 6  24919578.780   102041505.67542
  25098796.240   131895049.814 5  25098799.520   102775370.15044
  21015249.460   110435959.330 9  21015249.200    86054000.10249
  23342572.120   122666093.892 8  23342576.680    95584018.94345
  20177431.860   106033158.440 9  20177433.040    82623270.96849
  23240008.100   122127125.693 8  23240008.520    95164015.32645
  20989667.640   110301462.218 9  20989665.280    85949169.40148
  23202337.920   121929167.772 8  23202341.120    95009784.57346
  24628060.080   129421343.746 5  24628065.260   100847828.04643
  22615114.880   118843263.062 8  22615118.200    92605174.34346
  19765929.740   105660227.770 9  19765938.140    82180217.068 8
  20342855.360   108553405.062 9  20342862.640    84430467.360 8
  24671115.820   132066411.329 6
  23119320.900   123802828.177 8  23119331.100    96291077.376 7
  23984291.180   127849760.899 7  23984303.600    99438757.031 4
  20227912.560   108091892.609 9
  23778684.340   127155306.618 5  23778692.520    98898606.330 5
  23820213.440   127466778.783 8  23820221.540    99140874.911 5
 16  3 23 21  2 55.0000000  0 18G03G05G07G08G09G16G23G27G28G30R01R02
                                R03R08R10R11R20R21
  24920278.580   130956937.081 6  24920286.000   102044401.71944
  25098272.960   131892300.114 6  25098276.240   102773227.53045
  21015046.940   110434895.128 9  21015046.700    86053170.85449
  23342123.200   122663734.851 8  23342127.760    95582180.73346
  20177392.740   106032952.837 9  20177393.920    82623110.76049
  23240643.360   122130464.010 8  23240643.780    95166616.60945
  20989974.340   110303073.974 9  20989971.980    85950425.31348
  23202148.260   121928171.067 8  23202151.440    95009007.91846
  24627385.300   129417797.824 5  24627390.560   100845065.00044
  22614692.680   118841044.400 8  22614696.000    92603445.51547
  19766339.180   105662416.467 9  19766347.560    82181919.386 8
  20342417.580   108551068.987 9  20342424.860    84428650.417 8
  24670316.700   132062133.767 7
  23120142.760   123807228.916 8  23120152.940    96294500.167 6
  23984931.420   127853173.834 7  23984943.840    99441411.538 4
  20228303.220   108093980.186 9
  23778544.440   127154558.456 5  23778552.600    98898024.427 5
  23819661.840   127463827.164 8  23819669.960    99138579.206 5
 16  3 23 21  2 56.0000000  0 18G03G05G07G08G09G16G23G27G28G30R01R02
                                R03R08R10R11R20R21
  24920985.800   130960653.570 6  24920993.200   102047297.67942
  25097749.780   131889550.779 5  25097753.040   102771085.20245
  21014844.480   110433831.183 9  21014844.220    86052341.80549
  23341674.340   122661376.129 8  23341678.900    95580342.76446
  20177353.700   106032747.730 9  20177354.880    82622950.93549
  23241278.700   122133802.639 8  23241279.100    95169218.13445
  20990281.140   110304686.222 9  20990278.800    85951681.60748
  23201958.720   121927174.970 8  23201961.900    95008231.74546
  24626710.540   129414252.071 5  24626715.800   100842302.08942
  22614270.500   118838825.918 8  22614273.840    92601716.82847
  19766748.760   105664605.963 9  19766757.160    82183622.325 8
  20341979.940   108548733.611 9  20341987.200    84426834.013 8
  24669517.600   132057856.339 7
  23120964.640   123811629.816 8  23120974.840    96297923.077 7
  23985571.640   127856586.684 7  23985584.080    99444065.981 4
  20228693.940   108096068.064 9
  23778404.640   127153811.032 5  23778412.820    98897443.093 5
  23819110.320   127460875.875 7  23819118.440    99136283.760 5
 16  3 23 21  2 57.0000000  0 18G03G05G07G08G09G16G23G27G28G30R01R02
                                R03R08R10R11R20R21
  24921693.100   130964370.368 6  24921700.620   102050193.87842
  25097226.740   131886802.141 6  25097230.020   102768943.40645
  21014642.120   110432767.763 9  21014641.860    86051513.16749
  23341225.600   122659018.050 8  23341230.160    95578505.30446
  20177314.820   106032543.393 9  20177316.000    82622791.71149
  23241914.120   122137141.844 8  23241914.560    95171820.10645
  20990588.080   110306299.223 9  20990585.740    85952938.49048
  23201769.340   121926179.732 8  23201772.520    95007456.23346
  24626035.840   129410706.724 5  24626041.160   100839539.47244
  22613848.440   118836607.949 8  22613851.760    92599988.54247
  19767158.560   105666796.552 9  19767166.940    82185326.118 8
  20341542.480   108546399.262 9  20341549.740    84425018.406 8
  24668718.520   132053579.288 6
  23121786.580   123816031.219 8  23121796.820    96301346.382 7
  23986211.920   127859999.713 7  23986224.380    99446720.563 4
  20229084.760   108098156.520 9
  23778265.100   127153064.638 5  23778273.240    98896862.564 5
  23818558.920   127457925.222 8  23818567.040    99133988.810 5
 16  3 23 21  2 58.0000000  0 18G03G05G07G08G09G16G23G27G28G30R01R02
                                R03R08R10R11R20R21
  24922400.380   130968087.110 6  24922407.980   102053090.03744
  25096703.760   131884053.894 6  25096707.080   102766801.91945
  21014439.800   110431704.604 9  21014439.560    86050684.73149
  23340776.920   122656660.304 8  23340781.500    95576668.10846
  20177276.040   106032339.577 9  20177277.220    82622632.89549
  23242549.620   122140481.374 8  23242550.020    95174422.33345
  20990895.120   110307912.724 9  20990892.760    85954195.76148
  23201580.060   121925185.083 8  23201583.260    95006681.18346
  24625361.180   129407161.520 5  24625366.540   100836776.99545
  22613426.400   118834390.198 8  22613429.760    92598260.42947
  19767568.500   105668987.964 9  19767576.900    82187030.546 8
  20341105.160   108544065.660 9  20341112.420    84423203.385 8
  24667919.540   132049302.350 6
  23122608.600   123820432.836 8  23122618.840    96304769.856 6
  23986852.180   127863412.664 7  23986864.660    99449375.081 4
  20229475.640   108100245.280 9
  23778125.680   127152319.040 5  23778133.800    98896282.653 5
  23818007.580   127454974.922 8  23818015.700    99131694.139 5
 16  3 23 21  2 59.0000000  0 18G03G05G07G08G09G16G23G27G28G30R01R02
                                R03R08R10R11R20R21
  24923107.680   130971803.981 6  24923115.400   102055986.26944
  25096180.900   131881306.233 6  25096184.180   102764660.88246
  21014237.580   110430641.881 9  21014237.320    86049856.63749
  23340328.340   122654303.079 8  23340332.960    95574831.31146
  20177237.400   106032136.459 9  20177238.560    82622474.62049
  23243185.220   122143821.398 8  23243185.620    95177024.94345
  20991202.280   110309526.908 9  20991199.940    85955453.56548
  23201390.920   121924191.193 8  23201394.140    95005906.72346
  24624686.580   129403616.617 5  24624692.000   100834014.75244
  22613004.440   118832172.844 8  22613007.800    92596532.62247
  19767978.640   105671180.355 9  19767987.020    82188735.735 8
  20340668.020   108541732.978 9  20340675.280    84421389.083 8
  24667120.580   132045025.703 6
  23123430.680   123824834.898 8  23123440.940    96308193.673 6
  23987492.460   127866825.728 7  23987504.960    99452029.688 4
  20229866.620   108102334.526 9
  23777986.480   127151574.427 6  23777994.540    98895703.511 5
  23817456.320   127452025.139 8  23817464.440    99129399.865 5
 16  3 23 21  3  0.0000000  0 18G03G05G07G08G09G16G23G27G28G30R01R02
                                R03R08R10R11R20R21
  24923814.960   130975520.775 6  24923822.780   102058882.47742
  25095658.080   131878558.887 6  25095661.400   102762520.10345
  21014035.380   110429579.360 9  21014035.120    86049028.70149
  23339879.820   122651946.112 8  23339884.480    95572994.71346
  20177198.820   106031933.757 9  20177199.980    82622316.67049
  23243820.840   122147161.654 8  23243821.260    95179627.74445
  20991509.540   110311141.502 9  20991507.180    85956711.68848
  23201201.900   121923197.852 8  23201205.100    95005132.68746
  24624012.020   129400071.817 6  24624017.500   100831252.58844
  22612582.520   118829955.652 8  22612585.860    92594804.93647
  19768388.900   105673373.464 9  19768397.280    82190441.486 8
  20340231.000   108539400.964 9  20340238.260    84419575.296 8
  24666321.580   132040749.108 6
  23124252.780   123829237.048 8  23124263.040    96311617.557 6
  23988132.700   127870238.639 6  23988145.200    99454684.179 4
  20230257.640   108104423.997 9
  23777847.400   127150830.514 5  23777855.420    98895124.912 5
  23816905.120   127449075.626 8  23816913.240    99127105.795 5
 16  3 23 21  3  1.0000000  0 18G03G05G07G08G09G16G23G27G28G30R01R02
                                R03R08R10R11R20R21
  24924522.180   130979237.236 6  24924530.040   102061778.43343
  25095135.280   131875811.673 5  25095138.660   102760379.42146
  21013833.180   110428516.826 9  21013832.940    86048200.75449
  23339431.320   122649589.236 8  23339435.980    95571158.19346
  20177160.300   106031731.314 9  20177161.440    82622158.92049
  23244456.500   122150501.962 8  23244456.880    95182230.58344
  20991816.820   110312756.330 9  20991814.480    85957969.99348
  23201012.920   121922204.821 8  23201016.140    95004358.90546
  24623337.460   129396526.907 6  24623343.000   100828490.33544
  22612160.600   118827738.400 8  22612163.920    92593077.21047
  19768799.280   105675567.116 9  19768807.640    82192147.658 8
  20339794.060   108537069.430 9  20339801.320    84417761.883 8
  24665522.640   132036472.352 5
  23125074.880   123833639.177 8  23125085.140    96315041.427 6
  23988772.880   127873651.220 6  23988785.420    99457338.410 4
  20230648.680   108106513.516 9
  23777708.400   127150087.125 5  23777716.400    98894546.723 5
  23816353.960   127446126.215 8  23816362.060    99124811.807 5
 16  3 23 21  3  2.0000000  0 18G03G05G07G08G09G16G23G27G28G30R01R02
                                R03R08R10R11R20R21
  24925229.400   130982953.542 6  24925237.360   102064674.24745
  25094612.540   131873064.716 6  25094615.880   102758238.92944
  21013631.020   110427454.394 9  21013630.760    86047372.88849
  23338982.840   122647232.555 8  23338987.520    95569321.82646
  20177121.840   106031529.216 9  20177123.000    82622001.43949
  23245092.180   122153842.438 8  23245092.560    95184833.54445
  20992124.180   110314371.481 9  20992121.840    85959228.55448
  23200824.040   121921212.223 8  23200827.240    95003585.45146
  24622662.860   129392981.984 6  24622668.480   100825728.06744
  22611738.680   118825521.225 8  22611742.020    92591349.54447
  19769209.760   105677761.394 9  19769218.140    82193854.317 8
  20339357.240   108534738.448 9  20339364.500    84415948.895 8
  24664723.680   132032195.561 6
  23125896.980   123838041.309 8  23125907.240    96318465.301 6
  23989413.020   127877063.551 6  23989425.560    99459992.443 4
  20231039.720   108108603.180 9
  23777569.580   127149344.329 6  23777577.480    98893968.993 5
  23815802.820   127443176.967 8  23815810.920    99122517.943 5
 16  3 23 21  3  3.0000000  0 18G03G05G07G08G09G16G23G27G28G30R01R02
                                R03R08R10R11R20R21
  24925936.560   130986669.759 6  24925944.540   102067569.9964
  25094089.840   131870318.088 6  25094093.220   102756098.69544
  21013428.880   110426392.184 9  21013428.620    86046545.18749
  23338534.420   122644876.150 8  23338539.140    95567485.67246
  20177083.460   106031327.591 9  20177084.620    82621844.33149
  23245727.900   122157183.164 8  23245728.280    95187436.69745
  20992431.620   110315987.089 9  20992429.260    85960487.46748
  23200635.260   121920220.186 8  23200638.480    95002812.43446
  24621988.300   129389437.184 6  24621993.940   100822965.91444
  22611316.780   118823304.220 8  22611320.140    92589622.00447
  19769620.400   105679956.436 9  19769628.760    82195561.573 8
  20338920.540   108532408.192 9  20338927.800    84414136.475 8
  24663924.820   132027918.860 6
  23126719.120   123842443.590 8  23126729.340    96321889.291 6
  23990053.100   127880475.796 6  23990065.720    99462646.407 4
  20231430.820   108110693.113 9
  23777430.820   127148602.317 6  23777438.720    98893391.874 5
  23815251.760   127440228.056 7  23815259.840    99120224.346 5
 16  3 23 21  3  4.0000000  0 18G03G05G07G08G09G16G23G27G28G30R01R02
                                R03R08R10R11R20R21
  24926643.740   130990386.046 6  24926651.760   102070465.80944
  25093567.280   131867571.982 6  25093570.700   102753958.85645
  21013226.820   110425330.333 9  21013226.560    86045717.77049
  23338086.080   122642520.181 8  23338090.780    95565649.85446
  20177045.220   106031126.586 9  20177046.380    82621687.70149
  23246363.700   122160524.310 8  23246364.060    95190040.18745
  20992739.180   110317603.278 9  20992736.820    85961746.83148
  23200446.620   121919228.834 8  23200449.840    95002039.95446
  24621313.800   129385892.620 6  24621319.400   100820203.92344
  22610894.960   118821087.543 8  22610898.300    92587894.72847
  19770031.200   105682152.376 9  19770039.560    82197269.523 8
  20338484.020   108530078.784 9  20338491.260    84412324.712 8
  24663125.960   132023642.367 6
  23127541.300   123846846.190 8  23127551.500    96325313.536 6
  23990693.220   127883888.022 6  23990705.880    99465300.347 4
  20231821.980   108112783.455 9
  23777292.240   127147861.120 5  23777300.100    98892815.384 5
  23814700.760   127437279.554 8  23814708.840    99117931.069 5
 16  3 23 21  3  5.0000000  0 18G03G05G07G08G09G16G23G27G28G30R01R02
                                R03R08R10R11R20R21
  24927350.940   130994102.384 6  24927358.980   102073361.65243
  25093044.820   131864826.321 6  25093048.180   102751819.37045
  21013024.820   110424268.813 9  21013024.560    86044890.61249
  23337637.840   122640164.653 8  23337642.560    95563814.38246
  20177007.080   106030926.146 9  20177008.240    82621531.51649
  23246999.600   122163865.838 8  23246999.920    95192643.97545
  20993046.840   110319220.029 9  20993044.480    85963006.63548
  23200258.080   121918238.149 8  23200261.320    95001267.99046
  24620639.340   129382348.280 6  24620644.880   100817442.11044
  22610473.180   118818871.161 8  22610476.560    92586167.68347
  19770442.140   105684349.190 9  19770450.500    82198978.152 8
  20338047.640   108527750.185 9  20338054.880    84410513.581 8
  24662327.040   132019366.047 7
  23128363.540   123851249.114 8  23128373.720    96328738.030 6
  23991333.340   127887300.267 6  23991346.020    99467954.305 4
  20232213.240   108114874.179 9
  23777153.780   127147120.854 5  23777161.660    98892239.619 5
  23814149.820   127434331.470 8  23814157.920    99115638.118 5
 16  3 23 21  3  6.0000000  0 18G03G05G07G08G09G16G23G27G28G30R01R02
                                R03R08R10R11R20R21
  24928058.120   130997818.461 6  24928066.180   102076257.28044
  25092522.380   131862080.875 6  25092525.760   102749680.05345
  21012822.820   110423207.341 9  21012822.580    86044063.49149
  23337189.620   122637809.249 8  23337194.340    95561979.00746
  20176969.000   106030726.016 9  20176970.140    82621375.57049
  23247635.480   122167207.491 8  23247635.820    95195247.87145
  20993354.560   110320837.056 9  20993352.200    85964266.66048
  23200069.640   121917247.851 8  23200072.880    95000496.32746
  24619964.860   129378803.869 6  24619970.400   100814680.22544
  22610051.440   118816654.782 8  22610054.780    92584440.63447
  19770853.220   105686546.592 9  19770861.580    82200687.244 7
  20337611.360   108525422.092 9  20337618.600    84408702.845 8
  24661528.120   132015089.590 7
  23129185.800   123855652.033 8  23129195.940    96332162.520 5
  23991973.440   127890712.230 6  23991986.120    99470608.051 4
  20232604.500   108116964.994 9
  23777015.480   127146381.136 5  23777023.320    98891664.277 5
  23813598.940   127431383.554 8  23813607.040    99113345.291 5
 16  3 23 21  3  7.0000000  0 18G03G05G07G08G09G16G23G27G28G30R01R02
                                R03R08R10R11R20R21
  24928765.240   131001534.354 5  24928773.400   102079152.76944
  25092000.000   131859335.681 6  25092003.260   102747540.93944
  21012620.840   110422145.994 9  21012620.600    86043236.47049
  23336741.420   122635454.045 8  23336746.180    95560143.78246
  20176930.980   106030526.259 9  20176932.120    82621219.91449
  23248271.420   122170549.292 8  23248271.760    95197851.86945
  20993662.340   110322454.448 9  20993659.960    85965526.96248
  23199881.260   121916257.997 8  23199884.500    94999725.01046
  24619290.420   129375259.508 6  24619295.900   100811918.39345
  22609629.680   118814438.489 8  22609633.040    92582713.65047
  19771264.420   105688744.678 9  19771272.780    82202396.865 8
  20337175.180   108523094.600 9  20337182.420    84406892.573 8
  24660729.260   132010813.123 7
  23130008.060   123860055.010 8  23130018.140    96335587.054 5
  23992613.500   127894123.961 7  23992626.180    99473261.614 4
  20232995.820   108119055.982 9
  23776877.280   127145642.084 5  23776885.120    98891089.458 5
  23813048.100   127428435.840 7  23813056.180    99111052.626 5
 16  3 23 21  3  8.0000000  0 18G03G05G07G08G09G16G23G27G28G30R01R02
                                R03R08R10R11R20R21
  24929472.340   131005250.174 5  24929480.560   102082048.19344
  25091477.660   131856590.795 6  25091480.860   102745402.05845
  21012418.920   110421084.826 9  21012418.680    86042409.58449
  23336293.280   122633099.095 8  23336298.060    95558308.76146
  20176893.040   106030326.919 9  20176894.200    82621064.58849
  23248907.420   122173891.342 8  23248907.720    95200456.06245
  20993970.180   110324072.239 9  20993967.820    85966787.57948
  23199692.980   121915268.665 8  23199696.240    94998954.10547
  24618615.980   129371715.186 7  24618621.480   100809156.58644
  22609207.960   118812222.335 8  22609211.320    92580986.77847
  19771675.760   105690943.476 9  19771684.100    82204107.038 8
  20336739.140   108520767.743 9  20336746.360    84405082.793 8
  24659930.380   132006536.664 7
  23130830.340   123864458.068 8  23130840.380    96339011.659 5
  23993253.500   127897535.505 7  23993266.180    99475915.035 4
  20233387.160   108121147.163 9
  23776739.220   127144903.695 5  23776747.020    98890515.154 5
  23812497.280   127425488.368 7  23812505.380    99108760.146 5
 16  3 23 21  3  9.0000000  0 18G03G05G07G08G09G16G23G27G28G30R01R02
                                R03R08R10R11R20R21
  24930179.420   131008965.847 5  24930187.740   102084943.5204
  25090955.360   131853846.208 6  25090958.520   102743263.43545
  21012217.020   110420023.824 9  21012216.780    86041582.82949
  23335845.180   122630744.374 8  23335849.980    95556473.92446
  20176855.200   106030128.008 9  20176856.340    82620909.59149
  23249543.420   122177233.631 8  23249543.740    95203060.43945
  20994278.120   110325690.433 9  20994275.760    85968048.50948
  23199504.820   121914279.836 8  23199508.080    94998183.59447
  24617941.540   129368170.922 7  24617947.060   100806394.81844
  22608786.260   118810006.321 8  22608789.620    92579260.01747
  19772087.220   105693143.003 9  19772095.580    82205817.780 8
  20336303.200   108518441.548 9  20336310.420    84403273.532 8
  24659131.500   132002260.282 7
  23131652.620   123868861.257 8  23131662.640    96342436.359 5
  23993893.480   127900946.897 6  23993906.180    99478568.338 5
  20233778.540   108123238.571 9
  23776601.280   127144166.025 6  23776609.060    98889941.412 5
  23811946.540   127422541.156 7  23811954.620    99106467.866 5
 16  3 23 21  3 10.0000000  0 18G03G05G07G08G09G16G23G27G28G30R01R02
                                R03R08R10R11R20R21
  24930886.460   131012681.380 5  24930894.780   102087838.71644
  25090433.140   131851101.942 6  25090436.360   102741125.03845
  21012015.140   110418963.014 9  21012014.900    86040756.22749
  23335397.140   122628389.932 8  23335401.940    95554639.29746
  20176817.420   106029929.515 9  20176818.580    82620754.92149
  23250179.480   122180576.123 8  23250179.800    95205664.97845
  20994586.140   110327309.031 9  20994583.780    85969309.74848
  23199316.740   121913291.500 8  23199320.000    94997413.46147
  24617267.120   129364626.719 7  24617272.660   100803633.09744
  22608364.600   118807790.438 8  22608367.960    92577533.35947
  19772498.820   105695343.235 9  19772507.160    82207529.069 8
  20335867.400   108516116.020 9  20335874.620    84401464.786 8
  24658332.620   131997983.895 7
  23132474.960   123873264.615 8  23132484.940    96345861.189 5
  23994533.400   127904358.111 6  23994546.140    99481221.502 5
  20234169.940   108125330.196 9
  23776463.460   127143429.010 5  23776471.220    98889368.179 5
  23811395.860   127419594.230 7  23811403.940    99104175.806 5
 16  3 23 21  3 11.0000000  0 18G03G05G07G08G09G16G23G27G28G30R01R02
                                R03R08R10R11R20R21
  24931593.520   131016397.040 5  24931601.840   102090734.03144
  25089911.000   131848358.190 5  25089914.220   102738987.05044
  21011813.340   110417902.582 9  21011813.120    86039929.91749
  23334949.200   122626035.970 8  23334954.000    95552805.05046
  20176779.780   106029731.663 9  20176780.920    82620600.74849
  23250815.620   122183919.056 8  23250815.920    95208269.85145
  20994894.260   110328928.247 9  20994891.900    85970571.47248
  23199128.800   121912303.885 8  23199132.060    94996643.88646
  24616592.760   129361082.807 7  24616598.280   100800871.61344
  22607942.980   118805574.902 8  22607946.360    92575806.97047
  19772910.600   105697544.398 9  19772918.940    82209241.085 7
  20335431.760   108513791.366 9  20335438.980    84399656.724 8
  24657533.800   131993707.752 7
  23133297.360   123877668.310 8  23133307.260    96349286.285 5
  23995173.360   127907769.388 7  23995186.100    99483874.712 4
  20234561.460   108127422.256 9
  23776325.840   127142692.923 6  23776333.580    98888795.666 5
  23810845.220   127416647.752 7  23810853.320    99101884.092 5
 16  3 23 21  3 12.0000000  0 18G03G05G07G08G09G16G23G27G28G30R01R02
                                R03R08R10R11R20R21
  24932300.600   131020112.686 5  24932309.080   102093629.32444
  25089388.940   131845614.883 6  25089392.160   102736849.41644
  21011611.600   110416842.449 9  21011611.380    86039103.84249
  23334501.320   122623682.413 8  23334506.140    95550971.11146
  20176742.220   106029534.360 9  20176743.380    82620447.00449
  23251451.840   122187262.343 8  23251452.160    95210875.01645
  20995202.480   110330547.978 9  20995200.120    85971833.60048
  23198940.980   121911316.892 8  23198944.240    94995874.80346
  24615918.420   129357539.042 7  24615923.920   100798110.24844
  22607521.440   118803359.608 8  22607524.820    92574080.76647
  19773322.520   105699746.381 9  19773330.860    82210953.741 7
  20334996.280   108511467.498 9  20335003.480    84397849.271 8
  24656734.980   131989431.742 7
  23134119.800   123882072.257 8  23134129.660    96352711.573 5
  23995813.260   127911180.615 7  23995826.060    99486527.880 4
  20234953.020   108129514.636 9
  23776188.340   127141957.654 5  23776196.080    98888223.790 5
  23810294.660   127413701.634 7  23810302.780    99099592.669 5
 16  3 23 21  3 13.0000000  0 18G03G05G07G08G09G16G23G27G28G30R01R02
                                R03R08R10R11R20R21
  24933007.600   131023828.036 5  24933016.120   102096524.37744
  25088866.940   131842871.718 6  25088870.200   102734711.89144
  21011409.880   110415782.317 9  21011409.640    86038277.76449
  23334053.460   122621328.917 8  23334058.300    95549137.21646
  20176704.740   106029337.309 9  20176705.860    82620293.45849
  23252088.060   122190605.692 8  23252088.380    95213480.21445
  20995510.760   110332167.937 9  20995508.400    85973095.90448
  23198753.220   121910330.259 8  23198756.500    94995106.00646
  24615244.040   129353995.193 7  24615249.520   100795348.79144
  22607099.860   118801144.297 8  22607103.260    92572354.55347
  19773734.560   105701948.912 9  19773742.880    82212666.816 8
  20334560.860   108509144.101 9  20334568.080    84396042.187 8
  24655936.140   131985155.596 7
  23134942.240   123886476.115 8  23134952.020    96356136.786 5
  23996453.120   127914591.493 7  23996465.940    99489180.774 4
  20235344.580   108131607.070 9
  23776050.920   127141222.901 5  23776058.700    98887652.318 5
  23809744.120   127410755.637 7  23809752.240    99097301.336 6
 16  3 23 21  3 14.0000000  0 18G03G05G07G08G09G16G23G27G28G30R01R02
                                R03R08R10R11R20R21
  24933714.600   131027543.354 5  24933723.280   102099419.40945
  25088344.980   131840128.942 6  25088348.280   102732574.68145
  21011208.180   110414722.424 9  21011207.940    86037451.87349
  23333605.660   122618975.751 8  23333610.520    95547303.58246
  20176667.320   106029140.740 9  20176668.480    82620140.28849
  23252724.340   122193949.337 8  23252724.680    95216085.65045
  20995819.120   110333788.385 9  20995816.760    85974358.59348
  23198565.560   121909344.199 8  23198568.840    94994337.64747
  24614569.700   129350451.489 7  24614575.160   100792587.45744
  22606678.340   118798929.182 8  22606681.720    92570628.48847
  19774146.740   105704152.229 9  19774155.060    82214380.505 8
  20334125.580   108506821.393 9  20334132.800    84394235.638 8
  24655137.320   131980879.536 7
  23135764.680   123890880.145 8  23135774.420    96359562.140 5
  23997092.980   127918002.267 7  23997105.800    99491833.584 5
  20235736.200   108133699.788 9
  23775913.680   127140488.969 5  23775921.480    98887081.482 6
  23809193.640   127407809.977 7  23809201.780    99095010.269 6
 16  3 23 21  3 15.0000000  0 18G03G05G07G08G09G16G23G27G28G30R01R02
                                R03R08R10R11R20R21
  24934421.580   131031258.624 5  24934430.300   102102314.40944
  25087823.140   131837386.567 6  25087826.480   102730437.76644
  21011006.540   110413662.801 9  21011006.300    86036626.19349
  23333157.920   122616622.927 8  23333162.800    95545470.22346
  20176630.020   106028944.701 9  20176631.160    82619987.53349
  23253360.680   122197293.300 8  23253361.020    95218691.33545
  20996127.560   110335409.316 9  20996125.220    85975621.65648
  23198378.040   121908358.714 8  23198381.320    94993569.73347
  24613895.400   129346907.927 7  24613900.860   100789826.24843
  22606256.860   118796714.281 8  22606260.240    92568902.59247
  19774559.060   105706356.353 9  19774567.380    82216094.822 8
  20333690.440   108504499.429 9  20333697.660    84392429.664 8
  24654338.540   131976603.660 7
  23136587.180   123895284.437 8  23136596.800    96362987.703 5
  23997732.840   127921412.964 7  23997745.660    99494486.342 5
  20236127.880   108135792.828 9
  23775776.600   127139755.796 5  23775784.380    98886511.237 6
  23808643.240   127404864.664 7  23808651.380    99092719.473 6
 16  3 23 21  3 16.0000000  0 18G03G05G07G08G09G16G23G27G28G30R01R02
                                R03R08R10R11R20R21
  24935128.580   131034973.937 5  24935137.280   102105209.42544
  25087301.400   131834644.621 6  25087304.720   102728301.17645
  21010804.960   110412603.509 9  21010804.720    86035800.77149
  23332710.280   122614270.542 8  23332715.140    95543637.19646
  20176592.820   106028749.229 9  20176593.960    82619835.21949
  23253997.080   122200637.644 8  23253997.440    95221297.31845
  20996436.120   110337030.810 9  20996433.780    85976885.15648
  23198190.620   121907373.915 8  23198193.900    94992802.35946
  24613221.120   129343364.577 7  24613226.580   100787065.20443
  22605835.420   118794499.676 8  22605838.820    92567176.92747
  19774971.560   105708561.354 9  19774979.880    82217809.822 8
  20333255.460   108502178.295 9  20333262.680    84390624.340 8
  24653539.760   131972327.953 7
  23137409.740   123899688.986 8  23137419.260    96366413.465 5
  23998372.680   127924823.639 7  23998385.480    99497139.087 5
  20236519.640   108137886.246 9
  23775639.680   127139023.500 5  23775647.460    98885941.671 6
  23808092.900   127401919.802 7  23808101.060    99090429.026 6
 16  3 23 21  3 17.0000000  0 18G03G05G07G08G09G16G23G27G28G30R01R02
                                R03R08R10R11R20R21
  24935835.620   131038689.334 6  24935844.260   102108104.53644
  25086779.740   131831903.190 6  25086783.080   102726164.99244
  21010603.440   110411544.580 9  21010603.220    86034975.63049
  23332262.700   122611918.591 8  23332267.580    95541804.51546
  20176555.740   106028554.388 9  20176556.900    82619683.39149
  23254633.580   122203982.397 8  23254633.940    95223903.61145
  20996744.800   110338652.895 9  20996742.460    85978149.11648
  23198003.340   121906389.807 8  23198006.620    94992035.52246
  24612546.900   129339821.496 7  24612552.360   100784304.36844
  22605414.060   118792285.401 8  22605417.440    92565451.52447
  19775384.220   105710767.253 9  19775392.520    82219525.517 8
  20332820.640   108499858.036 9  20332827.860    84388819.696 8
  24652741.060   131968052.434 7
  23138232.340   123904093.830 8  23138241.780    96369839.459 5
  23999012.560   127928234.338 7  23999025.340    99499791.857 4
  20236911.460   108139980.090 9
  23775502.860   127138292.020 5  23775510.680    98885372.742 5
  23807542.640   127398975.337 7  23807550.820    99088138.889 6
 16  3 23 21  3 18.0000000  0 18G03G05G07G08G09G16G23G27G28G30R01R02
                                R03R08R10R11R20R21
  24936542.620   131042404.641 6  24936551.380   102110999.57044
  25086258.140   131829162.134 6  25086261.440   102724029.08845
  21010401.980   110410485.882 9  21010401.760    86034150.67049
  23331815.180   122609566.965 8  23331820.100    95539972.08146
  20176518.740   106028360.017 9  20176519.900    82619531.92949
  23255270.120   122207327.440 8  23255270.520    95226510.14045
  20997053.560   110340275.440 9  20997051.220    85979413.43748
  23197816.180   121905406.259 8  23197819.480    94991269.12146
  24611872.700   129336278.522 7  24611878.140   100781543.63444
  22604992.720   118790071.312 8  22604996.120    92563726.25947
  19775797.020   105712973.919 9  19775805.340    82221241.813 7
  20332385.960   108497538.490 9  20332393.180    84387015.605 8
  24651942.360   131963776.992 7
  23139054.980   123908498.872 8  23139064.320    96373265.605 4
  23999652.380   127931644.939 7  23999665.160    99502444.551 4
  20237303.340   108142074.213 9
  23775366.160   127137561.337 5  23775374.060    98884804.433 5
  23806992.420   127396031.181 7  23807000.660    99085848.996 6
 16  3 23 21  3 19.0000000  0 18G03G05G07G08G09G16G23G27G28G30R01R02
                                R03R08R10R11R20R21
  24937249.600   131046119.830 6  24937258.380   102113894.50645
  25085736.620   131826421.365 6  25085739.880   102721893.43045
  21010200.540   110409427.326 9  21010200.300    86033325.82649
  23331367.720   122607215.605 8  23331372.640    95538139.86046
  20176481.840   106028166.054 9  20176482.980    82619380.79149
  23255906.700   122210672.678 8  23255907.100    95229116.81045
  20997362.400   110341898.373 9  20997360.040    85980678.05848
  23197629.100   121904423.197 8  23197632.400    94990503.10146
  24611198.520   129332735.595 7  24611203.940   100778782.91843
  22604571.420   118787857.347 8  22604574.800    92562001.09747
  19776209.960   105715181.285 9  19776218.260    82222958.649 7
  20331951.380   108495219.557 9  20331958.600    84385211.990 8
  24651143.700   131959501.552 7
  23139877.640   123912904.021 8  23139886.880    96376691.838 4
  24000292.180   127935055.361 7  24000304.960    99505097.097 4
  20237695.280   108144168.539 9
  23775229.640   127136831.319 5  23775237.560    98884236.635 5
  23806442.260   127393087.303 7  23806450.540    99083559.322 5
 16  3 23 21  3 20.0000000  0 18G03G05G07G08G09G16G23G27G28G30R01R02
                                R03R08R10R11R20R21
  24937956.620   131049835.072 6  24937965.420   102116789.49244
  25085215.160   131823681.111 6  25085218.460   102719758.15345
  21009999.180   110408369.149 9  21009998.960    86032501.27249
  23330920.320   122604864.652 8  23330925.300    95536307.95346
  20176445.040   106027972.703 9  20176446.200    82619230.12849
  23256543.360   122214018.330 8  23256543.760    95231723.81445
  20997671.340   110343521.885 9  20997668.980    85981943.13048
  23197442.160   121903440.831 8  23197445.440    94989737.61746
  24610524.380   129329192.916 7  24610529.820   100776022.38644
  22604150.160   118785643.685 8  22604153.540    92560276.16747
  19776623.060   105717389.552 9  19776631.360    82224676.190 7
  20331516.960   108492901.446 9  20331524.180    84383409.017 8
  24650345.100   131955226.340 7
  23140700.360   123917309.480 8  23140709.500    96380118.311 4
  24000931.980   127938465.772 7  24000944.740    99507749.637 4
  20238087.280   108146263.276 9
  23775093.320   127136102.181 5  23775101.220    98883669.521 5
  23805892.220   127390143.909 7  23805900.520    99081270.019 6
 16  3 23 21  3 21.0000000  0 18G03G05G07G08G09G16G23G27G28G30R01R02
                                R03R08R10R11R20R21
  24938663.600   131053550.211 6  24938672.360   102119684.40344
  25084693.780   131820941.167 6  25084697.100   102717623.13044
  21009797.860   110407311.181 9  21009797.620    86031676.87949
  23330473.000   122602513.990 8  23330477.980    95534476.26746
  20176408.320   106027779.791 9  20176409.480    82619079.80949
  23257180.060   122217364.217 8  23257180.460    95234330.99445
  20997980.360   110345145.822 9  20997978.020    85983208.53448
  23197255.320   121902458.996 8  23197258.600    94988972.55246
  24609850.260   129325650.307 7  24609855.740   100773261.92244
  22603728.960   118783430.214 8  22603732.340    92558551.38347
  19777036.300   105719598.562 9  19777044.600    82226394.309 8
  20331082.680   108490584.002 9  20331089.900    84381606.561 8
  24649546.440   131950951.166 6
  23141523.120   123921715.087 8  23141532.120    96383544.904 4
  24001571.740   127941876.037 7  24001584.520    99510402.066 4
  20238479.320   108148358.235 9
  23774957.100   127135373.791 5  23774965.040    98883102.992 6
  23805342.220   127387200.772 7  23805350.540    99078980.917 6
 16  3 23 21  3 22.0000000  0 18G03G05G07G08G09G16G23G27G28G30R01R02
                                R03R08R10R11R20R21
  24939370.540   131057265.196 6  24939379.320   102122579.19845
  25084172.460   131818201.534 6  25084175.800   102715488.35845
  21009596.560   110406253.361 9  21009596.340    86030852.60849
  23330025.720   122600163.563 8  23330030.700    95532644.76746
  20176371.700   106027587.275 9  20176372.840    82618929.79649
  23257816.820   122220710.329 8  23257817.200    95236938.35344
  20998289.460   110346770.149 9  20998287.120    85984474.24148
  23197068.580   121901477.634 8  23197071.840    94988207.85146
  24609176.160   129322107.780 7  24609181.640   100770501.52844
  22603307.760   118781216.817 8  22603311.160    92556826.66047
  19777449.680   105721808.261 9  19777457.980    82228112.964 8
  20330648.500   108488267.209 9  20330655.720    84379804.613 8
  24648747.780   131946675.983 6
  23142345.900   123926120.799 7  23142354.780    96386971.573 5
  24002211.480   127945286.105 7  24002224.240    99513054.345 4
  20238871.400   108150453.389 9
  23774821.020   127134646.078 5  23774828.980    98882536.993 6
  23804792.240   127384257.857 7  23804800.580    99076691.994 6
 16  3 23 21  3 23.0000000  0 19G03G05G07G08G09G16G23G27G28G30R01R02
                                R03R08R10R11R13R20R21
  24940077.480   131060980.041 6  24940086.260   102125473.87745
  25083651.180   131815462.139 6  25083654.580   102713353.75945
  21009395.280   110405195.643 9  21009395.060    86030028.41049
  23329578.460   122597813.332 8  23329583.480    95530813.42446
  20176335.120   106027395.125 9  20176336.280    82618780.06549
  23258453.580   122224056.580 8  23258454.000    95239545.82845
  20998598.620   110348394.803 9  20998596.280    85985740.20748
  23196881.920   121900496.718 8  23196885.180    94987443.50347
  24608502.040   129318565.227 7  24608507.540   100767741.10344
  22602886.580   118779003.511 8  22602889.980    92555102.01047
  19777863.180   105724018.618 9  19777871.460    82229832.127 8
  20330214.460   108485951.009 9  20330221.660    84378003.123 8
  24647949.120   131942400.782 6
  23143168.640   123930526.542 7  23143177.440    96390398.260 5
  24002851.200   127948695.972 7  24002863.920    99515706.472 4
  20239263.500   108152548.684 9
  24142837.740   128921405.98915  24142850.420   100272257.20713
  23774685.060   127133918.991 5  23774693.020    98881971.478 6
  23804242.300   127381315.095 6  23804250.660    99074403.182 6
 16  3 23 21  3 24.0000000  0 19G03G05G07G08G09G16G23G27G28G30R01R02
                                R03R08R10R11R13R20R21
  24940784.380   131064694.799 6  24940793.160   102128368.47344
  25083129.980   131812723.204 6  25083133.360   102711219.52245
  21009194.040   110404138.201 9  21009193.820    86029204.43049
  23329131.280   122595463.467 8  23329136.300    95528982.36546
  20176298.660   106027203.497 9  20176299.820    82618630.74749
  23259090.420   122227403.158 8  23259090.820    95242153.54645
  20998907.880   110350019.975 9  20998905.540    85987006.57348
  23196695.360   121899516.410 8  23196698.620    94986679.62646
  24607827.940   129315022.841 7  24607833.460   100764980.80744
  22602465.440   118776790.440 8  22602468.840    92553377.53747
  19778276.820   105726229.788 9  19778285.120    82231551.923 8
  20329780.540   108483635.584 9  20329787.740    84376202.242 8
  24647150.480   131938125.691 6
  23143991.440   123934932.508 7  23144000.160    96393825.128 5
  24003490.860   127952105.757 7  24003503.600    99518358.538 4
  20239655.660   108154644.276 9
  24142250.060   128918267.567 4  24142262.600   100269816.196 3
  23774549.200   127133192.698 5  23774557.220    98881406.584 6
  23803692.420   127378372.766 6  23803700.840    99072114.711 6
 16  3 23 21  3 25.0000000  0 19G03G05G07G08G09G16G23G27G28G30R01R02
                                R03R08R10R11R13R20R21
  24941491.300   131068409.641 6  24941500.100   102131263.13744
  25082608.860   131809984.647 6  25082612.220   102709085.58844
  21008992.880   110403081.075 9  21008992.660    86028380.69949
  23328684.180   122593114.017 8  23328689.220    95527151.63246
  20176262.300   106027012.445 9  20176263.460    82618481.87749
  23259727.340   122230750.121 8  23259727.740    95244761.56645
  20999217.240   110351645.697 9  20999214.920    85988273.36748
  23196508.940   121898536.761 8  23196512.200    94985916.26547
  24607153.880   129311480.651 7  24607159.380   100762220.65043
  22602044.360   118774577.655 8  22602047.760    92551653.28947
  19778690.640   105728441.829 9  19778698.920    82233272.397 8
  20329346.780   108481320.953 9  20329354.000    84374401.973 8
  24646351.900   131933850.792 6
  23144814.300   123939338.757 7  23144822.960    96397252.207 5
  24004130.560   127955515.550 7  24004143.260    99521010.605 4
  20240047.880   108156740.235 9
  24141662.420   128915129.394 4  24141674.860   100267375.385 3
  23774413.500   127132467.241 6  23774421.560    98880842.344 5
  23803142.640   127375430.851 7  23803151.080    99069826.563 6
 16  3 23 21  3 26.0000000  0 19G03G05G07G08G09G16G23G27G28G30R01R02
                                R03R08R10R11R13R20R21
  24942198.260   131072124.536 6  24942207.060   102134157.85044
  25082087.800   131807246.619 6  25082091.200   102706952.05744
  21008791.800   110402024.298 9  21008791.560    86027557.23849
  23328237.160   122590764.974 8  23328242.240    95525321.21646
  20176226.060   106026821.987 9  20176227.220    82618333.46849
  23260364.320   122234097.469 8  23260364.720    95247369.88245
  20999526.720   110353272.002 9  20999524.380    85989540.61848
  23196322.640   121897557.806 8  23196325.900    94985153.44547
  24606479.900   129307938.733 7  24606485.340   100759460.70644
  22601623.340   118772365.172 8  22601626.740    92549929.28047
  19779104.600   105730654.755 9  19779112.880    82234993.566 8
  20328913.160   108479007.132 9  20328920.380    84372602.330 8
  24645553.340   131929576.091 6
  23145637.180   123943745.304 7  23145645.840    96400679.519 5
  24004770.240   127958925.359 7  24004782.980    99523662.685 4
  20240440.180   108158836.588 9
  24141074.780   128911991.544 5  24141087.160   100264934.830 3
  23774277.960   127131742.641 5  23774286.080    98880278.766 6
  23802592.960   127372489.397 7  23802601.440    99067538.770 6
 16  3 23 21  3 27.0000000  0 19G03G05G07G08G09G16G23G27G28G30R01R02
                                R03R08R10R11R13R20R21
  24942905.200   131075839.358 6  24942913.980   102137052.51244
  25081566.860   131804509.011 6  25081570.320   102704818.86445
  21008590.740   110400967.794 9  21008590.520    86026733.98649
  23327790.220   122588416.278 8  23327795.300    95523491.06146
  20176189.900   106026632.041 9  20176191.080    82618185.45449
  23261001.360   122237445.144 8  23261001.760    95249978.46245
  20999836.280   110354898.787 9  20999833.960    85990808.24348
  23196136.460   121896579.426 8  23196139.720    94984391.07147
  24605805.940   129304396.939 7  24605811.340   100756700.86844
  22601202.360   118770152.894 8  22601205.760    92548205.43047
  19779518.740   105732868.493 9  19779527.000    82236715.358 8
  20328479.700   108476694.050 9  20328486.900    84370803.271 8
  24644754.880   131925301.506 6
  23146460.100   123948152.048 7  23146468.740    96404106.977 5
  24005409.900   127962335.062 7  24005422.640    99526314.676 4
  20240832.540   108160933.236 9
  24140487.240   128908853.900 5  24140499.520   100262494.430 3
  23774142.660   127131018.845 5  23774150.740    98879715.815 5
  23802043.320   127369548.264 6  23802051.820    99065251.226 6
 16  3 23 21  3 28.0000000  0 19G03G05G07G08G09G16G23G27G28G30R01R02
                                R03R08R10R11R13R20R21
  24943612.100   131079554.158 6  24943620.920   102139947.15346
  25081046.020   131801771.762 6  25081049.440   102702685.95845
  21008389.740   110399911.519 9  21008389.520    86025910.91549
  23327343.320   122586067.913 8  23327348.420    95521661.17446
  20176153.860   106026442.592 9  20176155.020    82618037.83349
  23261638.460   122240793.101 8  23261638.860    95252587.26045
  21000145.940   110356526.061 9  21000143.620    85992076.24548
  23195950.400   121895601.627 8  23195953.640    94983629.15446
  24605131.980   129300855.292 7  24605137.380   100753941.15644
  22600781.400   118767940.845 8  22600784.820    92546481.75747
  19779933.020   105735083.017 9  19779941.280    82238437.766 8
  20328046.360   108474381.702 9  20328053.580    84369004.778 8
  24643956.300   131921026.974 6
  23147283.080   123952559.023 7  23147291.680    96407534.618 5
  24006049.560   127965744.698 7  24006062.280    99528966.613 4
  20241224.940   108163030.185 9
  24139899.740   128905716.541 5  24139911.900   100260054.256 3
  23774007.420   127130295.840 5  23774015.540    98879153.480 5
  23801493.720   127366607.431 6  23801502.280    99062963.918 6
 16  3 23 21  3 29.0000000  0 19G03G05G07G08G09G16G23G27G28G30R01R02
                                R03R08R10R11R13R20R21
  24944319.040   131083268.956 6  24944327.840   102142841.79545
  25080525.240   131799035.000 6  25080528.700   102700553.41245
  21008188.800   110398855.569 9  21008188.580    86025088.09749
  23326896.520   122583719.939 8  23326901.640    95519831.58846
  20176117.920   106026253.715 9  20176119.080    82617890.65749
  23262275.640   122244141.423 8  23262276.040    95255196.34645
  21000455.700   110358153.885 9  21000453.380    85993344.67648
  23195764.440   121894624.495 8  23195767.680    94982867.75246
  24604458.080   129297313.874 7  24604463.460   100751181.60543
  22600360.520   118765729.068 8  22600363.940    92544758.29747
  19780347.460   105737298.401 9  19780355.720    82240160.838 8
  20327613.180   108472070.152 9  20327620.380    84367206.908 8
  24643157.900   131916752.626 6
  23148106.100   123956966.196 7  23148114.660    96410962.409 5
  24006689.180   127969154.296 7  24006701.900    99531618.518 4
  20241617.420   108165127.495 9
  24139312.280   128902579.449 5  24139324.380   100257614.293 3
  23773872.380   127129573.672 5  23773880.500    98878591.792 5
  23800944.200   127363667.010 6  23800952.800    99060676.936 6
 16  3 23 21  3 30.0000000  0 19G03G05G07G08G09G16G23G27G28G30R01R02
                                R03R08R10R11R13R20R21
  24945025.880   131086983.294 6  24945034.700   102145736.07045
  25080004.440   131796298.175 6  25080007.900   102698420.83345
  21007987.820   110397799.441 9  21007987.600    86024265.14049
  23326449.680   122581371.905 8  23326454.820    95518001.95047
  20176081.980   106026064.925 9  20176083.160    82617743.54849
  23262912.780   122247489.624 8  23262913.200    95257805.33245
  21000765.480   110359781.761 9  21000763.160    85994613.14748
  23195578.520   121893647.500 8  23195581.760    94982106.45746
  24603784.140   129293772.180 7  24603789.460   100748421.85543
  22599939.600   118763517.079 8  22599943.020    92543034.66947
  19780761.960   105739514.149 9  19780770.220    82241884.198 7
  20327180.060   108469758.901 9  20327187.260    84365409.272 8
  24642359.360   131912478.003 6
  23148929.080   123961373.193 6  23148937.620    96414390.064 5
  24007328.740   127972563.383 7  24007341.420    99534270.030 4
  20242009.880   108167224.675 9
  24138724.800   128899442.208 5  24138736.820   100255174.215 3
  23773737.380   127128851.844 5  23773745.540    98878030.366 5
  23800394.680   127360726.551 6  23800403.340    99058389.921 6
 16  3 23 21  3 31.0000000  0 19G03G05G07G08G09G16G23G27G28G30R01R02
                                R03R08R10R11R13R20R21
  24945732.660   131090697.342 7  24945741.460   102148630.12245
  25079483.700   131793561.545 6  25079487.100   102696288.39444
  21007786.860   110396743.331 9  21007786.620    86023442.19949
  23326002.860   122579023.947 8  23326008.020    95516172.38046
  20176046.100   106025876.393 9  20176047.280    82617596.64049
  23263549.940   122250837.891 8  23263550.360    95260414.37745
  21001075.300   110361409.894 9  21001072.980    85995881.82248
  23195392.680   121892670.880 8  23195395.900    94981345.45346
  24603110.140   129290230.367 7  24603115.500   100745661.99343
  22599518.660   118761305.080 8  22599522.080    92541311.03547
  19781176.560   105741730.456 9  19781184.820    82243607.992 7
  20326747.020   108467448.159 9  20326754.220    84363612.026 8
  24641560.800   131908203.271 6
  23149752.040   123965780.122 6  23149760.580    96417817.664 5
  24007968.220   127975972.131 7  24007980.920    99536921.275 4
  20242402.340   108169321.905 9
  24138137.260   128896304.932 5  24138149.260   100252734.101 3
  23773602.480   127128130.604 5  23773610.680    98877469.402 5
  23799845.180   127357786.221 6  23799853.900    99056103.010 6
 16  3 23 21  3 32.0000000  0 19G03G05G07G08G09G16G23G27G28G30R01R02
                                R03R08R10R11R13R20R21
  24946439.380   131094411.192 7  24946448.240   102151524.02645
  25078962.980   131790825.085 6  25078966.300   102694156.08344
  21007585.900   110395687.285 9  21007585.660    86022619.30449
  23325556.100   122576676.176 8  23325561.260    95514342.94846
  20176010.300   106025688.189 9  20176011.480    82617449.98749
  23264187.120   122254186.295 8  23264187.520    95263023.52345
  21001385.180   110363038.335 9  21001382.860    85997150.74048
  23195206.920   121891694.660 8  23195210.140    94980584.76246
  24602436.160   129286688.528 7  24602441.500   100742902.10743
  22599097.740   118759093.091 8  22599101.160    92539587.41047
  19781591.280   105743947.372 9  19781599.540    82245332.258 8
  20326314.100   108465137.978 9  20326321.300    84361815.221 8
  24640762.300   131903928.495 6
  23150574.980   123970187.076 6  23150583.540    96421245.284 5
  24008607.660   127979380.621 7  24008620.340    99539572.325 4
  20242794.840   108171419.255 9
  24137549.820   128893167.744 5  24137561.740   100250294.054 3
  23773467.700   127127409.910 5  23773475.920    98876908.862 5
  23799295.720   127354846.021 6  23799304.460    99053816.192 6
 16  3 23 21  3 33.0000000  0 19G03G05G07G08G09G16G23G27G28G30R01R02
                                R03R08R10R11R13R20R21
  24947146.120   131098125.078 7  24947155.020   102154417.94745
  25078442.380   131788089.158 6  25078445.640   102692024.17845
  21007385.000   110394631.569 9  21007384.760    86021796.67049
  23325109.400   122574328.789 8  23325114.560    95512513.82546
  20175974.580   106025500.553 9  20175975.780    82617303.77749
  23264824.360   122257535.056 8  23264824.760    95265632.94945
  21001695.160   110364667.323 9  21001692.840    85998420.07848
  23195021.280   121890719.092 8  23195024.500    94979824.57746
  24601762.240   129283146.916 7  24601767.560   100740142.40843
  22598676.860   118756881.404 8  22598680.260    92537864.01947
  19782006.160   105746165.143 9  19782014.420    82247057.191 8
  20325881.320   108462828.586 9  20325888.520    84360019.031 8
  24639963.780   131899653.829 5
  23151397.960   123974594.319 6  23151406.580    96424673.125 6
  24009247.080   127982789.057 7  24009259.740    99542223.347 4
  20243187.400   108173516.982 9
  24136962.340   128890030.802 5  24136974.240   100247854.203 3
  23773333.100   127126690.023 5  23773341.300    98876348.943 5
  23798746.340   127351906.207 7  23798755.100    99051529.676 6
 16  3 23 21  3 34.0000000  0 19G03G05G07G08G09G16G23G27G28G30R01R02
                                R03R08R10R11R13R20R21
  24947852.920   131101839.239 7  24947861.860   102157312.08845
  25077921.900   131785353.920 6  25077925.080   102689892.82044
  21007184.220   110393576.463 9  21007183.980    86020974.51249
  23324662.820   122571982.095 8  23324668.020    95510685.23146
  20175939.040   106025313.786 9  20175940.240    82617158.24149
  23265461.760   122260884.481 8  23265462.120    95268242.88545
  21002005.300   110366297.154 9  21002003.000    85999690.07248
  23194835.820   121889744.480 8  23194839.040    94979065.13747
  24601088.400   129279605.781 7  24601093.720   100737383.10541
  22598256.080   118754670.285 8  22598259.520    92536141.07347
  19782421.260   105748384.067 9  19782429.520    82248783.018 8
  20325448.740   108460520.291 9  20325455.940    84358223.691 8
  24639165.220   131895379.607 5
  23152221.080   123979002.121 6  23152229.720    96428101.399 6
  24009886.540   127986197.800 7  24009899.200    99544874.608 4
  20243580.080   108175615.371 9
  24136375.060   128886894.492 5  24136386.840   100245414.847 3
  23773198.660   127125971.315 5  23773206.900    98875789.948 5
  23798197.100   127348967.081 7  23798205.880    99049243.691 6
 16  3 23 21  3 35.0000000  0 19G03G05G07G08G09G16G23G27G28G30R01R02
                                R03R08R10R11R13R20R21
  24948559.740   131105553.478 7  24948568.700   102160206.30245
  25077401.520   131782619.187 6  25077404.680   102687761.83245
  21006983.500   110392521.691 9  21006983.260    86020152.60949
  23324216.340   122569635.858 8  23324221.560    95508857.00246
  20175903.600   106025127.606 9  20175904.800    82617013.16949
  23266099.220   122264234.306 8  23266099.580    95270853.12845
  21002315.560   110367927.544 9  21002313.260    86000960.51148
  23194650.500   121888770.532 8  23194653.700    94978306.21746
  24600414.580   129276064.891 7  24600419.960   100734623.97444
  22597835.380   118752459.455 8  22597838.800    92534418.34447
  19782836.520   105750603.869 9  19782844.780    82250509.532 8
  20325016.320   108458212.842 9  20325023.520    84356429.008 8
  24638366.760   131891105.568 5
  23153044.220   123983410.194 6  23153052.920    96431529.879 6
  24010526.020   127989606.538 7  24010538.660    99547525.859 4
  20243972.840   108177714.143 9
  24135787.800   128883758.466 6  24135799.520   100242975.699 3
  23773064.460   127125253.444 5  23773072.620    98875231.600 5
  23797647.960   127346028.436 7  23797656.760    99046958.083 6
 16  3 23 21  3 36.0000000  0 19G03G05G07G08G09G16G23G27G28G30R01R02
                                R03R08R10R11R13R20R21
  24949266.520   131109267.513 7  24949275.520   102163100.34645
  25076881.220   131779884.713 6  25076884.360   102685631.06745
  21006782.820   110391467.060 9  21006782.580    86019330.82149
  23323769.900   122567289.816 8  23323775.120    95507028.92446
  20175868.260   106024941.809 9  20175869.440    82616868.39049
  23266736.700   122267584.297 8  23266737.060    95273463.50645
  21002625.880   110369558.295 9  21002623.580    86002231.22148
  23194465.240   121887797.050 8  23194468.460    94977547.66646
  24599740.760   129272524.014 7  24599746.080   100731864.84343
  22597414.680   118750248.732 8  22597418.100    92532695.70647
  19783251.920   105752824.332 9  19783260.160    82252236.554 8
  20324584.020   108455906.017 9  20324591.220    84354634.811 8
  24637568.260   131886831.520 5
  23153867.340   123987818.318 6  23153876.140    96434958.395 6
  24011165.440   127993015.054 6  24011178.100    99550176.931 4
  20244365.600   108179813.070 9
  24135200.580   128880622.549 6  24135212.180   100240536.632 3
  23772930.340   127124536.268 5  23772938.500    98874673.795 5
  23797098.840   127343090.014 7  23797107.640    99044672.643 6
 16  3 23 21  3 37.0000000  0 19G03G05G07G08G09G16G23G27G28G30R01R02
                                R03R08R10R11R13R20R21
  24949973.320   131112981.594 7  24949982.300   102165994.42045
  25076360.940   131777150.720 6  25076364.100   102683500.68544
  21006582.180   110390412.721 9  21006581.940    86018509.26349
  23323323.520   122564944.199 8  23323328.760    95505201.17046
  20175833.000   106024756.569 9  20175834.200    82616724.04949
  23267374.240   122270934.642 8  23267374.620    95276074.15645
  21002936.300   110371189.586 9  21002934.000    86003502.35848
  23194280.120   121886824.217 8  23194283.340    94976789.61646
  24599067.000   129268983.336 7  24599072.320   100729105.86141
  22596994.040   118748038.259 8  22596997.460    92530973.26347
  19783667.460   105755045.661 9  19783675.700    82253964.252 8
  20324151.880   108453599.992 9  20324159.080    84352841.236 8
  24636769.880   131882557.668 6
  23154690.560   123992226.757 6  23154699.440    96438387.156 6
  24011804.840   127996423.496 6  24011817.520    99552827.940 4
  20244758.460   108181912.357 9
  24134613.380   128877486.939 6  24134624.920   100238097.803 3
  23772796.340   127123819.881 5  23772804.520    98874116.603 5
  23796549.800   127340151.971 7  23796558.620    99042387.497 6
 16  3 23 21  3 38.0000000  0 19G03G05G07G08G09G16G23G27G28G30R01R02
                                R03R08R10R11R13R20R21
  24950680.080   131116695.548 7  24950689.040   102168888.39245
  25075840.740   131774417.004 6  25075843.940   102681370.51245
  21006381.580   110389358.567 9  21006381.340    86017687.84349
  23322877.200   122562598.809 8  23322882.440    95503373.59946
  20175797.820   106024571.757 9  20175799.020    82616580.04049
  23268011.840   122274285.232 8  23268012.220    95278685.00145
  21003246.780   110372821.272 9  21003244.500    86004773.79748
  23194095.080   121885851.881 8  23194098.300    94976031.95347
  24598393.240   129265442.719 6  24598398.520   100726346.94744
  22596573.420   118745827.929 8  22596576.840    92529250.93447
  19784083.140   105757267.704 9  19784091.380    82255692.505 8
  20323719.840   108451294.592 9  20323727.040    84351048.147 8
  24635971.500   131878283.915 6
  23155513.800   123996635.248 6  23155522.740    96441815.953 6
  24012444.240   127999831.773 7  24012456.880    99555478.815 4
  20245151.340   108184011.853 9
  24134026.240   128874351.466 6  24134037.740   100235659.075 4
  23772662.520   127123104.253 5  23772670.700    98873560.005 5
  23796000.820   127337214.196 7  23796009.640    99040102.559 6
 16  3 23 21  3 39.0000000  0 19G03G05G07G08G09G16G23G27G28G30R01R02
                                R03R08R10R11R13R20R21
  24951386.800   131120409.360 7  24951395.780   102171782.25945
  25075320.620   131771683.613 6  25075323.840   102679240.58944
  21006181.000   110388304.569 9  21006180.780    86016866.54549
  23322430.940   122560253.696 8  23322436.180    95501546.24346
  20175762.740   106024387.366 9  20175763.940    82616436.36149
  23268649.480   122277636.021 8  23268649.880    95281296.00445
  21003557.360   110374453.363 9  21003555.080    86006045.55448
  23193910.140   121884880.048 8  23193913.380    94975274.68346
  24597719.480   129261902.152 6  24597724.720   100723588.05643
  22596152.840   118743617.726 8  22596156.260    92527528.69647
  19784498.960   105759490.438 9  19784507.200    82257421.295 8
  20323287.920   108448989.821 9  20323295.120    84349255.550 8
  24635173.140   131874010.111 5
  23156337.080   124001043.877 6  23156346.060    96445244.862 6
  24013083.600   128003239.892 7  24013096.240    99558129.575 4
  20245544.280   108186111.562 9
  24133439.120   128871216.136 6  24133450.580   100233220.458 4
  23772528.800   127122389.275 5  23772536.980    98873003.915 5
  23795451.880   127334276.672 7  23795460.700    99037817.816 6
 16  3 23 21  3 40.0000000  0 19G03G05G07G08G09G16G23G27G28G30R01R02
                                R03R08R10R11R13R20R21
  24952093.520   131124123.154 7  24952102.520   102174676.12144
  25074800.560   131768950.642 6  25074803.760   102677111.00444
  21005980.480   110387250.859 9  21005980.260    86016045.47349
  23321984.740   122557908.926 8  23321990.000    95499719.15446
  20175727.740   106024203.489 9  20175728.940    82616293.07649
  23269287.160   122280987.141 8  23269287.560    95283907.26545
  21003868.040   110376085.966 9  21003865.760    86007317.71648
  23193725.340   121883908.829 8  23193728.540    94974517.89546
  24597045.780   129258361.772 6  24597050.800   100720829.2974
  22595732.300   118741407.776 8  22595735.700    92525806.65947
  19784914.920   105761713.996 9  19784923.160    82259150.735 8
  20322856.140   108446685.827 9  20322863.360    84347463.554 8
  24634374.760   131869736.518 5
  23157160.380   124005452.764 7  23157169.440    96448673.979 6
  24013722.920   128006647.913 7  24013735.580    99560780.261 4
  20245937.260   108188211.600 9
  24132852.080   128868081.065 6  24132863.500   100230782.051 4
  23772395.220   127121675.107 5  23772403.420    98872448.458 5
  23794903.000   127331339.523 7  23794911.840    99035533.369 6
 16  3 23 21  3 41.0000000  0 19G03G05G07G08G09G16G23G27G28G30R01R02
                                R03R08R10R11R13R20R21
  24952800.280   131127836.993 7  24952809.240   102177570.01944
  25074280.580   131766218.142 6  25074283.760   102674981.78145
  21005780.040   110386197.489 9  21005779.820    86015224.66449
  23321538.620   122555564.626 8  23321543.900    95497892.43446
  20175692.860   106024020.228 9  20175694.080    82616150.27749
  23269924.940   122284338.656 8  23269925.340    95286518.83245
  21004178.820   110377719.147 9  21004176.560    86008590.32048
  23193540.640   121882938.294 8  23193543.880    94973761.63546
  24596372.100   129254821.636 6  24596377.060   100718070.77442
  22595311.800   118739198.131 8  22595315.220    92524084.85647
  19785331.060   105763938.442 9  19785339.280    82260880.857 8
  20322424.540   108444382.674 9  20322431.740    84345672.213 8
  24633576.460   131865463.078 5
  23157983.720   124009861.916 7  23157992.860    96452103.303 6
  24014362.300   128010055.984 6  24014374.940    99563430.984 4
  20246330.340   108190312.031 9
  24132265.080   128864946.321 6  24132276.480   100228343.900 4
  23772261.820   127120961.854 5  23772270.020    98871893.705 5
  23794354.220   127328402.832 7  23794363.060    99033249.284 6
 16  3 23 21  3 42.0000000  0 19G03G05G07G08G09G16G23G27G28G30R01R02
                                R03R08R10R11R13R20R21
  24953507.000   131131550.706 7  24953515.960   102180463.82345
  25073760.660   131763485.955 6  25073763.780   102672852.82045
  21005579.620   110385144.280 9  21005579.400    86014403.98249
  23321092.560   122553220.544 8  23321097.840    95496065.88346
  20175658.060   106023837.371 9  20175659.280    82616007.78949
  23270562.740   122287690.370 8  23270563.120    95289130.55845
  21004489.660   110379352.706 9  21004487.420    86009863.22448
  23193356.060   121881968.260 8  23193359.280    94973005.76346
  24595698.440   129251281.552 6  24595703.420   100715312.26643
  22594891.340   118736988.588 8  22594894.760    92522363.13847
  19785747.320   105766163.577 9  19785755.540    82262611.514 7
  20321993.060   108442080.168 9  20322000.260    84343881.379 8
  24632778.180   131861189.622 6
  23158807.100   124014271.156 7  23158816.300    96455532.695 6
  24015001.600   128013463.861 7  24015014.260    99566081.554 4
  20246723.440   108192412.652 9
  24131678.100   128861811.765 6  24131689.500   100225905.902 4
  23772128.540   127120249.231 5  23772136.760    98871339.441 5
  23793805.460   127325466.349 7  23793814.300    99030965.359 6
 16  3 23 21  3 43.0000000  0 19G03G05G07G08G09G16G23G27G28G30R01R02
                                R03R08R10R11R13R20R21
  24954213.680   131135264.305 7  24954222.680   102183357.52745
  25073240.820   131760754.088 6  25073243.940   102670724.09444
  21005379.240   110384091.234 9  21005379.020    86013583.43149
  23320646.540   122550876.735 8  23320651.820    95494239.53646
  20175623.340   106023654.929 9  20175624.560    82615865.62749
  23271200.600   122291042.318 8  23271201.000    95291742.45945
  21004800.600   110380986.675 9  21004798.340    86011136.44748
  23193171.560   121880998.740 8  23193174.800    94972250.29346
  24595024.760   129247741.508 6  24595029.720   100712553.78843
  22594470.900   118734779.182 8  22594474.320    92520641.52347
  19786163.700   105768389.417 9  19786171.920    82264342.727 7
  20321561.680   108439778.314 9  20321568.880    84342091.046 8
  24631979.860   131856916.188 6
  23159630.540   124018680.517 7  23159639.780    96458962.186 6
  24015640.880   128016871.583 7  24015653.540    99568731.997 4
  20247116.580   108194513.486 9
  24131091.160   128858677.322 6  24131102.540   100223467.993 4
  23771995.400   127119537.323 5  23772003.620    98870785.732 5
  23793256.740   127322530.163 7  23793265.600    99028681.661 6
 16  3 23 21  3 44.0000000  0 19G03G05G07G08G09G16G23G27G28G30R01R02
                                R03R08R10R11R13R20R21
  24954920.340   131138977.842 7  24954929.320   102186251.17545
  25072721.060   131758022.604 6  25072724.160   102668595.67245
  21005178.880   110383038.433 9  21005178.680    86012763.06449
  23320200.580   122548533.275 8  23320205.860    95492413.46446
  20175588.720   106023472.987 9  20175589.940    82615723.85649
  23271838.520   122294394.558 8  23271838.920    95294354.59445
  21005111.620   110382621.117 9  21005109.380    86012410.03448
  23192987.180   121880029.785 8  23192990.400    94971495.25746
  24594351.160   129244201.622 6  24594356.020   100709795.4414
  22594050.500   118732569.992 8  22594053.920    92518920.08447
  19786580.260   105770616.038 9  19786588.460    82266074.539 8
  20321130.440   108437477.175 9  20321137.660    84340301.273 8
  24631181.600   131852642.852 6
  23160454.000   124023090.091 7  23160463.260    96462391.847 6
  24016280.140   128020279.190 6  24016292.780    99571382.360 4
  20247509.760   108196614.606 9
  24130504.260   128855543.125 6  24130515.640   100221030.272 5
  23771862.380   127118826.187 5  23771870.640    98870232.624 5
  23792708.100   127319594.307 7  23792716.960    99026398.219 6
 16  3 23 21  3 45.0000000  0 19G03G05G07G08G09G16G23G27G28G30R01R02
                                R03R08R10R11R13R20R21
  24955627.020   131142691.286 7  24955635.980   102189144.75645
  25072201.360   131755291.447 6  25072204.440   102666467.49345
  21004978.580   110381985.825 9  21004978.360    86011942.85049
  23319754.660   122546190.065 8  23319759.960    95490587.58846
  20175554.180   106023291.486 9  20175555.400    82615582.42249
  23272476.460   122297747.031 8  23272476.920    95296966.90745
  21005422.720   110384255.993 9  21005420.480    86013683.96348
  23192802.900   121879061.347 8  23192806.140    94970740.62946
  24593677.560   129240661.804 6  24593682.460   100707037.13143
  22593630.120   118730360.948 8  22593633.540    92517198.75547
  19786996.920   105772843.402 9  19787005.140    82267806.931 8
  20320699.340   108435176.697 9  20320706.540    84338512.013 8
  24630383.320   131848369.581 6
  23161277.480   124027499.773 7  23161286.780    96465821.591 6
  24016919.340   128023686.635 6  24016932.040    99574032.595 4
  20247903.020   108198715.951 9
  24129917.380   128852409.050 6  24129928.780   100218592.656 5
  23771729.500   127118115.759 5  23771737.800    98869680.064 5
  23792159.540   127316658.739 7  23792168.400    99024115.004 6
 16  3 23 21  3 46.0000000  0 19G03G05G07G08G09G16G23G27G28G30R01R02
                                R03R08R10R11R13R20R21
  24956333.700   131146404.788 7  24956342.660   102192038.39245
  25071681.760   131752560.820 6  25071684.840   102664339.74244
  21004778.360   110380933.589 9  21004778.140    86011122.92549
  23319308.840   122543847.300 8  23319314.180    95488762.06346
  20175519.760   106023110.610 9  20175520.980    82615441.48049
  23273114.500   122301099.930 8  23273114.960    95299579.56045
  21005733.940   110385891.460 9  21005731.700    86014958.35348
  23192618.740   121878093.622 8  23192621.960    94969986.55746
  24593004.020   129237122.274 6  24593008.800   100704279.03743
  22593209.800   118728152.228 8  22593213.240    92515477.67747
  19787413.780   105775071.702 9  19787421.980    82269540.051 8
  20320268.400   108432877.073 9  20320275.600    84336723.419 8
  24629585.100   131844096.539 6
  23162101.040   124031909.803 7  23162110.360    96469251.606 7
  24017558.600   128027094.152 6  24017571.300    99576682.892 4
  20248296.320   108200817.702 9
  24129330.540   128849275.368 6  24129341.960   100216155.345 5
  23771596.780   127117406.201 5  23771605.100    98869128.183 5
  23791611.040   127313723.618 7  23791619.900    99021832.140 6
 16  3 23 21  3 47.0000000  0 19G03G05G07G08G09G16G23G27G28G30R01R02
                                R03R08R10R11R13R20R21
  24957040.380   131150118.291 7  24957049.320   102194932.02245
  25071162.220   131749830.624 6  25071165.280   102662212.31544
  21004578.180   110379881.654 9  21004577.960    86010303.23649
  23318863.100   122541504.933 8  23318868.440    95486936.84646
  20175485.460   106022930.294 9  20175486.680    82615300.97249
  23273752.600   122304453.181 8  23273753.040    95302192.48145
  21006045.260   110387527.450 9  21006043.020    86016233.14648
  23192434.720   121877126.538 8  23192437.960    94969232.99146
  24592330.520   129233582.903 6  24592335.260   100701521.10042
  22592789.560   118725943.776 8  22592792.980    92513756.80947
  19787830.800   105777300.835 9  19787839.000    82271273.821 8
  20319837.580   108430578.210 9  20319844.800    84334935.412 8
  24628786.880   131839823.720 6
  23162924.660   124036320.061 7  23162933.980    96472681.802 7
  24018197.800   128030501.560 6  24018210.520    99579333.092 4
  20248689.700   108202919.794 9
  24128743.800   128846141.950 6  24128755.220   100213718.241 5
  23771464.240   127116697.506 5  23771472.580    98868576.980 5
  23791062.640   127310788.939 7  23791071.480    99019549.618 6
 16  3 23 21  3 48.0000000  0 19G03G05G07G08G09G16G23G27G28G30R01R02
                                R03R08R10R11R13R20R21
  24957747.040   131153831.817 7  24957755.960   102197825.66844
  25070642.780   131747100.862 6  25070645.860   102660085.21945
  21004378.060   110378830.024 9  21004377.840    86009483.78449
  23318417.440   122539162.972 8  23318422.800    95485111.94746
  20175451.240   106022750.525 9  20175452.480    82615160.89449
  23274390.780   122307806.790 8  23274391.200    95304805.68045
  21006356.680   110389163.981 9  21006354.460    86017508.36548
  23192250.820   121876160.084 8  23192254.020    94968479.90846
  24591657.040   129230043.778 6  24591661.760   100698763.33241
  22592369.340   118723735.597 8  22592372.780    92512036.14847
  19788247.960   105779530.829 9  19788256.160    82273008.257 8
  20319406.940   108428280.142 9  20319414.120    84333148.030 8
  24627988.720   131835551.064 6
  23163748.280   124040730.578 8  23163757.660    96476112.194 7
  24018837.020   128033908.973 6  24018849.760    99581983.294 4
  20249083.140   108205022.240 9
  24128157.100   128843008.818 6  24128168.540   100211281.354 6
  23771331.940   127115989.613 5  23771340.180    98868026.390 6
  23790514.300   127307854.658 7  23790523.160    99017267.402 6
 16  3 23 21  3 49.0000000  0 19G03G05G07G08G09G16G23G27G28G30R01R02
                                R03R08R10R11R13R20R21
  24958453.700   131157545.246 7  24958462.600   102200719.23345
  25070123.400   131744371.467 6  25070126.460   102657958.41644
  21004177.980   110377778.584 9  21004177.760    86008664.48049
  23317971.840   122536821.296 8  23317977.180    95483287.27346
  20175417.120   106022571.215 9  20175418.360    82615021.17249
  23275029.000   122311160.638 8  23275029.420    95307419.06445
  21006668.180   110390800.942 9  21006665.960    86018783.91948
  23192067.020   121875194.180 8  23192070.220    94967727.25546
  24590983.580   129226504.714 6  24590988.280   100696005.63443
  22591949.180   118721527.583 8  22591952.600    92510315.61647
  19788665.260   105781761.547 9  19788673.460    82274743.258 8
  20318976.400   108425982.775 9  20318983.600    84331361.189 8
  24627190.560   131831278.427 5
  23164571.980   124045141.280 8  23164581.380    96479542.728 7
  24019476.180   128037316.194 6  24019488.940    99584633.346 4
  20249476.620   108207124.926 9
  24127570.420   128839875.891 6  24127581.880   100208844.633 6
  23771199.700   127115282.485 5  23771207.940    98867476.402 6
  23789966.040   127304920.650 7  23789974.860    99014985.398 6
 16  3 23 21  3 50.0000000  0 19G03G05G07G08G09G16G23G27G28G30R01R02
                                R03R08R10R11R13R20R21
  24959160.320   131161258.438 7  24959169.220   102203612.62145
  25069604.040   131741642.262 6  25069607.080   102655831.76045
  21003977.900   110376727.238 9  21003977.700    86007845.25349
  23317526.260   122534479.792 8  23317531.600    95481462.72646
  20175383.040   106022392.231 9  20175384.300    82614881.70649
  23275667.240   122314514.625 8  23275667.660    95310032.55645
  21006979.740   110392438.225 9  21006977.520    86020059.72048
  23191883.280   121874228.696 8  23191886.500    94966974.92846
  24590310.120   129222965.614 6  24590314.840   100693247.87943
  22591529.000   118719319.593 8  22591532.440    92508595.11047
  19789082.700   105783992.883 9  19789090.880    82276478.739 8
  20318546.000   108423685.988 9  20318553.180    84329574.799 8
  24626392.360   131827005.705 5
  23165395.680   124049551.980 8  23165405.100    96482973.259 7
  24020115.320   128040723.212 6  24020128.120    99587283.243 4
  20249870.140   108209227.751 9
  24126983.740   128836742.986 6  24126995.240   100206407.929 6
  23771067.560   127114575.930 5  23771075.840    98866926.852 6
  23789417.800   127301986.816 7  23789426.600    99012703.527 6
 16  3 23 21  3 51.0000000  0 19G03G05G07G08G09G16G23G27G28G30R01R02
                                R03R08R10R11R13R20R21
  24959866.980   131164971.691 7  24959875.840   102206506.06345
  25069084.780   131738913.569 6  25069087.820   102653705.47846
  21003777.900   110375676.225 9  21003777.700    86007026.28349
  23317080.760   122532138.710 8  23317086.140    95479638.50746
  20175349.100   106022213.844 9  20175350.360    82614742.70349
  23276305.560   122317868.998 8  23276306.000    95312646.35345
  21007291.400   110394076.059 9  21007289.200    86021335.95248
  23191699.700   121873263.871 8  23191702.880    94966223.11747
  24589636.700   129219426.781 6  24589641.380   100690490.35943
  22591108.900   118717111.919 8  22591112.320    92506874.84447
  19789500.280   105786225.090 9  19789508.480    82278214.903 8
  20318115.740   108421390.051 9  20318122.920    84327789.070 8
  24625594.200   131822733.177 5
  23166219.420   124053962.947 8  23166228.860    96486404.001 7
  24020754.440   128044130.209 6  24020767.280    99589933.126 4
  20250263.720   108211330.958 9
  24126397.140   128833610.380 6  24126408.660   100203971.458 6
  23770935.560   127113870.272 5  23770943.880    98866378.008 6
  23788869.660   127299053.410 7  23788878.440    99010421.991 6
 16  3 23 21  3 52.0000000  0 19G03G05G07G08G09G16G23G27G28G30R01R02
                                R03R08R10R11R13R20R21
  24960573.560   131168684.704 7  24960582.460   102209399.31844
  25068565.580   131736185.086 6  25068568.560   102651579.38944
  21003577.920   110374625.310 9  21003577.720    86006207.38849
  23316635.300   122529797.799 8  23316640.660    95477814.42946
  20175315.220   106022035.795 9  20175316.480    82614603.96449
  23276943.900   122321223.510 8  23276944.340    95315260.25545
  21007603.140   110395714.227 9  21007600.940    86022612.44748
  23191516.180   121872299.472 8  23191519.380    94965471.63946
  24588963.260   129215887.882 6  24588967.900   100687732.7764
  22590688.800   118714904.304 8  22590692.220    92505154.62647
  19789917.980   105788457.920 9  19789926.160    82279951.546 8
  20317685.580   108419094.667 9  20317692.760    84326003.773 8
  24624796.040   131818460.538 6
  23167043.160   124058373.922 8  23167052.660    96489834.747 7
  24021393.540   128047536.977 6  24021406.400    99592582.824 4
  20250657.340   108213434.298 9
  24125810.520   128830477.851 6  24125822.100   100201535.044 6
  23770803.680   127113165.208 5  23770812.040    98865829.622 6
  23788321.500   127296120.189 7  23788330.300    99008140.599 6
 16  3 23 21  3 53.0000000  0 19G03G05G07G08G09G16G23G27G28G30R01R02
                                R03R08R10R11R13R20R21
  24961280.140   131172397.681 7  24961289.020   102212292.54545
  25068046.440   131733456.992 6  25068049.420   102649453.61844
  21003377.980   110373574.613 9  21003377.780    86005388.66349
  23316189.900   122527457.228 8  23316195.260    95475990.60546
  20175281.420   106021858.217 9  20175282.680    82614465.59149
  23277582.300   122324578.286 8  23277582.720    95317874.37245
  21007914.940   110397352.834 9  21007912.760    86023889.28348
  23191332.780   121871335.644 8  23191335.980    94964720.60846
  24588289.860   129212349.133 6  24588294.540   100684975.30543
  22590268.720   118712696.843 8  22590272.160    92503434.52847
  19790335.820   105790691.506 9  19790344.000    82281688.778 8
  20317255.560   108416799.976 9  20317262.740    84324219.012 8
  24623997.880   131814188.040 6
  23167866.960   124062785.050 8  23167876.440    96493265.612 7
  24022032.580   128050943.591 6  24022045.460    99595232.395 4
  20251051.000   108215537.908 9
  24125223.960   128827345.525 6  24125235.560   100199098.793 6
  23770671.980   127112460.874 5  23770680.360    98865281.803 6
  23787773.440   127293187.310 7  23787782.220    99005859.477 6
 16  3 23 21  3 54.0000000  0 19G03G05G07G08G09G16G23G27G28G30R01R02
                                R03R08R10R11R13R20R21
  24961986.680   131176110.477 7  24961995.500   102215185.62245
  25067527.340   131730729.164 6  25067530.300   102647328.04844
  21003178.080   110372524.058 9  21003177.860    86004570.05049
  23315744.560   122525116.871 8  23315749.880    95474166.95546
  20175247.700   106021681.033 9  20175248.960    82614327.52649
  23278220.720   122327933.261 8  23278221.140    95320488.63845
  21008226.840   110398991.817 9  21008224.660    86025166.41148
  23191149.460   121870372.278 8  23191152.640    94963969.93746
  24587616.460   129208810.427 6  24587621.220   100682217.92344
  22589848.680   118710489.499 8  22589852.120    92501714.52047
  19790753.800   105792925.785 9  19790761.980    82283426.546 8
  20316825.660   108414505.892 9  20316832.820    84322434.726 8
  24623199.740   131809915.558 6
  23168690.720   124067196.293 8  23168700.260    96496696.568 7
  24022671.620   128054350.012 6  24022684.460    99597881.826 4
  20251444.700   108217641.698 9
  24124637.380   128824213.338 6  24124649.060   100196662.650 6
  23770540.380   127111757.185 5  23770548.780    98864734.481 5
  23787225.420   127290254.643 7  23787234.180    99003578.524 6
 16  3 23 21  3 55.0000000  0 19G03G05G07G08G09G16G23G27G28G30R01R02
                                R03R08R10R11R13R20R21
  24962693.180   131179823.133 7  24962702.020   102218078.59345
  25067008.300   131728001.603 6  25067011.280   102645202.66645
  21002978.180   110371473.626 9  21002977.980    86003751.53449
  23315299.240   122522776.712 8  23315304.540    95472343.46246
  20175214.060   106021504.251 9  20175215.340    82614189.77249
  23278859.180   122331288.417 8  23278859.600    95323103.04545
  21008538.780   110400631.162 9  21008536.620    86026443.82248
  23190966.240   121869409.384 8  23190969.400    94963219.62946
  24586943.060   129205271.702 5  24586947.660   100679460.46242
  22589428.660   118708282.256 8  22589432.080    92499994.59647
  19791171.880   105795160.742 9  19791180.080    82285164.846 7
  20316395.860   108412212.445 9  20316403.040    84320650.936 8
  24622401.660   131805643.033 6
  23169514.540   124071607.611 8  23169524.100    96500127.583 7
  24023310.580   128057756.244 6  24023323.460    99600531.112 4
  20251838.420   108219745.648 9
  24124050.840   128821081.258 6  24124062.580   100194226.587 6
  23770408.900   127111054.222 5  23770417.320    98864187.730 6
  23786677.440   127287322.181 7  23786686.160    99001297.725 6
 16  3 23 21  3 56.0000000  0 19G03G05G07G08G09G16G23G27G28G30R01R02
                                R03R08R10R11R13R20R21
  24963399.680   131183535.773 7  24963408.520   102220971.55144
  25066489.360   131725274.469 6  25066492.340   102643077.62144
  21002778.360   110370423.470 9  21002778.140    86002933.23149
  23314854.000   122520436.915 8  23314859.260    95470520.25046
  20175180.520   106021327.971 9  20175181.780    82614052.41049
  23279497.700   122334643.886 8  23279498.120    95325717.69245
  21008850.840   110402271.009 9  21008848.680    86027721.62548
  23190783.120   121868447.106 8  23190786.300    94962469.80546
  24586269.680   129201733.166 5  24586274.320   100676703.16443
  22589008.680   118706075.235 8  22589012.080    92498274.84247
  19791590.140   105797396.496 9  19791598.320    82286903.763 8
  20315966.200   108409919.769 9  20315973.380    84318867.743 8
  24621603.540   131801370.701 6
  23170338.400   124076019.151 8  23170347.980    96503558.770 7
  24023949.580   128061162.338 6  24023962.420    99603180.287 4
  20252232.180   108221849.905 9
  24123464.340   128817949.432 6  24123476.140   100191790.722 6
  23770277.520   127110351.979 5  23770286.020    98863641.543 6
  23786129.500   127284390.081 7  23786138.220    98999017.207 6
