     3.02           OBSERVATION DATA    M (MIXED)           RINEX VERSION / TYPE
NetR9 4.80          Receiver Operator   15-JUN-13 00:00:00  PGM / RUN BY / DATE
GMSD                                                        MARKER NAME
21749S002                                                   MARKER NUMBER
GEODETIC                                                    MARKER TYPE
GMSD                JAXA                                    OBSERVER / AGENCY
5049K72188          TRIMBLE NETR9       4.80                REC # / TYPE / VERS
4938353448          TRM59800.00     SCIS                    ANT # / TYPE
 -3607665.3832  4147868.2600  3223717.2637                  APPROX POSITION XYZ
        0.0000        0.0000        0.0000                  ANTENNA: DELTA H/E/N
G   12 C1C L1C S1C C2W L2W S2W C2X L2X S2X C5X L5X S5X      SYS / # / OBS TYPES
       L6X S6X                                              SYS / # / OBS TYPES
    30.000                                                  INTERVAL
  2013     6    15     4     0    0.0000000     GPS         TIME OF FIRST OBS
G L2X -0.25000                                              SYS / PHASE SHIFT
GIOVE-A if present is mapped to satellite ID 51             COMMENT
GIOVE-B if present is mapped to satellite ID 52             COMMENT
DBHZ                                                        SIGNAL STRENGTH UNIT
                                                            END OF HEADER
> 2013  6 15  4  0  0.0000000  0 32
G21  25112295.359 5 131966023.234 5        33.900    25112311.836 2 102830710.57242        13.900
G16  21770214.141 8 114403352.013 8        49.200    21770223.160 6  89145537.95846        36.400
G31  20898690.969 8 109823617.733 8        52.000    20898699.059 7  85576759.12647        43.800    20898699.066 8  85576761.119 8        49.500
G25  25027628.094 5 131521070.909 5        33.600    25027643.137 2 102484003.45142        16.900    25027644.031 6 102484003.454 6        36.400    25027645.512 6  98213830.219 6        40.600
G03  24851136.570 6 130593620.033 6        38.600    24851153.461 3 101761351.17743        19.300
G32  24209932.031 6 127224039.721 6        40.800    24209944.496 3  99135676.39943        23.800
G20  24900453.680 6 130852749.611 6        37.200    24900466.586 3 101963227.43543        18.600
G14  21969332.820 7 115449587.466 7        45.800    21969342.715 5  89960815.51045        33.600
G29  22362843.281 7 117517589.360 7        46.300    22362853.098 5  91572222.32045        35.800    22362853.008 7  91572216.311 7        43.700
G23  25044043.844 6 131607353.684 6        39.200    25044054.121 3 102551220.08543        20.100
G06  22833583.055 7 119991366.984 7        43.800    22833594.934 4  93499872.17444        28.700
> 2013  6 15  4  0 30.0000000  0 32
G21  25102960.992 5 131916969.179 5        33.100    25102976.102 2 102792486.71442        14.800
G16  21760809.867 8 114353930.992 8        49.800    21760818.625 6  89107028.12446        36.800
G31  20898315.141 8 109821644.386 8        52.000    20898324.102 7  85575221.44947        43.700    20898323.656 8  85575223.443 8        50.300
G25  25044447.56315 131609453.27315        31.900    25044462.21512 102552872.77052        16.300    25044461.89815 102552872.81615        35.500    25044463.06616  98279829.98716        41.100
G03  24828800.648 5 130476254.225 5        34.300    24828819.078 2 101669897.76142        17.400
G32  24217940.070 6 127266120.277 6        41.100    24217952.652 3  99168466.33043        22.500
G20  24904491.453 6 130873967.259 6        36.400    24904504.637 3 101979760.52443        19.300
G14  21986515.422 7 115539885.813 7        44.500    21986526.484 5  90031177.78645        34.000
G29  22374640.563 7 117579585.139 7        46.200    22374649.918 5  91620530.70645        35.500    22374650.129 7  91620524.695 7        43.600
G23  25023924.789 6 131501627.944 6        37.900    25023934.715 2 102468836.53942        17.800
G06  22813272.094 7 119884634.008 7        43.800    22813284.734 4  93416703.73244        28.500
> 2013  6 15  4  1  0.0000000  0 32
G21  25093627.078 5 131867924.948 5        34.900    25093642.41412 102754270.49552        16.300
G16  21751468.469 8 114304844.836 8        49.400    21751477.789 6  89068779.20746        37.100
G31  20897976.148 8 109819862.746 8        51.600    20897984.387 7  85573833.14347        44.000    20897984.344 8  85573835.144 8        49.700
G25  25061250.242 5 131697746.921 5        35.600    25061263.535 2 102621672.94642        17.400    25061263.766 5 102621672.955 5        34.300    25061264.855 6  98345763.463 6        41.400
G03  24806469.406 6 130358896.035 6        37.300    24806485.828 3 101578450.32443        18.300
G32  24226002.742 6 127308492.109 6        40.900    24226015.457 3  99201483.21143        22.800
G20  24908602.164 5 130895570.106 5        34.000    24908615.711 3 101996593.87643        20.100
G14  22003764.109 7 115630525.901 7        44.500    22003774.637 5  90101806.34145        32.800
G29  22386526.867 7 117642048.605 7        45.200    22386536.906 5  91669203.51145        35.200    22386536.820 7  91669197.502 7        43.700
G23  25003830.375 6 131396028.636 6        40.300    25003839.887 3 102386551.47243        19.000
G06  22792999.773 7 119778103.510 7        43.400    22793012.566 4  93333693.08844        28.300
> 2013  6 15  4  1 30.0000000  0 33
G21  25084296.219 5 131818891.318 5        35.700    25084311.070 2 102716062.55842        16.900
G16  21742191.320 8 114256091.742 8        49.700    21742200.211 6  89030789.83246        37.000
G31  20897673.594 8 109818272.418 8        51.100    20897681.746 7  85572593.91747        43.900    20897681.684 8  85572595.918 8        49.200
G25  25078032.54715 131785949.57315        32.000    25078049.11712 102690402.24252        16.900    25078048.48415 102690402.25915        35.800    25078049.73816  98411629.03116        41.100
G03  24784138.352 6 130241546.324 6        39.000    24784155.590 3 101487009.45343        20.600
G32  24234121.008 6 127351151.325 6        40.600    24234133.363 3  99234724.07043        22.900
G20  24912786.20315 130917554.99415        35.100    24912799.40213 102013724.87253        19.900
G14  22021076.828 7 115721503.753 7        45.200    22021086.922 5  90172698.09445        33.700
G29  22398501.844 7 117704976.256 7        47.000    22398511.348 5  91718238.01545        35.500    22398511.281 7  91718232.007 7        44.000
G23  24983759.492 6 131290557.055 6        40.700    24983768.191 3 102304365.88443        19.000
G06  22772766.805 7 119671776.787 7        43.400    22772779.176 4  93250841.20844        28.400
> 2013  6 15  4  2  0.0000000  0 32
G21  25074968.477 6 131769871.469 6        36.200    25074983.055 2 102677865.38242        17.400
G16  21732977.250 8 114207671.950 8        50.200    21732986.223 6  88993060.17046        36.800
G31  20897408.031 8 109816874.752 8        52.300    20897415.945 7  85571504.81547        43.600    20897415.809 8  85571506.816 8        48.600
G25  25094802.37515 131874061.20815        35.700    25094816.34412 102759060.55352        15.600    25094815.72315 102759060.60915        34.900    25094816.96116  98477426.58316        41.900
G03  24761808.773 6 130124207.582 6        38.700    24761826.074 3 101395577.13743        20.600
G32  24242293.320 6 127394096.010 6        39.800    24242305.152 4  99268187.35744        24.200
G20  24917042.078 6 130939920.389 6        38.300    24917055.855 3 102031152.36043        21.700
G14  22038453.844 7 115812817.683 7        45.800    22038463.711 5  90243851.72345        34.400
G29  22410564.938 7 117768366.439 7        45.300    22410574.633 5  91767632.94745        35.200    22410574.516 7  91767626.944 7        44.400
G23  24963712.992 6 131185216.066 6        39.000    24963723.047 3 102222282.05743        19.000
G06  22752572.859 7 119565656.874 7        43.700    22752585.082 4  93168150.49144        29.600
> 2013  6 15  4  2 30.0000000  0 33
G21  25065642.922 6 131720867.597 6        36.500    25065657.195 2 102639680.58042        16.900
G16  21723826.555 8 114159585.161 8        49.700    21723835.355 6  88955589.99246        37.200
G31  20897178.852 8 109815671.006 8        51.500    20897186.797 7  85570566.82847        43.600    20897186.277 8  85570568.822 8        49.900
G25  25111550.477 5 131962081.059 5        33.900    25111564.938 2 102827647.39642        17.400    25111565.469 5 102827647.392 5        35.200    25111566.844 7  98543155.581 7        43.400
G03  24739481.734 6 130006882.682 6        36.400    24739499.016 2 101304155.56842        17.800
G32  24250518.625 6 127437323.920 6        41.300    24250531.883 3  99301871.33343        23.500
G20  24921371.250 6 130962664.319 6        38.400    24921382.949 3 102048874.82343        20.100
G14  22055893.672 7 115904465.555 7        44.700    22055903.543 5  90315265.55445        33.600
G29  22422714.703 7 117832216.983 7        46.200    22422724.918 5  91817386.59145        34.900    22422724.922 7  91817380.586 7        44.000
G23  24943692.828 6 131080008.506 6        40.000    24943702.734 3 102140302.27943        21.300
G06  22732418.297 7 119459746.644 7        42.800    22732430.461 4  93085623.16644        29.700
> 2013  6 15  4  3  0.0000000  0 33
G21  25056322.766 6 131671883.047 6        37.500    25056335.461 2 102601510.90242        16.900
G16  21714739.422 8 114111832.215 8        49.400    21714748.266 6  88918379.94846        36.800
G31  20896986.953 8 109814663.246 8        51.300    20896995.016 7  85569781.55947        43.900    20896994.660 8  85569783.560 8        49.500
G25  25128283.914 5 132050009.322 5        35.200    25128297.918 2 102896162.90642        16.300    25128297.520 6 102896162.902 6        37.900    25128300.176 7  98608816.248 7        43.200
G03  24717157.664 5 129889574.816 5        34.800    24717175.457 2 101212747.31542        16.900
G32  24258799.289 6 127480833.390 6        41.300    24258812.160 4  99335774.70044        24.100
G20  24925771.031 6 130985785.933 6        38.400    24925783.730 3 102066891.57643        19.900
G14  22073396.969 7 115996446.015 7        44.400    22073407.090 5  90386938.54645        32.300
G29  22434952.484 7 117896526.642 7        46.700    22434962.922 5  91867497.99045        34.000    22434962.625 7  91867491.992 7        43.700
G23  24923698.188 6 130974937.684 6        40.400    24923708.082 3 102058429.03043        19.000
G06  22712304.875 7 119354050.039 7        44.200    22712317.219 4  93003262.30044        29.400
> 2013  6 15  4  3 30.0000000  0 33
G21  25047003.617 5 131622918.831 5        35.700    25047017.699 2 102563357.04742        15.600
G16  21705715.602 8 114064411.321 8        49.100    21705724.363 6  88881428.63346        36.900
G31  20896832.367 8 109813851.063 8        52.600    20896840.219 7  85569148.68447        44.400    20896840.133 8  85569150.685 8        49.300
G25  25144997.828 5 132137844.141 5        34.500    25145012.305 2 102964605.46842        17.400    25145012.207 6 102964605.500 6        38.200    25145014.973 7  98674407.054 7        44.200
G03  24694839.305 6 129772284.793 6        37.900    24694855.508 3 101121352.94243        19.300
G32  24267131.563 6 127524620.796 6        41.100    24267144.348 4  99369894.65544        25.300
G20  24930242.102 6 131009282.386 6        39.200    24930254.891 3 102085200.40443        19.600
G14  22090962.367 7 116088755.148 7        45.000    22090972.879 5  90458867.64945        32.500
G29  22447277.117 7 117961292.114 7        47.200    22447287.258 5  91917964.56845        34.200    22447286.820 7  91917958.565 7        43.900
G23  24903729.828 6 130870005.152 6        39.100    24903740.430 2 101976663.47842        17.800
G06  22692232.320 7 119248568.254 7        44.300    22692244.016 5  92921068.81745        30.000
> 2013  6 15  4  4  0.0000000  0 32
G21  25037691.797 5 131573978.571 5        34.400    25037705.098 2 102525221.87542        17.800
G16  21696754.805 8 114017323.104 8        49.700    21696763.395 6  88844736.55946        37.400
G31  20896715.234 8 109813236.397 8        51.200    20896723.277 7  85568669.72147        43.900    20896723.301 8  85568671.722 8        49.400
G25  25161691.64114 132225585.66114        29.400    25161709.37913 103032975.42353        18.300    25161708.99216 103032975.48016        37.100    25161710.93417  98739928.27717        42.700
G03  24672522.984 6 129655016.096 6        38.200    24672540.223 3 101029975.17543        20.600
G32  24275516.281 6 127568684.688 6        41.900    24275530.063 3  99404230.04243        22.800
G20  24934784.742 5 131033152.460 5        34.400    24934797.328 3 102103800.34243        19.900
G14  22108590.523 7 116181391.686 7        44.800    22108600.824 5  90531051.87645        31.600
G29  22459688.750 7 118026511.948 7        45.900    22459698.168 5  91968785.19645        33.700    22459697.938 7  91968779.194 7        43.800
G23  24883789.320 6 130765214.505 6        39.200    24883798.488 3 101895008.41543        19.000
G06  22672201.516 7 119143304.897 7        44.900    22672213.125 4  92839045.54144        29.800
> 2013  6 15  4  4 30.0000000  0 32
G21  25028383.211 5 131525064.272 5        33.300    25028396.594 2 102487106.96242        16.900
G16  21687857.484 8 113970566.851 8        49.600    21687866.387 6  88808303.15646        37.000
G31  20896636.039 8 109812820.098 8        50.700    20896644.254 7  85568345.32747        43.900    20896643.988 8  85568347.328 8        49.800
G25  25178373.00815 132313233.08615        34.300    25178388.06312 103101272.06552        17.400    25178387.67616 103101272.07616        38.800    25178389.67617  98805379.16117        43.200
G03  24650211.969 6 129537770.310 6        37.500    24650228.594 3 100938615.31543        19.300
G32  24283953.977 6 127613022.227 6        41.000    24283966.457 4  99438778.66344        25.600
G20  24939397.313 6 131057393.761 6        38.300    24939409.316 3 102122689.54443        19.000
G14  22126280.781 7 116274352.955 7        44.900    22126291.324 5  90603489.13845        32.800
G29  22472184.859 7 118092183.732 7        45.900    22472194.941 5  92019957.97545        33.900    22472194.484 7  92019951.967 7        43.900
G23  24863877.039 6 130660567.643 6        40.500    24863884.777 3 101813465.53143        19.600
G06  22652212.430 7 119038262.513 7        44.400    22652224.051 5  92757194.45745        30.000
> 2013  6 15  4  5  0.0000000  0 33
G21  25019079.813 5 131476178.141 5        35.200    25019094.688 2 102449013.92742        16.300
G16  21679022.820 8 113924141.993 8        49.900    21679032.004 6  88772127.98046        37.300
G31  20896595.023 8 109812602.767 8        51.500    20896603.445 7  85568175.97247        43.900    20896603.273 8  85568177.972 8        49.600
G25  25195033.39815 132400785.29015        33.400    25195048.53912 103169494.50952        17.800    25195047.83216 103169494.50516        37.800    25195049.85917  98870758.96917        42.800
G03  24627904.398 6 129420549.733 6        37.100    24627921.402 3 100847275.05343        19.000
G32  24292443.250 7 127657630.684 7        42.400    24292455.242 4  99473538.40044        25.400
G20  24944080.477 6 131082004.242 6        37.900    24944092.855 3 102141866.48643        18.600
G14  22144032.320 7 116367635.990 7        44.900    22144042.781 5  90676177.11845        32.500
G29  22484767.484 7 118158305.120 7        46.700    22484777.453 5  92071481.11345        34.400    22484777.262 7  92071475.103 7        44.000
G23  24843990.094 6 130556067.167 6        38.100    24843999.758 3 101732036.64243        19.600
G06  22632266.242 7 118933443.511 7        44.100    22632277.574 5  92675517.42845        30.300
> 2013  6 15  4  5 30.0000000  0 32
G21  25009783.375 6 131427322.248 6        36.800    25009796.848 2 102410944.53642        16.900
G16  21670251.766 8 113878047.890 8        51.000    21670260.594 6  88736210.53746        37.600
G31  20896591.688 8 109812585.321 8        51.600    20896599.746 7  85568162.37047        43.800    20896599.508 8  85568164.371 8        49.600
G25  25211677.758 6 132488241.354 6        37.100    25211690.773 3 103237642.00143        18.600    25211690.508 6 103237642.019 6        36.600    25211691.918 6  98936066.996 6        41.500
G03  24605603.234 6 129303356.427 6        38.700    24605619.035 3 100755956.03243        18.600
G32  24300982.445 7 127702507.272 7        42.000    24300995.973 4  99508507.04144        25.000
G20  24948834.336 6 131106981.557 6        38.300    24948845.832 3 102161329.23143        19.900
G14  22161843.836 7 116461238.341 7        45.100    22161855.004 5  90749113.91045        32.700
G29  22497434.953 7 118224873.383 7        45.800    22497445.426 5  92123352.46145        33.900    22497444.859 7  92123346.445 7        43.200
G23  24824132.352 6 130451715.186 6        38.300    24824142.289 3 101650723.51343        18.600
G06  22612362.820 7 118828850.213 7        44.100    22612373.926 4  92594016.25744        29.400
> 2013  6 15  4  6  0.0000000  0 33
G21  25000492.242 6 131378499.656 6        36.400    25000507.266 2 102372901.02242        16.900
G16  21661543.305 8 113832284.810 8        49.700    21661552.516 6  88700551.04546        37.400
G31  20896626.391 8 109812769.364 8        52.100    20896634.242 7  85568305.76947        44.600    20896634.070 8  85568307.770 8        49.900
G25  25228300.953 5 132575601.346 5        34.300    25228314.477 2 103305714.66942        16.900    25228315.027 5 103305714.674 5        35.900    25228316.090 6  99001303.299 6        40.500
G03  24583307.984 6 129186193.044 6        37.300    24583323.781 3 100664660.27743        19.900
G32  24309572.992 7 127747650.168 7        42.400    24309586.586 4  99543683.22344        25.600
G20  24953655.773 6 131132324.023 6        37.700    24953668.996 3 102181076.50943        19.300
G14  22179716.891 7 116555158.441 7        45.100    22179727.793 5  90822298.29845        32.700
G29  22510187.422 7 118291886.913 7        46.700    22510197.395 5  92175570.76445        34.300    22510196.898 7  92175564.753 7        43.100
G23  24804304.641 6 130347515.046 6        40.800    24804313.910 3 101569528.66843        21.700
G06  22592502.156 7 118724486.020 7        43.800    22592514.250 5  92512693.60945        30.500
> 2013  6 15  4  6 30.0000000  0 33
G21  24991209.086 6 131329712.943 6        36.100    24991223.668 3 102334885.49643        18.300
G16  21652897.547 8 113786852.324 8        50.200    21652906.516 6  88665149.14346        37.700
G31  20896700.406 8 109813156.140 8        52.100    20896708.344 7  85568607.15847        44.000    20896708.191 8  85568609.151 8        49.600
G25  25244906.844 5 132662864.787 5        35.700    25244920.172 2 103373712.09842        15.600    25244920.813 5 103373712.154 5        35.000    25244922.488 6  99066467.527 6        40.500
G03  24561017.188 5 129069062.222 5        35.200    24561035.047 3 100573390.00543        19.300
G32  24318213.258 6 127793057.046 6        41.000    24318227.109 3  99579065.06543        23.600
G20  24958548.469 5 131158030.291 5        35.200    24958560.672 3 102201107.26143        19.900
G14  22197649.328 7 116649394.085 7        45.700    22197660.047 5  90895728.56245        33.000
G29  22523024.008 7 118359344.065 7        46.500    22523034.008 5  92228134.76545        34.100    22523033.789 7  92228128.747 7        43.000
G23  24784504.758 6 130243469.625 6        39.000    24784514.590 3 101488454.41943        19.600
G06  22572686.586 7 118620353.958 7        44.600    22572698.266 5  92431551.84145        30.400
> 2013  6 15  4  7  0.0000000  0 32
G21  24981931.438 6 131280964.409 6        36.300    24981947.238 2 102296899.67742        17.400
G16  21644314.844 8 113741749.991 8        50.200    21644323.703 6  88630004.51746        37.200
G31  20896812.719 8 109813746.906 8        51.500    20896820.590 7  85569067.48447        43.700    20896820.535 8  85569069.478 8        49.600
G25  25261492.938 5 132750031.084 5        34.700    25261508.047 2 103441633.90242        16.900    25261507.926 6 103441633.876 6        36.600    25261509.191 6  99131559.163 6        41.800
G03  24538735.094 6 128951966.484 6        38.100    24538751.750 3 100482147.05343        22.000
G32  24326904.508 6 127838725.546 6        41.600    24326917.180 3  99614650.79543        23.200
G20  24963509.078 5 131184098.365 5        33.900    24963521.586 3 102221419.91443        18.600
G14  22215641.422 7 116743942.697 7        45.200    22215652.215 5  90969402.70445        32.700
G29  22535944.938 7 118427242.003 7        47.100    22535954.801 5  92281042.22345        34.100    22535954.402 7  92281036.206 7        42.800
G23  24764734.094 6 130139581.954 6        38.800    24764744.699 3 101407503.02143        18.600
G06  22552915.031 7 118516456.569 7        44.600    22552927.148 5  92350592.93445        31.300
> 2013  6 15  4  7 30.0000000  0 32
G21  24972663.438 6 131232256.606 6        37.200    24972678.625 2 102258945.66042        17.400
G16  21635795.141 8 113696977.580 8        50.300    21635803.695 6  88595116.96046        37.800
G31  20896964.359 8 109814542.430 8        51.500    20896972.348 7  85569687.36147        43.800    20896972.285 8  85569689.361 8        49.800
G25  25278061.219 5 132837099.424 5        31.200    25278076.621 2 103509479.29342        15.600    25278076.910 6 103509479.291 6        36.000    25278078.410 6  99196577.681 6        41.100
G03  24516459.883 6 128834907.793 6        38.800    24516475.340 3 100390932.91743        20.100
G32  24335643.711 6 127884653.039 6        41.000    24335657.215 4  99650438.33644        24.900
G20  24968538.164 6 131210525.834 6        36.600    24968550.809 3 102242012.66843        18.300
G14  22233692.375 7 116838801.812 7        45.800    22233703.469 5  91043318.79145        32.600
G29  22548949.078 7 118495579.011 7        46.800    22548958.691 5  92334291.79545        34.200    22548958.504 7  92334285.777 7        42.600
G23  24744996.188 6 130035853.782 6        39.700    24745006.074 3 101326675.99643        20.400
G06  22533189.570 7 118412796.545 7        45.000    22533201.754 5  92269818.98145        30.400
> 2013  6 15  4  8  0.0000000  0 32
G21  24963402.852 5 131183591.025 5        35.000    24963416.191 2 102221024.50742        15.600
G16  21627337.492 8 113652533.936 8        49.900    21627346.199 6  88560485.58146        37.500
G31  20897154.313 8 109815542.940 8        53.100    20897162.613 7  85570466.96847        44.300    20897162.371 8  85570468.969 8        50.200
G25  25294611.141 5 132924068.703 5        31.800    25294626.520 2 103577247.48042        15.600    25294626.492 6 103577247.513 6        36.900    25294628.309 7  99261522.196 7        42.200
G03  24494190.836 6 128717887.928 6        37.800    24494206.102 2 100299748.98142        17.800
G32  24344432.625 6 127930836.198 6        41.100    24344445.832 3  99686425.09043        22.500
G20  24973635.211 6 131237310.125 6        36.000    24973647.695 3 102262883.43943        18.300
G14  22251802.273 7 116933968.066 7        45.500    22251812.996 5  91117474.21745        32.600
G29  22562036.133 7 118564351.220 7        47.100    22562045.250 5  92387880.49345        34.400    22562045.250 7  92387874.488 7        42.300
G23  24725288.141 6 129932287.345 6        38.600    24725298.059 3 101245974.96443        21.300
G06  22513509.195 7 118309375.878 7        44.900    22513521.156 5  92189231.54545        30.900
> 2013  6 15  4  8 30.0000000  0 32
G21  24954149.625 6 131134970.661 6        36.000    24954164.270 2 102183138.61142        16.300
G16  21618942.883 8 113608418.673 8        50.500    21618951.305 6  88526110.08746        37.500
G31  20897384.328 8 109816750.028 8        53.000    20897392.582 7  85571407.54547        43.900    20897392.250 8  85571409.546 8        49.600
G25  25311140.680 5                        31.200
G03  24471929.367 6 128600909.470 6        36.900    24471945.941 3 100208597.37043        20.100
G32  24353269.156 6 127977272.888 6        40.500    24353282.379 3  99722609.39343        22.200
G20  24978799.383 5 131264449.444 5        34.100    24978812.719 3 102284030.84043        18.300
G14  22269970.219 7 117029439.755 7        45.800    22269981.113 5  91191867.63245        31.900
G29  22575205.547 7 118633556.959 7        47.300    22575214.926 5  92441807.01545        35.300    22575214.492 7  92441801.003 7        42.400
G23  24705611.570 6 129828885.720 6        39.100    24705621.457 3 101165402.38843        20.900
G06  22493874.914 7 118206197.480 7        45.500    22493886.930 5  92108832.89345        31.300
> 2013  6 15  4  9  0.0000000  0 33
G21  24944906.188 5 131086398.324 5        34.500    24944920.641 2 102145290.20442        15.600
G16  21610610.641 8 113564632.284 8        50.900    21610619.094 6  88491990.85646        37.700
G31  20897653.484 8 109818165.404 8        52.100    20897661.789 7  85572510.42247        44.100    20897661.188 8  85572512.423 8        49.800
G25  25327654.85915 133097708.76115        31.800    25327669.28912 103712551.33852        16.900    25327669.30515 103712551.32715        35.100    25327670.78516  99391188.30616        41.500
G03  24449678.117 6 128483975.328 6        38.700    24449693.941 3 100117480.26643        21.500
G32  24362153.094 6 128023961.051 6        40.600    24362166.563 3  99758989.67143        22.300
G20  24984030.500 6 131291942.239 6        36.400    24984044.246 3 102305453.73643        19.000
G14  22288195.547 7 117125214.853 7        46.100    22288205.871 5  91266497.47245        31.700
G29  22588457.188 7 118703194.705 7        47.300    22588466.242 5  92496070.15845        33.600    22588466.383 7  92496064.152 7        42.200
G23  24685965.344 6 129725651.941 6        39.900    24685976.574 3 101084960.54043        19.900
G06  22474287.227 7 118103264.738 7        45.800    22474299.582 5  92028625.65545        31.100
> 2013  6 15  4  9 30.0000000  0 32
G21  24935673.555 6 131037875.919 6        36.100    24935686.910 2 102107480.61142        15.600
G16  21602340.813 8 113521173.441 8        50.300    21602349.461 6  88458126.85746        38.100
G31  20897962.508 8 109819789.394 8        53.000    20897970.738 7  85573775.87247        44.300    20897970.465 8  85573777.866 8        49.600
G25  25344147.164 5 133184378.564 5        35.000    25344161.914 2 103780086.10642        17.800    25344161.770 5 103780086.123 5        35.700    25344164.465 7  99455909.148 7        42.700
G03  24427434.438 6 128367087.354 6        38.900    24427450.660 3 100026399.13543        21.500
G32  24371085.234 6 128070897.939 6        40.000    24371098.641 3  99795563.76443        22.800
G20  24989330.508 5 131319786.378 5        35.800    24989342.301 2 102327150.30742        17.400
G14  22306478.016 7 117221290.381 7        45.500    22306488.762 5  91341361.41445        31.200
G29  22601790.367 7 118773261.676 7        47.600    22601800.082 5  92550667.76345        34.100    22601799.863 7  92550661.753 7        43.000
G23  24666354.313 6 129622588.361 6        40.400    24666363.816 3 101004651.36343        20.400
G06  22454747.141 7 118000579.831 7        45.600    22454759.219 5  91948611.52845        31.400
> 2013  6 15  4 10  0.0000000  0 31
G21  24926449.664 6 130989406.346 6        37.200    24926463.176 2 102069712.17842        15.600
G16  21594133.195 8 113478042.354 8        50.900    21594141.531 6  88424518.26546        38.600
G31  20898311.453 8 109821623.775 8        52.600    20898319.504 7  85575205.25347        44.900    20898319.633 8  85575207.254 8        49.500
G25  25360619.789 5 133270947.657 5        34.100    25360634.664 2 103847542.54642        14.800    25360634.469 5 103847542.481 5        32.900    25360637.922 6  99520554.831 6        40.400
G03  24405199.188 6 128250248.055 6        37.500    24405216.000 3  99935355.91743        19.900
G32  24380064.266 6 128118081.253 6        40.900    24380076.809 3  99832329.84243        21.700
G20  24994695.242 5 131347979.644 5        34.400    24994708.309 2 102349118.91842        17.800
G14  22324817.188 7 117317664.380 7        46.000    22324827.895 5  91416457.92845        30.400
G29  22615204.859 7 118843755.901 7        47.300    22615215.203 5  92605598.28145        35.200    22615214.594 7  92605592.270 7        43.800
G23  24646775.273 6 129519697.780 6        40.400    24646784.656 3 100924476.97243        19.900
G06  22435254.352 7 117898145.830 7        46.600    22435266.410 5  91868792.90845        31.900
> 2013  6 15  4 10 30.0000000  0 32
G21  24917236.641 6 130940991.961 6        37.000    24917250.418 2 102031986.81042        16.900
G16  21585987.656 8 113435238.404 8        50.900    21585996.238 6  88391164.58246        38.400
G31  20898700.539 8 109823669.362 8        52.700    20898708.906 7  85576799.21247        43.400    20898708.418 8  85576801.213 8        49.800
G25  25377075.148 6 133357415.714 6        36.700    25377089.766 2 103914920.12642        15.600    25377089.910 5 103914920.107 5        35.900    25377092.492 7  99585125.050 7        42.400
G03  24382976.000 6 128133460.063 6        38.800    24382991.742 3  99844352.64143        21.500
G32  24389089.281 6 128165508.577 6        40.800    24389101.512 3  99869286.09343        21.300
G20  25000125.797 5 131376520.284 5        32.800    25000138.891 2 102371358.26242        17.400
G14  22343212.773 7 117414334.313 7        46.000    22343223.605 5  91491785.06245        31.000
G29  22628700.352 7 118914675.025 7        47.200    22628710.762 5  92660859.88945        34.800    22628710.418 7  92660853.879 7        43.700
G23  24627228.234 6 129416982.933 6        39.700    24627237.781 3 100844439.51643        19.900
G06  22415810.172 7 117795965.400 7        46.600    22415822.199 5  91789171.88245        31.000
> 2013  6 15  4 11  0.0000000  0 31
G21  24908034.523 6 130892634.655 6        37.700    24908048.234 2 101994305.91142        17.800
G16  21577904.000 8 113392760.792 8        51.000    21577912.703 6  88358065.19046        38.300
G31  20899130.352 8 109825927.000 8        52.100    20899138.867 7  85578558.40147        44.400    20899138.617 8  85578560.402 8        49.900
G25  25393509.453 6 133443781.642 6        37.600    25393524.867 2 103982218.16942        16.900    25393524.512 5 103982218.150 5        34.800    25393527.008 7  99649618.990 7        42.200
G03  24360761.867 6 128016725.347 6        38.900    24360777.496 3  99753390.92543        21.700
G32  24398160.352 6 128213176.678 6        40.700    24398172.672 3  99906429.94043        20.400
G20  25005623.516 5 131405405.469 5        33.500    25005635.090 3 102393866.09643        18.300
G14  22361663.977 7 117511297.185 7        45.200    22361675.242 5  91567340.44145        30.700
G29  22642276.492 7 118986016.278 7        47.700    22642286.227 5  92716450.43045        34.600    22642285.922 7  92716444.428 7        43.400
G23  24607716.875 6 129314446.288 6        41.000    24607726.441 3 100764540.93343        21.300
G06  22396414.445 7 117694040.650 7        46.400    22396426.422 5  91709750.09645        32.400
> 2013  6 15  4 11 30.0000000  0 31
G21  24898844.672 6 130844338.172 6        38.400    24898858.441 3 101956672.35143        18.300
G16  21569883.219 8 113350609.957 8        51.200    21569892.078 6  88325220.42546        38.300
G31  20899600.867 8 109828398.591 8        51.200    20899609.316 7  85580484.30247        44.300    20899609.051 8  85580486.303 8        49.900
G25  25409925.07815 133530045.89015        35.300    25409941.33612 104049436.85552        16.300    25409940.45716 104049436.90316        36.000    25409942.36316  99714036.96016        41.800
G03  24338558.688 6 127900046.947 6        39.200    24338573.934 3  99662473.10243        21.700
G32  24407276.320 6 128261084.180 6        40.000    24407289.215 3  99943760.34943        21.100
G20  25011184.938 5 131434634.011 5        33.100    25011197.754 2 102416641.43442        17.400
G14  22380171.039 7 117608551.936 7        44.700    22380182.016 4  91643123.24444        29.400
G29  22655932.305 7 119057778.193 7        47.100    22655942.531 5  92772368.75545        34.300    22655941.859 7  92772362.749 7        43.400
G23  24588238.836 6 129212091.185 6        40.400    24588248.340 3 100684783.79243        18.300
G06  22377068.227 7 117592375.557 7        46.800    22377079.727 5  91630530.62945        30.900
> 2013  6 15  4 12  0.0000000  0 31
G21  24889665.586 6 130796103.608 6        38.100    24889679.141 2 101919087.10242        17.400
G16  21561924.172 8 113308784.162 8        50.600    21561932.695 6  88292628.94746        38.700
G31  20900111.813 8 109831083.841 8        51.000    20900119.605 7  85582576.69947        43.900    20900119.723 8  85582578.700 8        49.300
G25  25426321.586 6 133616206.636 6        36.900    25426337.258 3 104116575.12243        18.300    25426336.102 6 104116575.117 6        36.600    25426337.820 7  99778377.726 7        42.500
G03  24316366.320 6 127783425.934 6        38.300    24316380.902 3  99571599.94743        21.500
G32  24416437.875 6 128309227.189 6        40.200    24416451.016 3  99981274.26943        21.500
G20  25016811.59415 131464202.45015        34.200    25016825.15612 102439681.62052        16.900
G14  22398733.109 7 117706094.153 7        45.000    22398743.984 5  91719130.06645        30.700
G29  22669667.063 7 119129957.022 7        47.700    22669677.738 5  92828611.95445        35.100    22669677.305 7  92828605.944 7        44.100
G23  24568796.023 6 129109919.089 6        40.500    24568805.777 3 100605169.24243        20.900
G06  22357771.742 7 117490971.299 7        46.900    22357782.984 5  91551514.41345        31.700
> 2013  6 15  4 12 30.0000000  0 31
G21  24880499.109 6 130747934.151 6        37.300    24880512.617 2 101881552.51942        17.400
G16  21554026.719 8 113267283.556 8        51.500    21554035.305 6  88260290.85546        38.400
G31  20900663.734 8 109833984.758 8        52.100    20900672.090 7  85584837.15047        44.500    20900671.770 8  85584839.144 8        49.800
G03  24294185.125 6 127666865.526 6        39.200    24294200.199 3  99480773.95343        20.400
G32  24425644.859 6 128357603.980 6        41.600    24425657.785 3 100018970.34843        22.200
G20  25022503.883 5 131494109.735 5        35.900    25022515.793 3 102462985.88743        18.300
G14  22417349.102 7 117803922.355 7        45.300    22417360.387 5  91795359.71845        30.700
G29  22683481.586 7 119202551.196 7        47.200    22683492.125 5  92885178.79445        34.700    22683491.680 7  92885172.784 7        44.200
G23  24549389.109 6 129007933.395 6        37.900    24549398.398 3 100525700.01843        19.000
G06  22338524.984 7 117389831.394 7        46.200    22338536.531 5  91472704.18245        32.300
> 2013  6 15  4 13  0.0000000  0 30
G21  24871344.648 6 130699832.346 6        37.600    24871358.875 2 101844070.65942        17.400
G16  21546191.461 8 113226107.898 8        50.600    21546199.848 6  88228205.96746        38.500
G31  20901256.906 8 109837102.680 8        52.400    20901265.461 7  85587266.68647        44.000    20901265.047 8  85587268.687 8        49.900
G03  24272016.391 6 127550368.242 6        40.000    24272031.594 3  99389997.15243        21.800
G32  24434894.891 7 128406212.331 7        42.200    24434907.602 3 100056846.88843        22.200
G20  25028258.031 5 131524353.799 5        34.900    25028272.230 3 102486552.50843        18.300
G14  22436019.586 7 117902034.422 7        44.900    22436030.414 5  91871810.56745        31.000
G29  22697374.688 7 119275558.793 7        47.200    22697384.586 5  92942067.79045        34.800    22697384.156 7  92942061.783 7        43.900
G23  24530017.523 6 128906137.279 6        40.200    24530026.207 3 100446378.39843        18.600
G06  22319329.250 7 117288958.765 7        46.300    22319340.879 5  91394102.22245        32.100
> 2013  6 15  4 13 30.0000000  0 30
G21  24862205.266 6 130651799.865 6        36.900    24862219.590 2 101806642.87442        17.400
G16  21538417.258 8 113185256.365 8        50.000    21538425.336 6  88196373.64946        38.600
G31  20901891.344 8 109840437.787 8        52.400    20901899.867 7  85589865.46747        43.800    20901899.461 8  85589867.468 8        49.800
G03  24249859.758 6 127433935.917 6        40.800    24249875.090 3  99299271.03643        23.000
G32  24444188.305 6 128455048.912 6        41.600    24444201.656 3 100094901.24143        22.200
G20  25034077.078 5 131554931.946 5        34.500    25034090.344 3 102510379.53343        18.600
G14  22454743.211 7 118000427.028 7        45.600    22454753.750 5  91948480.01245        30.000
G29  22711345.617 7 119348976.854 7        47.000    22711355.305 5  92999276.63145        34.700    22711354.711 7  92999270.616 7        44.000
G23  24510682.258 6 128804532.505 6        39.100    24510691.488 3 100367205.93343        19.900
G06  22300185.117 7 117188355.299 7        46.000    22300197.160 5  91315710.00545        32.200
> 2013  6 15  4 14  0.0000000  0 30
G21  24853078.125 5 130603839.427 5        35.300    24853092.555 2 101769271.13342        17.800
G16  21530705.109 8 113144727.759 8        50.300    21530713.727 6  88164792.95546        38.400
G31  20902567.805 8 109843991.393 8        52.000    20902576.520 7  85592634.49347        43.700    20902576.281 8  85592636.500 8        50.000
G03  24227715.938 6 127317570.783 6        41.300    24227730.781 3  99208597.23243        22.600
G32  24453524.297 7 128504111.043 7        42.000    24453537.781 4 100133131.33644        24.100
G20  25039959.867 6 131585841.759 6        38.100    25039972.484 3 102534464.93543        18.300
G14  22473519.508 7 118099098.061 7        45.400    22473530.273 4  92025366.42544        29.500
G29  22725394.398 7 119422802.503 7        46.600    22725404.094 5  93056803.07045        34.900    22725403.742 7  93056797.059 7        44.000
G23  24491384.734 6 128703121.863 6        39.700    24491394.160 3 100288184.71043        21.700
G06  22281092.789 7 117088023.540 7        45.500    22281104.148 5  91237529.51245        31.300
> 2013  6 15  4 14 30.0000000  0 30
G21  24843965.109 5 130555953.280 5        35.400    24843980.207 2 101731957.29342        16.900
G16  21523054.094 8 113104521.598 8        50.500    21523062.473 6  88133463.51246        38.000
G31  20903286.047 8 109847764.483 8        51.500    20903294.105 7  85595574.54547        43.600    20903293.813 8  85595576.546 8        49.600
G03  24205584.422 6 127201275.128 6        40.500    24205599.883 3  99117977.56143        20.100
G32  24462902.977 6 128553396.130 6        41.700    24462915.852 3 100171535.17743        22.300
G20  25045904.148 6 131617081.122 6        36.000    25045917.414 3 102558807.19743        18.300
G14  22492349.234 7 118198044.492 7        45.600    22492359.777 5  92102467.44245        30.600
G29  22739519.797 7 119497033.417 7        46.400    22739530.238 5  93114645.31045        34.600    22739529.629 7  93114639.305 7        44.500
G23  24472123.602 6 128601907.883 6        37.300    24472133.898 3 100209316.73543        19.000
G06  22262052.273 7 116987966.229 7        45.900    22262063.633 5  91159562.85445        33.400
> 2013  6 15  4 15  0.0000000  0 30
G21  24834867.805 5 130508144.920 5        35.900    24834882.285 3 101694704.15143        18.600
G16  21515464.508 8 113064638.816 8        50.700    21515473.199 6  88102386.05646        38.600
G31  20904046.016 8 109851759.366 8        52.700    20904054.699 7  85598687.42847        43.200    20904054.703 8  85598689.428 8        49.800
G03  24183469.070 6 127085052.466 6        41.500    24183483.688 3  99027414.74843        22.800
G32  24472323.914 6 128602902.786 6        41.700    24472337.891 3 100210111.65243        23.300
G20  25051911.102 5 131648648.934 5        33.000    25051925.223 2 102583405.31242        15.600
G14  22511229.398 7 118297265.142 7        45.000    22511240.895 4  92179782.10544        29.800
G29  22753722.359 7 119571668.564 7        46.200    22753733.082 5  93172802.53145        34.800    22753732.582 7  93172796.521 7        44.400
G23  24452903.383 6 128500894.532 6        41.700    24452911.660 3 100130605.11243        21.800
G06  22243065.281 7 116888187.039 7        45.700    22243076.504 5  91081812.92445        32.600
> 2013  6 15  4 15 30.0000000  0 30
G21  24825785.688 6 130460415.714 6        36.400    24825798.652 2 101657512.70642        16.900
G16  21507936.305 8 113025077.662 8        50.300    21507944.938 6  88071559.21446        38.600
G31  20904848.719 8 109855975.746 8        52.800    20904856.414 7  85601972.89347        43.500    20904856.391 8  85601974.894 8        50.000
G03  24161366.180 6 126968903.824 6        41.400    24161381.145 3  98936909.62843        23.400
G32  24481786.289 6 128652627.139 6        40.700    24481799.555 3 100248857.76943        22.800
G20  25057980.875 5 131680541.749 5        33.500    25057993.602 2 102608256.74742        14.800
G14  22530162.375 7 118396756.260 7        44.500    22530173.727 5  92257307.52345        30.200
G29  22768000.953 7 119646703.928 7        45.400    22768011.996 5  93231271.60745        34.600    22768011.527 7  93231265.596 7        44.200
G23  24433718.008 6 128400083.011 6        40.400    24433727.238 3 100052050.75543        20.100
G06  22224131.227 7 116788687.584 7        46.100    22224142.426 5  91004280.97545        32.300
> 2013  6 15  4 16  0.0000000  0 30
G21  24816718.641 6 130412768.456 6        36.700    24816731.898 2 101620384.99142        16.900
G16  21500469.148 8 112985837.710 8        50.900    21500478.117 6  88040982.66246        38.700
G31  20905693.391 8 109860414.794 8        53.400    20905701.406 7  85605431.87147        44.600    20905701.211 8  85605433.872 8        49.300
G03  24139278.055 6 126852832.129 6        41.600    24139292.887 3  98846464.48943        22.800
G32  24491290.445 6 128702566.945 6        40.600    24491303.230 3 100287771.76143        22.300
G20  25064111.266 5 131712757.560 5        33.900    25064125.449 2 102633359.78342        16.900
G14  22549146.531 7 118496515.653 7        46.300    22549157.520 5  92335042.01045        30.000
G29  22782355.625 7 119722137.638 7        46.600    22782366.578 5  93290051.09245        33.600    22782366.016 7  93290045.082 7        44.300
G23  24414573.508 6 128299476.593 6        40.400    24414582.656 3  99973656.16143        22.300
G06  22205250.852 7 116689470.662 7        47.300    22205261.680 5  90926969.17145        33.200
> 2013  6 15  4 16 30.0000000  0 30
G21  24807666.891 6 130365205.288 6        36.400    24807680.781 2 101583322.88242        17.800
G16  21493062.617 8 112946917.981 8        51.000    21493071.418 6  88010655.63246        38.700
G31  20906580.414 8 109865078.042 8        52.500    20906588.660 7  85609065.55247        44.100    20906588.320 8  85609067.553 8        49.500
G03  24117205.742 6 126736839.821 6        40.800    24117219.883 3  98756081.20643        22.900
G32  24500833.539 6 128752719.677 6        39.700    24500847.035 3 100326851.67443        22.200
G20  25070303.164 5 131745294.279 5        35.800    25070315.684 2 102658712.92742        16.300
G14  22568180.656 7 118596540.729 7        45.800    22568191.738 4  92412983.51844        29.700
G29  22796785.742 7 119797967.390 7        46.400    22796795.770 5  93349139.17545        33.500    22796795.391 7  93349133.167 7        44.100
G23  24395468.539 6 128199077.965 6        38.200    24395478.355 3  99895423.58343        21.100
G06  22186424.742 7 116590539.066 7        47.600    22186435.711 5  90849879.70045        33.500
> 2013  6 15  4 17  0.0000000  0 30
G21  24798632.688 6 130317729.270 6        36.000    24798645.957 2 101546328.66842        16.900
G16  21485717.609 8 112908318.817 8        51.200    21485726.125 6  87980578.38646        38.400
G31  20907511.070 8 109869966.689 8        53.400    20907519.223 7  85612874.86947        43.700    20907518.859 8  85612876.870 8        50.200
G03  24095148.336 6 126620929.342 6        41.000    24095162.145 3  98665761.60743        22.300
G32  24510416.563 6 128803083.069 6        38.300    24510429.996 3 100366095.72443        22.200
G20  25076554.852 5 131778149.939 5        34.500    25076568.238 2 102684314.57442        16.300
G14  22587264.859 7 118696829.140 7        45.400    22587276.445 5  92491130.20145        30.800
G29  22811290.375 7 119874190.831 7        45.900    22811300.801 5  93408534.03745        33.700    22811300.367 7  93408528.022 7        43.700
G23  24376403.523 6 128098890.124 6        39.700    24376412.000 3  99817355.18643        22.600
G06  22167653.516 7 116491895.662 7        46.800    22167664.734 5  90773014.79745        33.500
> 2013  6 15  4 17 30.0000000  0 32
G21  24789615.680 6 130270341.897 6        37.700    24789629.453 2 101509403.46442        17.800
G16  21478433.188 8 112870038.668 8        51.200    21478441.813 6  87950749.72946        38.800
G31  20908484.445 8 109875081.108 8        52.500    20908492.582 7  85616860.10947        44.300    20908492.445 8  85616862.110 8        49.300
G03  24073106.438 6 126505102.202 6        39.800    24073120.742 3  98575506.97443        21.800
G32  24520041.039 6 128853653.686 6        39.600    24520053.895 3 100405501.24043        21.300
G20  25082867.086 5 131811321.546 5        34.100    25082881.090 2 102710162.39242        16.900
G14  22606398.281 7 118797377.902 7        45.200    22606410.297 5  92569479.75745        30.100
G29  22825869.516 7 119950804.584 7        46.800    22825880.449 5  93468233.02745        33.600    22825879.844 7  93468227.017 7        43.800
G23  24357378.313 6 127998915.020 6        40.000    24357387.754 3  99739452.59243        21.800
G06  22148937.031 7 116393542.210 7        47.400    22148948.715 5  90696375.83745        33.600
> 2013  6 15  4 18  0.0000000  0 31
G21  24780615.945 6 130223045.768 6        38.300    24780629.352 3 101472549.40043        19.300
G16  21471209.563 8 112832077.141 8        50.900    21471217.965 6  87921169.34046        39.300
G31  20909500.609 8 109880422.667 8        52.000    20909508.555 7  85621022.34447        43.900    20909508.328 8  85621024.344 8        49.600
G03  24051082.297 6 126389361.081 6        40.500    24051095.738 3  98485319.41343        23.000
G32  24529702.617 6 128904429.170 6        38.500    24529716.340 3 100445066.42143        20.900
G20  25089239.617 5 131844806.916 5        35.200    25089253.453 2 102736254.71442        17.400
G14  22625581.563 7 118898184.414 7        44.800    22625593.422 4  92648030.15844        29.600
G29  22840522.570 7 120027806.309 7        46.000    22840533.180 5  93528234.32645        33.500    22840532.855 7  93528228.316 7        43.100
G23  24338395.391 6 127899155.503 6        41.200    24338403.945 3  99661717.95243        22.000
G06  22130276.883 7 116295481.483 7        46.500    22130288.188 5  90619964.96245        33.700
> 2013  6 15  4 18 30.0000000  0 31
G21  24771632.633 6 130175844.197 6        38.100    24771646.273 2 101435769.02942        16.300
G16  21464046.180 8 112794434.497 8        51.100    21464054.441 6  87891837.43346        39.300
G31  20910560.625 8 109885993.174 8        52.800    20910569.520 7  85625362.98047        43.900    20910569.152 8  85625364.974 8        49.600
G03  24029074.523 6 126273708.982 6        40.800    24029088.160 4  98395201.15044        24.900
G32  24539403.563 6 128955407.546 6        39.600    24539417.395 3 100484789.69343        22.200
G20  25095671.953 6 131878604.625 6        38.000    25095684.645 2 102762590.43242        16.900
G14  22644813.305 7 118999246.987 7        44.100    22644824.230 4  92726780.09144        28.300
G29  22855249.453 7 120105194.629 7        46.000    22855259.410 5  93588536.88745        32.700    22855259.133 7  93588530.881 7        43.000
G23  24319452.766 6 127799614.912 6        38.100    24319462.008 3  99584153.90243        19.900
G06  22111672.469 7 116197716.965 7        46.700    22111684.438 5  90543784.90045        33.800
> 2013  6 15  4 19  0.0000000  0 32
G21  24762669.406 6 130128738.627 6        38.200    24762683.648 3 101399063.46143        18.600
G16  21456943.375 8 112757109.010 8        51.200    21456951.988 6  87862752.67546        39.000
G31  20911664.320 8 109891792.733 8        52.000    20911672.965 7  85629882.10247        43.300    20911672.719 8  85629884.103 8        50.000
G03  24007082.719 6 126158147.586 6        40.000    24007096.707 3  98305153.59243        22.500
G32  24549142.547 6 129006585.531 6        39.100    24549156.219 3 100524668.50643        21.300
G20  25102162.242 6 131912711.246 6        38.200    25102176.043 3 102789166.84543        18.300
G14  22664092.477 7 119100562.009 7        44.300    22664104.070 4  92805726.73244        28.100
G29  22870048.922 7 120182966.239 7        45.800    22870058.426 5  93649138.10345        31.900    22870058.305 7  93649132.095 7        42.500
G23  24300552.664 6 127700295.172 6        40.300    24300562.473 3  99506761.96843        23.400
G06  22093125.547 7 116100250.467 7        47.600    22093136.844 5  90467837.05745        34.200
> 2013  6 15  4 19 30.0000000  0 31
G21  24753722.391 6 130081732.653 6        37.000    24753738.336 3 101362435.46543        18.600
G16  21449900.953 8 112720101.127 8        51.200    21449909.145 6  87833915.39346        39.200
G31  20912812.094 8 109897823.285 8        52.700    20912820.160 7  85634581.20947        43.900    20912819.801 8  85634583.210 8        49.600
G03  23985110.313 6 126042680.032 6        38.800    23985123.926 3  98215179.12443        22.600
G32  24558919.852 6 129057961.186 6        38.800    24558933.180 3 100564701.33943        21.500
G20  25108710.055 5 131947125.653 5        34.800    25108724.277 3 102815983.06043        18.300
G14  22683420.281 7 119202127.874 7        45.000    22683432.305 4  92884868.83044        29.600
G29  22884921.031 7 120261119.411 7        45.100    22884931.414 5  93710036.65845        31.700    22884930.988 7  93710030.647 7        42.600
G23  24281695.102 6 127601200.056 6        39.100    24281704.852 3  99429545.09443        21.700
G06  22074635.313 7 116003085.337 7        47.900    22074646.813 5  90392124.03245        34.200
> 2013  6 15  4 20  0.0000000  0 32
G21  24744797.586 6 130034827.811 6        37.300    24744812.574 2 101325886.39942        17.400
G16  21442919.023 8 112683409.351 8        50.100    21442927.262 6  87805324.43346        39.500
G31  20914003.641 8 109904085.305 8        53.000    20914012.059 7  85639460.68947        44.200    20914012.172 8  85639462.689 8        49.300
G03  23963154.813 6 125927308.253 6        40.400    23963168.777 3  98125279.30843        22.900
G32  24568733.391 6 129109531.256 6        39.900    24568746.527 3 100604885.69443        22.200
G20  25115318.258 6 131981844.788 6        37.500    25115331.934 3 102843036.78443        18.600
G14  22702794.938 7 119303941.259 7        45.200    22702806.641 4  92964203.80144        29.600
G29  22899864.656 7 120339650.663 7        44.400    22899874.863 5  93771229.78445        31.600    22899874.730 7  93771223.781 7        43.000
G23  24262882.195 6 127502331.640 6        39.200    24262890.758 3  99352504.82943        23.500
G06  22056203.016 7 115906223.362 7        46.400    22056214.832 5  90316647.25545        34.800
> 2013  6 15  4 20 30.0000000  0 32
G21  24735891.250 6 129988026.959 6        38.000    24735906.531 2 101289418.27942        16.900
G16  21435996.273 8 112647033.396 8        50.100    21436005.254 6  87776979.57146        39.400
G31  20915239.773 8 109910580.249 8        53.200    20915247.918 7  85644521.66747        44.100    20915247.715 8  85644523.661 8        49.300
G03  23941219.695 6 125812034.707 6        40.600    23941233.926 4  98035456.02644        24.900
G32  24578582.992 6 129161293.469 6        39.000    24578596.566 3 100645219.75143        22.000
G20  25121982.234 6 132016866.599 6        37.300    25121996.211 3 102870326.32043        18.300
G14  22722215.711 7 119406000.121 7        45.000    22722227.664 4  93043730.04844        27.700
G29  22914879.977 7 120418558.083 7        43.400    22914890.668 5  93832716.03045        30.400    22914890.445 7  93832710.023 7        42.700
G23  24244111.203 6 127403692.766 6        39.400    24244120.273 3  99275643.43743        22.200
G06  22037828.992 7 115809667.617 7        47.700    22037840.477 5  90241409.09345        34.500
> 2013  6 15  4 21  0.0000000  0 31
G21  24727006.539 6 129941331.761 6        38.900    24727020.531 3 101253032.52443        19.000
G16  21429134.555 8 112610971.850 8        50.900    21429143.313 6  87748879.68846        39.400
G31  20916520.164 8 109917308.458 8        53.000    20916528.129 7  85649764.40747        43.800    20916528.133 8  85649766.408 8        49.500
G03  23919302.680 6 125696861.097 6        39.400    23919315.996 4  97945710.59944        24.700
G32  24588469.508 6 129213244.423 6        39.400    24588483.094 3 100685700.88843        22.600
G20  25128703.617 6 132052188.207 6        37.300    25128717.145 3 102897849.47343        18.300
G14  22741683.250 7 119508301.189 7        44.900    22741694.625 4  93123445.02644        27.700
G29  22929966.578 7 120497838.273 7        43.700    22929977.551 5  93894492.75545        30.900    22929977.137 7  93894486.745 7        42.000
G23  24225384.930 6 127305285.478 6        39.900    24225394.195 3  99198962.48943        23.000
G06  22019513.688 7 115713419.882 7        47.300    22019524.934 5  90166410.93745        34.500
> 2013  6 15  4 21 30.0000000  0 31
G21  24718141.102 6 129894745.914 6        39.400    24718155.570 3 101216731.95643        19.600
G16  21422331.969 8 112575225.209 8        51.200    21422340.746 6  87721025.19146        38.900
G31  20917845.094 8 109924272.290 8        53.000    20917853.121 7  85655190.74647        43.900    20917852.953 8  85655192.746 8        48.700
G03  23897405.211 6 125581790.849 6        39.700    23897419.215 4  97856045.70944        25.300
G32  24598391.141 6 129265382.855 6        39.700    24598404.309 3 100726328.10243        21.300
G20  25135481.922 5 132087808.312 5        34.800    25135495.945 2 102925605.23942        16.900
G14  22761196.539 7 119610842.999 7        44.900    22761207.895 4  93203347.60244        27.200
G29  22945123.859 7 120577490.167 7        42.700    22945134.855 5  93956559.10745        30.100    22945134.492 7  93956553.096 7        42.900
G23  24206703.063 6 127207113.701 6        40.900    24206712.516 3  99122465.10643        22.900
G06  22001257.945 8 115617484.008 8        48.100    22001268.699 5  90091655.79045        34.800
> 2013  6 15  4 22  0.0000000  0 31
G21  24709297.875 6 129848270.743 6        39.800    24709311.340 3 101180517.59743        19.900
G16  21415589.109 8 112539791.927 8        50.500    21415597.500 6  87693414.85746        39.700
G31  20919215.438 8 109931471.675 8        52.900    20919223.266 7  85660800.62947        44.500    20919223.086 8  85660802.630 8        49.100
G03  23875528.188 6 125466825.352 6        39.900    23875541.414 4  97766462.42444        24.200
G32  24608347.391 6 129317704.848 6        39.200    24608361.277 3 100767098.35443        20.900
G20  25142316.508 6 132123723.457 6        38.600    25142330.406 2 102953590.84442        17.800
G14  22780754.828 7 119713621.604 7        44.900    22780766.238 4  93283434.69144        28.300
G29  22960351.227 7 120657509.719 7        43.800    22960362.012 4  94018911.95744        29.700    22960361.602 7  94018905.940 7        42.600
G23  24188067.500 6 127109179.012 6        40.200    24188075.559 3  99046152.40143        23.900
G06  21983061.023 7 115521861.333 7        47.500    21983072.633 5  90017144.69845        35.100
> 2013  6 15  4 22 30.0000000  0 30
G21  24700474.016 6 129801909.229 6        37.200    24700489.273 3 101144391.81743        18.300
G16  21408905.992 8 112504671.937 8        51.900    21408914.520 6  87666048.64746        40.400
G31  20920630.180 8 109938908.591 8        52.700    20920639.031 7  85666595.61847        43.800    20920639.047 8  85666597.611 8        49.100
G03  23853671.016 6 125351967.719 6        40.300    23853685.012 4  97676963.15444        24.800
G32  24618339.078 6 129370208.702 6        39.200    24618352.316 3 100808010.30243        20.400
G20  25149207.250 6 132159932.067 6        37.400    25149221.211 2 102981805.17142        16.900
G14  22800357.852 7 119816635.203 7        43.900    22800369.551 4  93363704.86844        27.900
G29  22975648.430 7 120737895.520 7        44.200    22975658.898 5  94081550.18845        30.300    22975658.574 7  94081544.178 7        42.600
G23  24169476.453 7 127011485.073 7        42.000    24169485.430 4  98970027.35044        24.900
G06  21964924.820 7 115426555.336 7        47.300    21964935.785 5  89942880.35345        35.100
> 2013  6 15  4 23  0.0000000  0 31
G21  24691674.266 6 129755663.707 6        36.800    24691688.016 2 101108356.43742        15.600
G16  21402282.398 8 112469864.888 8        51.200    21402291.383 6  87638926.28846        39.600
G31  20922090.930 8 109946583.643 8        52.800    20922099.230 7  85672576.14547        43.500    20922098.723 8  85672578.146 8        49.600
G03  23831834.539 6 125237220.031 6        38.900    23831848.258 3  97587549.59143        23.800
G32  24628364.156 6 129422891.492 6        40.800    24628376.875 3 100849061.69443        20.600
G20  25156152.766 6 132196431.456 6        37.900    25156166.957 3 103010246.07343        18.600
G14  22820004.906 7 119919881.434 7        44.700    22820017.270 4  93444156.32744        27.000
G29  22991014.234 7 120818644.914 7        44.500    22991024.723 5  94144471.74145        30.700    22991024.613 6  94144465.731 6        41.400
G23  24150932.273 6 126914034.397 6        41.300    24150941.176 4  98894091.82544        24.700
G06  21946849.508 7 115331568.257 7        47.900    21946860.164 5  89868864.51845        34.900
> 2013  6 15  4 23 30.0000000  0 31
G21  24682896.031 6 129709536.606 6        37.100    24682909.742 2 101072413.33542        16.300
G16  21395718.164 8 112435369.403 8        51.800    21395726.949 6  87612046.71746        40.000
G31  20923597.078 8 109954497.877 8        52.700    20923605.414 7  85678743.06447        44.100    20923605.305 8  85678745.065 8        49.400
G03  23810020.422 6 125122584.613 6        39.900    23810034.262 3  97498223.49243        23.200
G32  24638423.227 6 129475750.410 6        38.800    24638436.293 3 100890250.28643        21.100
G20  25163155.188 6 132233219.520 6        37.800    25163167.652 3 103038911.93643        18.600
G14  22839696.234 7 120023357.196 7        44.000    22839707.668 4  93524786.65344        27.900
G29  23006449.773 7 120899755.078 7        43.700    23006459.344 5  94207674.42745        31.000    23006459.090 6  94207668.416 6        41.500
G23  24132434.125 6 126816829.452 6        41.800    24132443.566 4  98818347.78544        26.000
G06  21928834.922 7 115236902.469 7        47.900    21928845.523 5  89795099.03745        34.400
> 2013  6 15  4 24  0.0000000  0 30
G21  24674141.727 6 129663530.057 6        38.200    24674156.082 3 101036564.13843        18.300
G16  21389212.844 8 112401184.552 8        51.400    21389221.723 6  87585409.19246        39.200
G31  20925148.813 8 109962652.183 8        52.600    20925156.871 7  85685097.04647        44.000    20925156.914 8  85685099.047 8        49.700
G03  23788226.953 6 125008063.678 6        39.700    23788240.582 4  97408986.56544        24.400
G32  24648514.422 6 129528782.320 6        38.400    24648528.641 3 100931573.71243        20.600
G20  25170208.297 6 132270293.102 6        36.400    25170223.168 2 103067800.25142        16.300
G14  22859430.070 7 120127059.484 7        44.100    22859441.078 4  93605593.49144        27.900
G29  23021951.734 7 120981222.923 7        43.900    23021961.930 4  94271155.80944        29.800    23021962.020 6  94271149.806 6        41.600
G23  24113984.211 7 126719872.557 7        42.100    24113993.414 4  98742797.04944        25.600
G06  21910882.250 8 115142560.114 8        48.400    21910893.016 5  89721585.58045        34.400
> 2013  6 15  4 24 30.0000000  0 31
G21  24665411.344 6 129617647.190 6        39.400    24665425.043 3 101000811.33543        20.400
G16  21382767.141 8 112367310.221 8        51.000    21382775.242 6  87559013.63346        39.200
G31  20926746.617 8 109971048.411 8        52.900    20926754.512 7  85691639.54147        43.800    20926754.438 8  85691641.535 8        49.500
G03  23766456.672 6 124893660.212 6        39.400    23766470.098 4  97319841.21344        25.000
G32  24658639.219 6 129581985.610 6        38.700    24658652.668 3 100973030.65543        19.900
G20  25177317.578 5 132307650.999 5        34.400    25177332.797 2 103096910.12842        16.900
G14  22879206.883 7 120230986.831 7        44.300    22879218.406 4  93686575.67544        27.100
G29  23037522.648 7 121063046.937 7        43.000    23037533.410 5  94334914.72845        30.400    23037533.145 6  94334908.721 6        41.600
G23  24095582.305 7 126623167.212 7        42.700    24095590.184 4  98667442.28944        25.900
G06  21892991.773 8 115048544.537 8        48.100    21893002.605 5  89648326.75845        34.900
> 2013  6 15  4 25  0.0000000  0 30
G21  24656704.945 6 129571889.705 6        39.900    24656717.598 3 100965156.22543        20.100
G16  21376379.453 8 112333745.119 8        50.900    21376388.332 6  87532859.02846        39.600
G31  20928390.484 8 109979686.961 8        52.700    20928398.750 7  85698370.85147        43.900    20928398.523 8  85698372.852 8        49.300
G03  23744709.477 6 124779376.339 6        39.700    23744722.242 4  97230789.01844        24.100
G32  24668795.688 6 129635356.979 6        39.100    24668809.656 3 101014618.59743        22.600
G20  25184480.633 6 132345289.904 6        36.100    25184494.770 2 103126238.94842        16.300
G14  22899026.125 7 120335135.657 7        45.000    22899037.965 4  93767730.44844        29.100
G29  23053160.242 7 121145223.972 7        43.800    23053170.500 5  94398948.73245        31.000    23053170.508 6  94398942.732 6        41.500
G23  24077227.398 6 126526715.869 6        41.300    24077236.953 4  98592285.45244        24.800
G06  21875163.445 7 114954857.832 7        47.900    21875174.254 5  89575324.19845        35.000
> 2013  6 15  4 25 30.0000000  0 31
G21  24648020.898 6 129526260.655 6        39.900    24648033.977 3 100929601.22643        21.100
G16  21370051.016 8 112300489.340 8        50.500    21370059.906 6  87506945.46346        40.500
G31  20930080.422 8 109988569.240 8        51.800    20930089.094 7  85705292.08247        43.400    20930088.695 8  85705294.082 8        49.800
G03  23722984.766 6 124665214.774 6        38.800    23722998.480 3  97141832.10343        23.500
G32  24678983.172 6 129688894.255 6        38.800    24678998.211 3 101056335.80243        20.600
G20  25191695.969 5 132383208.256 5        33.800    25191709.797 2 103155785.55542        16.300
G14  22918887.125 7 120439503.785 7        44.600    22918898.176 4  93849056.09144        27.300
G29  23068864.961 7 121227751.739 7        43.900    23068875.461 5  94463256.02345        30.200    23068875.324 6  94463250.016 6        41.700
G23  24058922.344 7 126430521.651 7        42.000    24058931.371 4  98517329.00044        26.100
G06  21857398.523 7 114861502.805 7        47.600    21857409.258 5  89502580.08645        35.500
> 2013  6 15  4 26  0.0000000  0 30
G21  24639361.695 6 129480761.472 6        38.300    24639376.605 3 100894147.44643        19.000
G16  21363781.516 8 112267541.013 8        51.100    21363790.133 6  87481271.47846        39.800
G31  20931817.547 8 109997695.720 8        52.200    20931825.656 7  85712403.60647        43.800    20931825.234 8  85712405.607 8        49.500
G03  23701284.109 6 124551176.685 6        40.500    23701296.469 4  97052971.41244        25.800
G32  24689202.258 6 129742593.764 6        38.600    24689216.324 3 101098179.43643        21.700
G20  25198963.62515 132421402.22315        35.300    25198978.61712 103185546.94152        15.600
G14  22938788.391 7 120544087.917 7        43.900    22938799.563 4  93930550.08244        26.600
G29  23084635.578 7 121310626.902 7        43.800    23084645.910 5  94527834.03745        30.200    23084645.809 6  94527828.027 6        40.800
G23  24040666.289 6 126334586.084 6        41.800    24040675.184 4  98442574.07944        24.900
G06  21839696.711 8 114768481.088 8        48.000    21839707.961 5  89430095.69845        35.200
> 2013  6 15  4 26 30.0000000  0 31
G21  24630729.414 6 129435395.224 6        38.300    24630743.301 3 100858797.24343        19.600
G16  21357569.734 8 112234900.712 8        50.000    21357578.402 6  87455837.50646        39.800
G31  20933600.789 8 110007068.135 8        53.000    20933609.355 7  85719706.76247        43.600    20933608.848 8  85719708.763 8        50.100
G03  23679606.906 6 124437264.897 6        39.700    23679619.570 3  96964209.14043        22.900
G32  24699451.445 6 129796453.837 6        38.900    24699466.141 3 101140148.14143        23.000
G20  25206285.070 6 132459870.266 6        36.800    25206298.750 2 103215521.82242        14.800
G14  22958730.680 7 120648886.294 7        44.200    22958742.723 4  94012210.97144        26.900
G29  23100472.039 7 121393847.828 7        45.000    23100482.699 5  94592681.44745        30.300    23100482.391 6  94592675.441 6        40.700
G23  24022460.813 7 126238912.845 7        42.200    24022468.898 4  98368023.55944        24.700
G06  21822059.797 7 114675795.949 7        47.500    21822070.652 5  89357873.58345        35.000
> 2013  6 15  4 27  0.0000000  0 31
G21  24622121.922 6 129390164.512 6        38.800    24622135.668 2 100823552.61242        17.400
G16  21351417.469 8 112202566.849 8        50.300    21351425.621 6  87430642.31146        40.100
G31  20935431.789 8 110016687.643 8        52.900    20935439.652 7  85727202.45447        44.200    20935439.344 8  85727204.455 8        50.200
G03  23657954.859 6 124323482.357 6        40.100    23657967.641 3  96875547.59643        23.200
G32  24709731.344 6 129850471.520 6        40.100    24709745.445 3 101182239.70143        21.100
G20  25213656.438 5 132498609.937 5        35.200    25213670.465 2 103245708.39742        14.800
G14  22978714.375 7 120753896.224 7        45.000    22978725.973 4  94094036.72844        27.100
G29  23116374.539 7 121477411.892 7        43.900    23116384.801 5  94657796.25045        30.500    23116384.527 6  94657790.243 6        41.500
G23  24004305.016 7 126143504.583 7        42.800    24004312.645 3  98293679.48643        23.400
G06  21804486.211 8 114583449.703 8        48.200    21804497.848 5  89285915.54245        35.500
> 2013  6 15  4 27 30.0000000  0 31
G21  24613541.898 6 129345071.631 6        40.000    24613553.871 3 100788415.34443        19.600
G16  21345322.109 8 112170539.103 8        50.400    21345330.488 6  87405685.65246        39.600
G31  20937309.180 8 110026555.101 8        53.400    20937317.613 7  85734891.35447        43.800    20937317.402 8  85734893.355 8        50.000
G03  23636327.844 6 124209831.360 6        40.000    23636340.098 4  96786988.53544        24.300
G32  24720039.492 6 129904644.364 6        39.800    24720053.766 3 101224452.14143        20.400
G20  25221080.03915 132537618.84015        35.200    25221093.71912 103276104.78952        15.600
G14  22998736.172 7 120859114.891 7        43.600    22998749.168 4  94176025.13044        27.000
G29  23132340.891 7 121561315.879 7        44.400    23132350.941 5  94723175.92245        30.500    23132350.285 6  94723169.922 6        41.100
G23  23986200.109 7 126048364.109 7        42.000    23986208.359 4  98219544.14244        24.100
G06  21786979.086 7 114491445.040 7        47.800    21786989.945 6  89214223.65746        36.300
> 2013  6 15  4 28  0.0000000  0 30
G21  24604987.211 6 129300118.953 6        40.900    24604999.848 3 100753387.37643        19.600
G16  21339285.516 8 112138816.010 8        50.600    21339294.449 6  87380966.37846        40.000
G31  20939234.133 8 110036670.983 8        52.700    20939242.594 7  85742773.83747        43.400    20939242.559 8  85742775.838 8        49.600
G03  23614725.992 6 124096314.062 6        40.400    23614738.719 4  96698533.63544        25.800
G32  24730377.156 6 129958969.035 6        39.200    24730391.953 3 101266782.88943        21.300
G20  25228554.94515 132576894.17615        34.800    25228568.67612 103306708.75652        15.600
G14  23018797.367 7 120964539.486 7        42.200    23018809.539 4  94258173.97044        24.700
G29  23148371.180 7 121645557.150 7        44.000    23148381.531 5  94788818.42145        30.200    23148381.270 6  94788812.423 6        40.400
G23  23968147.188 6 125953493.574 6        41.900    23968156.039 4  98145619.09544        24.700
G06  21769536.039 7 114399783.736 7        47.000    21769547.473 6  89142799.33946        36.000
> 2013  6 15  4 28 30.0000000  0 31
G21  24596459.844 6 129255308.186 6        39.100    24596472.941 3 100718469.98143        19.900
G16  21333306.656 8 112107397.217 8        50.800    21333315.711 6  87356484.23646        39.900
G31  20941206.594 8 110047036.744 8        53.000    20941214.645 7  85750851.02647        43.900    20941214.598 8  85750853.027 8        49.100
G03  23593150.516 6 123982932.535 6        41.100    23593163.039 4  96610184.55944        25.100
G32  24740744.227 6 130013443.048 6        40.900    24740758.453 3 101309229.97443        22.200
G20  25236077.07815 132616433.73815        33.500    25236092.25012 103337518.59452        12.600
G14  23038897.734 7 121070166.646 7        43.000    23038909.750 4  94340480.71044        24.700
G29  23164465.625 7 121730133.290 7        45.300    23164475.965 5  94854721.86845        30.200    23164475.922 6  94854715.865 6        40.200
G23  23950145.008 6 125858895.897 6        41.600    23950153.875 4  98071906.67744        25.500
G06  21752159.188 7 114308468.328 7        47.100    21752170.496 5  89071644.53745        35.700
> 2013  6 15  4 29  0.0000000  0 31
G21  24587958.836 6 129210642.397 6        38.100    24587973.422 3 100683665.56543        19.300
G16  21327385.508 8 112076281.871 8        51.000    21327394.242 6  87332238.53246        39.400
G31  20943227.234 8 110057653.723 8        52.600    20943235.270 7  85759123.96647        43.300    20943235.309 8  85759125.959 8        49.300
G03  23571599.969 6 123869689.200 6        40.500    23571613.816 4  96521943.16844        24.800
G32  24751138.086 6 130068063.973 6        39.200    24751152.555 3 101351791.57843        20.900
G20  25243651.031 5                        31.500
G14  23059037.203 7 121175994.592 7        43.800    23059049.344 4  94422943.88244        27.400
G29  23180623.328 7 121815041.737 7        45.000    23180633.324 5  94920884.23345        30.600    23180633.395 6  94920878.230 6        40.700
G23  23932196.898 7 125764574.107 7        42.100    23932205.102 3  97998409.23343        23.800
G06  21734849.305 8 114217501.724 8        48.200    21734860.004 5  89000761.52245        35.900
> 2013  6 15  4 29 30.0000000  0 30
G21  24579488.055 6 129166123.588 6        38.700    24579501.832 3 100648975.74243        19.000
G16  21321522.445 8 112045469.290 8        50.800    21321530.980 6  87308228.75446        40.600
G31  20945295.359 8 110068522.611 8        53.000    20945303.813 7  85767593.19547        43.800    20945303.617 8  85767595.195 8        49.800
G03  23550077.398 6 123756586.501 6        40.900    23550090.359 4  96433811.34344        26.600
G32  24761559.516 6 130122829.029 6        39.900    24761573.137 3 101394465.43843        21.100
G20  25251275.23415 132696295.23415        32.200    25251290.18412 103399747.95752        13.900
G14  23079212.148 7 121282020.512 7        42.400    23079225.203 4  94505561.31044        25.000
G29  23196843.555 7 121900279.779 7        44.700    23196854.160 5  94987303.42045        30.600    23196853.605 6  94987297.413 6        40.600
G23  23914300.844 7 125670530.806 7        42.200    23914308.922 4  97925128.77444        26.600
G06  21717605.102 8 114126886.159 8        48.700    21717616.105 5  88930152.04245        35.800
> 2013  6 15  4 30  0.0000000  0 31
G21  24571045.008 6 129121754.282 6        39.100    24571057.941 3 100614402.34943        19.900
G16  21315716.602 8 112014958.650 8        51.000    21315724.734 6  87284454.25846        39.700
G31  20947411.836 8 110079644.666 8        52.500    20947420.648 7  85776259.71447        43.500    20947420.410 8  85776261.707 8        49.800
G03  23528582.008 6 123643626.917 6        41.700    23528595.707 4  96345791.03444        27.000
G32  24772008.375 6 130177735.402 6        40.600    24772022.297 3 101437249.42943        21.100
G20  25258947.02315 132736612.14915        32.400
G14  23099425.719 6 121388241.703 6        41.500    23099438.426 4  94588330.86844        24.600
G29  23213126.039 7 121985845.050 7        44.700    23213136.352 5  95053977.60545        30.000    23213136.035 6  95053971.599 6        40.100
G23  23896458.328 7 125576768.681 7        43.600    23896466.906 4  97852067.44244        26.300
G06  21700428.555 7 114036623.872 7        47.800    21700439.473 5  88859817.85645        35.700
> 2013  6 15  4 30 30.0000000  0 32
G21  24562629.945 6 129077537.633 6        39.000    24562644.547 3 100579947.92643        19.600
G16  21309968.031 8 111984749.876 8        50.900    21309976.516 6  87260914.97946        40.500
G31  20949576.734 8 110091021.454 8        52.200    20949585.313 7  85785124.71747        43.900    20949585.055 8  85785126.718 8        49.400
G03  23507114.258 6 123530813.351 6        41.000    23507128.035 4  96257884.52244        27.000
G32  24782482.945 6 130232781.276 6        39.800    24782497.207 3 101480142.17443        20.600
G20  25266667.39115 132777183.85715        31.300
G14  23119677.703 7 121494656.130 7        43.600    23119688.195 4  94671251.05344        25.200
G29  23229470.719 7 122071735.315 7        43.600    23229480.754 5  95120905.04345        30.300    23229480.672 6  95120899.032 6        39.200
G23  23878670.219 7 125483290.625 7        42.400    23878678.832 4  97779227.46144        25.400
G06  21683320.609 8 113946718.027 8        48.800    21683331.125 6  88789761.43246        36.400
> 2013  6 15  4 31  0.0000000  0 31
G21  24554246.141 6 129033475.536 6        38.800    24554259.754 2 100545613.89542        17.800
G16  21304276.461 8 111954841.483 8        50.900    21304284.957 6  87237609.76446        40.400
G31  20951790.211 8 110102653.780 8        52.900    20951798.750 7  85794188.83947        43.000    20951798.574 8  85794190.832 8        49.800
G03  23485673.906 6 123418147.794 6        41.300    23485687.496 4  96170093.32044        26.200
G32  24792983.258 6 130287963.354 6        39.500    24792998.316 3 101523141.01143        21.300
G20  25274437.25015 132818007.43515        31.000
G14  23139962.922 7 121601260.625 7        43.000    23139975.738 4  94754319.33544        26.400
G29  23245875.875 7 122157947.449 7        44.000    23245885.984 4  95188083.28244        29.300    23245885.766 6  95188077.279 6        40.000
G23  23860936.320 7 125390099.714 7        43.500    23860944.988 4  97706611.21444        27.600
G06  21666279.773 8 113857170.560 8        48.700    21666291.074 6  88719984.24546        36.800
> 2013  6 15  4 31 30.0000000  0 31
G21  24545890.484 6 128989570.203 6        38.300    24545905.273 3 100511402.01543        20.400
G16  21298642.109 8 111925232.445 8        51.600    21298650.602 6  87214537.81746        40.700
G31  20954052.805 8 110114542.231 8        52.900    20954061.313 7  85803452.53947        43.400    20954061.156 8  85803454.540 8        49.800
G03  23464264.000 7 123305632.455 7        42.900    23464277.395 4  96082419.18744        27.500
G32  24803510.000 6 130343278.785 6        40.000    24803525.145 3 101566243.75743        22.000
G20  25282252.984 5 132859080.299 5        34.100
G14  23160284.906 6 121708052.265 6        40.800    23160297.348 4  94837533.38644        24.400
G29  23262342.148 7 122244478.544 7        43.800    23262352.605 4  95255510.04544        29.700    23262352.281 6  95255504.037 6        40.200
G23  23843257.719 7 125297197.938 7        42.400    23843266.141 4  97634220.27244        26.500
G06  21649308.359 8 113767983.563 8        48.200    21649318.727 6  88650487.94746        36.300
> 2013  6 15  4 32  0.0000000  0 31
G21  24537566.141 6 128945824.510 6        38.700    24537580.809 3 100477314.54243        20.600
G16  21293064.477 8 111895923.121 8        50.800    21293073.035 6  87191699.40746        40.500
G31  20956364.320 8 110126688.576 8        52.800    20956372.891 7  85812917.19847        43.800    20956372.461 8  85812919.199 8        49.800
G03  23442881.516 7 123193270.278 7        43.200    23442894.398 4  95994864.39944        26.900
G32  24814061.023 6 130398725.625 6        39.500    24814076.441 3 101609448.90643        20.900
G20  25290116.75015 132900400.23415        34.200
G14  23180641.664 7 121815029.444 7        42.600    23180654.672 4  94920892.01344        25.300
G29  23278869.133 7 122331327.007 7        44.100    23278879.309 5  95323184.11745        30.500    23278878.988 6  95323178.108 6        40.300
G23  23825634.758 7 125204588.587 7        42.100    23825643.297 4  97562057.22144        25.300
G06  21632405.836 8 113679160.279 8        48.100    21632416.277 6  88581275.06846        36.600
> 2013  6 15  4 32 30.0000000  0 31
G21  24529272.859 6 128902240.363 6        38.300    24529286.449 3 100443352.96043        21.300
G16  21287543.883 8 111866911.315 8        51.000    21287552.469 6  87169092.82746        40.000
G31  20958724.484 8 110139093.182 8        52.800    20958733.117 7  85822583.10647        43.500    20958732.758 8  85822585.108 8        49.600
G03  23421528.797 7 123081062.856 7        42.200    23421542.039 4  95907430.17444        26.400
G32  24824636.648 6 130454300.299 6        39.800    24824652.344 3 101652753.65543        21.800
G20  25298026.813 6 132941964.161 6        36.100    25298039.32412 103591238.05152        16.300
G14  23201034.453 7 121922188.231 7        42.800    23201046.523 4  95004392.17944        25.100
G29  23295455.898 7 122418489.016 7        43.400    23295466.438 4  95391102.50044        28.900    23295466.160 6  95391096.493 6        39.900
G23  23808068.078 7 125112273.699 7        42.800    23808076.289 4  97490123.58044        25.600
G06  21615572.664 7 113590702.119 7        47.600    21615583.199 6  88512346.69246        36.900
> 2013  6 15  4 33  0.0000000  0 31
G21  24521010.219 5 128858819.451 5        35.400    24521023.648 3 100409518.57043        18.300
G16  21282079.531 8 111838195.919 8        51.200    21282088.172 6  87146717.21946        40.100
G31  20961134.570 8 110151756.639 8        52.900    20961142.762 7  85832450.70747        44.200    20961142.668 8  85832452.715 8        49.600
G03  23400206.367 7 122969012.188 7        42.700    23400218.738 4  95820118.12644        26.800
G32  24835235.984 6 130509999.884 6        40.300    24835251.797 3 101696155.76443        21.800
G20  25305980.469 6 132983769.202 6        36.000    25305995.973 2 103623813.28542        13.900
G14  23221459.344 6 122029525.632 6        41.700    23221472.207 4  95088031.56044        24.000
G29  23312101.797 7 122505962.008 7        43.700    23312112.016 4  95459263.22244        29.400    23312111.715 6  95459257.207 6        40.100
G23  23790557.078 6 125020255.991 6        40.200    23790565.961 4  97418421.50944        26.000
G06  21598809.570 7 113502611.107 7        47.900    21598820.379 6  88443704.41146        36.800
> 2013  6 15  4 33 30.0000000  0 32
G21  24512778.172 6 128815565.045 6        36.100    24512792.672 3 100375813.92243        19.300
G16  21276671.648 8 111809776.906 8        50.800    21276680.117 6  87124572.55946        40.500
G31  20963593.883 8 110164680.692 8        52.800    20963602.180 7  85842521.37747        43.800    20963602.082 8  85842523.378 8        49.400
G03  23378914.547 7 122857121.280 7        43.400    23378926.770 4  95732930.54744        26.200
G32  24845859.461 6 130565822.277 6        39.600    24845874.211 3 101739653.53243        21.500
G20  25313981.758 5 133025813.534 5        34.400    25313996.965 2 103656574.82042        13.900
G14  23241917.945 6 122137040.121 6        40.100    23241931.906 4  95171808.86244        24.800
G29  23328805.094 7 122593744.040 7        43.400    23328816.570 4  95527664.73344        28.000    23328816.043 6  95527658.727 6        40.100
G23  23773103.625 6 124928538.657 6        40.900    23773112.285 4  97346953.54144        26.200
G06  21582116.547 7 113414890.326 7        47.300    21582127.348 6  88375350.62646        37.100
> 2013  6 15  4 34  0.0000000  0 31
G21  24504579.320 6 128772479.154 6        37.500    24504592.176 3 100342240.56843        19.600
G16  21271319.805 8 111781653.215 8        51.100    21271328.273 6  87102658.01946        40.500
G31  20966103.016 8 110177866.265 8        52.800    20966111.770 7  85852795.82647        43.700    20966111.445 8  85852797.820 8        49.400
G03  23357652.766 7 122745392.248 7        42.500    23357664.828 4  95645869.09944        26.700
G32  24856505.055 6 130621764.561 6        40.100    24856520.445 3 101783244.71343        21.700
G20  25322027.336 5 133068094.181 5        33.200    25322042.938 2 103689520.60942        13.900
G14  23262411.484 7 122244728.218 7        42.300    23262424.680 4  95255721.44744        24.800
G29  23345567.914 7 122681831.711 7        43.300    23345579.199 4  95596304.42044        28.500    23345578.637 6  95596298.413 6        40.200
G23  23755707.625 7 124837124.024 7        42.400    23755716.652 4  97275721.40444        24.800
G06  21565494.711 7 113327541.742 7        47.300    21565505.695 6  88307286.85346        37.100
> 2013  6 15  4 34 30.0000000  0 32
G21  24496413.156 6 128729564.299 6        38.400    24496425.723 3 100308800.48043        19.600
G16  21266024.031 8 111753824.259 8        50.800    21266032.324 6  87080973.14346        41.000
G31  20968661.852 8 110191314.519 8        52.400    20968670.586 7  85863274.96647        43.500    20968670.145 8  85863276.961 8        49.100
G03  23336422.227 7 122633827.588 7        43.000    23336435.383 4  95558935.73544        27.000
G32  24867173.742 6 130677824.137 6        40.900    24867187.305 3 101826927.32043        21.100
G20  25330117.789 5 133110608.814 5        34.200    25330134.223 2 103722648.70842        14.800
G14  23282937.500 7 122352587.575 7        42.500    23282948.781 4  95339767.53744        25.300
G29  23362388.875 7 122770222.808 7        43.800    23362399.301 4  95665180.53744        28.500    23362398.465 6  95665174.519 6        39.900
G23  23738370.398 6 124746015.044 6        41.400    23738378.609 4  97204727.42744        24.200
G06  21548944.281 8 113240567.931 8        48.000    21548954.719 6  88239515.11046        37.600
> 2013  6 15  4 35  0.0000000  0 31
G21  24488279.719 6 128686822.998 6        38.700    24488293.016 3 100275495.65043        20.400
G16  21260784.391 8 111726288.970 8        50.300    21260792.387 6  87059517.09046        40.000
G31  20971271.281 8 110205026.371 8        52.300    20971279.852 7  85873959.50547        43.600    20971279.793 8  85873961.506 8        49.500
G03  23315224.016 7 122522429.692 7        43.000    23315235.992 4  95472132.31444        25.700
G32  24877862.773 6 130733998.442 6        40.600    24877876.461 3 101870699.32943        19.600
G20  25338253.625 5 133153355.035 5        32.800    25338267.883 2 103755957.29642        14.800
G14  23303493.930 6 122460615.558 6        41.600    23303507.113 3  95423945.01943        22.900
G29  23379265.500 7 122858914.710 7        43.100    23379276.539 4  95734291.04144        28.100    23379276.207 6  95734285.024 6        39.700
G23  23721092.188 7 124655214.340 7        42.600    23721100.246 4  97133973.69344        25.700
G06  21532465.047 8 113153971.179 8        48.000    21532476.043 6  88172037.18746        37.200
> 2013  6 15  4 35 30.0000000  0 31
G21  24480178.906 6 128644257.057 6        37.900    24480193.141 3 100242327.39843        19.000
G16  21255600.352 8 111699046.340 8        50.300    21255608.578 6  87038289.08446        40.300
G31  20973930.609 8 110219002.554 8        52.700    20973939.008 7  85884850.01447        43.800    20973939.008 8  85884852.015 8        49.600
G03  23294058.133 7 122411200.845 7        43.000    23294070.145 4  95385460.63544        26.800
G32  24888573.922 6 130790284.456 6        40.100    24888588.652 3 101914558.31643        21.300
G20  25346430.46915 133196329.88515        32.500    25346446.69912 103789444.03952        14.800
G14  23324083.109 6 122568809.201 6        40.700    23324095.262 3  95508251.52743        22.000
G29  23396200.492 7 122947904.390 7        43.200    23396210.750 4  95803633.59044        28.300    23396210.273 6  95803627.583 6        39.000
G23  23703872.125 7 124564724.195 7        43.500    23703880.359 4  97063461.93244        25.700
G06  21516058.672 7 113067753.508 7        47.300    21516069.605 6  88104854.64346        37.500
> 2013  6 15  4 36  0.0000000  0 32
G21  24472113.359 6 128601869.350 6        37.400    24472126.270 3 100209298.10043        18.600
G16  21250471.867 8 111672095.959 8        51.200    21250479.867 6  87017288.81646        40.100
G31  20976641.063 8 110233244.543 8        52.400    20976649.660 7  85895947.65247        43.800    20976649.258 8  85895949.645 8        49.400
G03  23272924.461 7 122300143.308 7        43.800    23272936.277 4  95298922.44144        28.100
G32  24899305.875 6 130846679.967 6        39.900    24899321.121 3 101958502.65043        22.000
G20  25354652.734 5 133239531.067 5        33.400    25354667.11712 103823107.09452        14.800
G14  23344702.805 7 122677166.327 7        42.800    23344715.570 4  95592685.44644        24.800
G29  23413190.969 7 123037189.813 7        43.700    23413201.359 4  95873206.57944        28.500    23413200.957 6  95873200.572 6        39.900
G23  23686711.984 7 124474548.132 7        43.500    23686720.691 4  96993194.90744        26.100
G06  21499724.547 8 112981917.675 8        48.100    21499735.453 6  88037969.64846        37.500
> 2013  6 15  4 36 30.0000000  0 32
G21  24464081.234 6 128559662.759 6        37.600    24464094.934 3 100176409.88443        19.000
G16  21245398.828 8 111645437.371 8        50.300    21245406.395 6  86996515.90246        40.200
G31  20979402.328 8 110247753.768 8        52.600    20979410.602 7  85907253.51047        43.800    20979410.496 8  85907255.504 8        49.600
G03  23251823.914 7 122189260.150 7        44.000    23251836.102 4  95212520.11844        27.600
G32  24910057.203 6 130903182.646 6        38.800    24910072.992 3 102002530.48543        19.600
G20  25362915.54715 133282956.69515        33.200    25362930.78112 103856945.04352        12.600
G14  23365352.703 6 122785684.607 6        41.500    23365366.293 3  95677244.95943        23.000
G29  23430237.086 7 123126768.642 7        43.700    23430247.824 4  95943008.18944        28.800    23430247.418 6  95943002.183 6        38.900
G23  23669613.117 7 124384688.869 7        43.800    23669620.273 4  96923174.73544        27.200
G06  21483463.828 7 112896466.379 7        47.900    21483473.980 6  87971384.28046        37.400
> 2013  6 15  4 37  0.0000000  0 32
G21  24456084.172 6 128517638.217 6        36.300    24456098.008 3 100143663.59243        19.000
G16  21240380.680 8 111619068.358 8        50.800    21240388.941 6  86975968.62646        40.600
G31  20982213.945 8 110262529.968 8        53.300    20982222.660 7  85918767.40847        44.100    20982222.605 8  85918769.402 8        49.200
G03  23230756.781 7 122078552.483 7        43.200    23230768.898 4  95126254.54044        27.600
G32  24920829.242 6 130959788.601 6        39.600    24920844.613 3 102046638.85543        21.100
G20  25371221.14115 133326602.85015        31.300    25371237.62512 103890954.80152        12.600
G14  23386033.102 6 122894360.121 6        40.500    23386045.930 3  95761926.99043        22.500
G29  23447338.523 7 123216636.889 7        43.100    23447349.586 4  96013035.33644        28.100    23447348.523 6  96013029.322 6        39.200
G23  23652573.586 7 124295148.204 7        42.600    23652581.734 4  96853402.82944        25.800
G06  21467275.906 7 112811400.511 7        47.300    21467287.043 6  87905099.26946        38.100
> 2013  6 15  4 37 30.0000000  0 32
G21  24448122.336 5 128475799.160 5        34.600    24448135.852 3 100111061.80743        18.600
G16  21235418.258 8 111592989.309 8        50.100    21235426.336 6  86955647.30546        40.400
G31  20985076.820 8 110277575.407 8        53.200    20985085.555 7  85930491.10247        43.400    20985085.297 8  85930493.103 8        49.500
G03  23209723.672 7 121968023.656 7        43.200    23209736.473 4  95040128.33044        28.200
G32  24931620.633 6 131016496.253 6        39.300    24931636.301 3 102090826.39643        20.400
G20  25379568.78915 133370468.22515        32.500
G14  23406743.391 6 123003191.246 6        41.000    23406755.406 3  95846730.24643        23.600
G29  23464494.734 7 123306793.192 7        43.700    23464505.340 4  96083286.95144        27.500    23464504.875 6  96083280.940 6        39.600
G23  23635595.844 7 124205929.770 7        42.600    23635604.406 4  96783882.03844        26.400
G06  21451162.031 7 112726723.539 7        46.500    21451172.758 6  87839117.27746        37.300
> 2013  6 15  4 38  0.0000000  0 31
G21  24440196.656 6 128434147.243 6        38.000    24440210.199 3 100078605.82643        20.900
G16  21230509.992 8 111567198.450 8        50.300    21230518.699 6  86935550.54046        40.600
G31  20987991.422 8 110292890.274 8        52.700    20987999.758 7  85942424.74047        43.600    20987999.758 8  85942426.734 8        49.300
G03  23188725.086 7 121857675.584 7        44.300    23188737.637 4  94954142.94444        28.100
G32  24942431.930 6 131073302.170 6        41.100    24942446.582 3 102135090.49043        22.000
G20  25387957.28915 133414549.17615        32.500
G14  23427482.695 6 123112174.604 6        40.900    23427494.789 3  95931652.13343        23.900
G29  23481705.859 6 123397233.952 6        41.100    23481716.793 4  96153760.18544        28.100    23481716.074 6  96153754.175 6        40.400
G23  23618679.727 7 124117035.595 7        42.600    23618688.266 4  96714613.90944        25.800
G06  21435123.469 7 112642436.994 7        46.800    21435134.129 6  87773439.51746        37.800
> 2013  6 15  4 38 30.0000000  0 32
G21  24432306.188 6 128392684.852 6        37.100    24432320.070 3 100046297.56743        21.800
G16  21225656.656 8 111541695.041 8        49.100    21225665.238 6  86915677.76846        40.400
G31  20990957.188 8 110308475.721 8        52.500    20990965.684 7  85954569.21247        43.700    20990965.527 8  85954571.212 8        49.600
G03  23167761.789 7 121747510.389 7        44.300    23167773.957 4  94868300.06244        28.300
G32  24953258.734 6 131130203.791 6        39.100    24953274.328 3 102179429.21943        19.900
G20  25396386.67215 133458843.43515        30.100
G14  23448250.430 6 123221307.754 6        40.800    23448262.777 4  96016690.72744        24.000
G29  23498968.711 7 123487956.937 7        42.400    23498979.953 4  96224453.32444        28.400    23498979.266 6  96224447.314 6        39.200
G23  23601826.492 7 124028468.545 7        42.100    23601834.137 4  96645600.70544        24.900
G06  21419159.000 7 112558543.325 7        46.800    21419169.418 6  87708067.89946        37.800
> 2013  6 15  4 39  0.0000000  0 32
G21  24424452.680 6 128351414.425 6        38.100    24424467.094 3 100014138.84043        21.300
G16  21220858.227 8 111516478.622 8        49.600    21220867.289 6  86896028.63146        40.500
G31  20993974.781 8 110324332.797 8        52.600    20993983.246 7  85966925.35447        43.200    20993982.855 8  85966927.355 8        49.100
G03  23146832.820 7 121637530.405 7        43.300    23146844.941 4  94782601.50244        28.700
G32  24964104.758 6 131187198.523 6        38.100    24964121.266 3 102223840.41243        20.100
G20  25404856.492 4                        29.600
G14  23469045.664 6 123330587.729 6        40.900    23469057.992 4  96101843.72344        24.100
G29  23516286.555 7 123578959.264 7        43.000    23516297.066 4  96295364.15344        26.800    23516296.516 6  96295358.147 6        38.600
G23  23585034.883 6 123940231.140 6        41.400    23585043.684 4  96576844.36144        27.900
G06  21403269.328 7 112475044.523 7        47.000    21403280.164 6  87643003.95446        38.100
> 2013  6 15  4 39 30.0000000  0 33
G21  24416636.273 6 128310338.619 6        37.900    24416649.754 3  99982131.82443        20.400
G16  21216114.438 8 111491548.324 8        50.000    21216122.973 6  86876602.43546        40.700
G31  20997044.102 8 110340462.872 8        52.900    20997052.707 7  85979494.21547        43.700    20997052.570 8  85979496.215 8        49.600
G19  25412044.20315 133541112.82815        35.000    25412060.30912 104058136.38052        16.900
G03  23125940.391 7 121527738.863 7        44.300    23125952.930 4  94697049.78244        29.700
G32  24974968.313 6 131244283.963 6        38.300    24974983.289 3 102268322.34743        19.000
G20  25413364.71115 133548062.35815        30.700
G14  23489868.859 6 123440012.351 6        40.300    23489881.043 3  96187109.46543        22.500
G29  23533656.055 6 123670238.636 6        41.800    23533666.895 4  96366490.87044        26.000    23533666.465 6  96366484.860 6        38.600
G23  23568306.766 7 123852326.454 7        43.200    23568315.406 4  96508347.26444        26.700
G06  21387455.617 7 112391943.229 7        47.300    21387466.191 6  87578249.76346        38.800
> 2013  6 15  4 40  0.0000000  0 33
G21  24408856.922 6 128269459.171 6        37.500    24408870.566 3  99950277.80543        20.600
G16  21211424.570 8 111466903.070 8        50.500    21211432.957 6  86857398.35246        40.600
G31  21000165.922 8 110356866.554 8        52.100    21000174.215 7  85992276.27647        43.700    21000174.078 8  85992278.277 8        49.500
G19  25389520.328 6 133422750.091 6        36.900    25389537.613 2 103965905.47642        17.400
G03  23105083.758 7 121418137.521 7        44.100    23105095.703 4  94611646.26544        29.300
G32  24985847.867 6 131301457.198 6        37.800    24985863.371 2 102312872.70942        17.800
G20  25421912.53115 133592981.67615        30.100
G14  23510718.297 6 123549578.746 6        39.400    23510730.879 3  96272485.66943        22.500
G29  23551078.031 7 123761792.364 7        42.000    23551088.391 4  96437831.38144        27.900    23551088.566 6  96437825.367 6        38.900
G23  23551643.250 7 123764756.813 7        43.600    23551650.953 4  96440111.23544        28.100
G06  21371717.914 7 112309241.367 7        46.500    21371728.914 6  87513806.82246        38.500
> 2013  6 15  4 40 30.0000000  0 33
G21  24401116.297 6 128228778.535 6        36.700    24401128.840 3  99918578.70643        19.300
G16  21206788.797 8 111442541.030 8        50.000    21206797.191 6  86838414.95846        41.300
G31  21003339.445 8 110373544.361 8        52.300    21003347.711 7  86005271.94147        43.500    21003347.672 8  86005273.942 8        49.800
G19  25366992.906 6 133304366.783 6        36.400    25367009.789 3 103873658.51343        18.600
G03  23084264.094 7 121308728.260 7        44.700    23084275.840 4  94526392.40144        29.300
G32  24996744.898 6 131358715.103 6        37.000    24996759.750 2 102357489.00842        17.800
G20  25430499.23414 133638103.49614        29.600
G14  23531594.859 6 123659283.658 6        40.500    23531607.168 3  96357969.79743        22.500
G29  23568552.094 6 123853617.135 6        41.100    23568562.605 4  96509383.05944        27.900    23568562.801 6  96509377.040 6        39.300
G23  23535043.594 7 123677524.488 7        43.500    23535051.727 4  96372138.05244        26.800
G06  21356056.867 7 112226940.777 7        46.900    21356067.699 6  87449676.55746        39.000
> 2013  6 15  4 41  0.0000000  0 31
G21  24393412.469 6 128188299.772 6        36.700    24393425.473 3  99887036.90943        19.600
G16  21202206.719 8 111418462.736 8        49.100    21202215.336 6  86819652.66246        41.100
G31  21006565.547 8 110390498.574 8        51.900    21006574.309 7  86018482.99747        43.400    21006574.086 8  86018484.998 8        49.500
G19  25344462.492 6 133185966.266 6        36.300    25344478.914 3 103781398.15843        19.000
G03  23063481.102 7 121199514.459 7        43.700    23063493.309 4  94441290.86344        29.800
G32  25007655.352 6 131416056.038 6        37.800    25007671.922 3 102402169.99243        18.600
G14  23552496.766 6 123769125.635 6        39.500    23552510.262 3  96443560.72443        22.800
G29  23586077.406 7 123945711.439 7        42.700    23586087.730 4  96581144.76244        26.400    23586087.586 6  96581138.748 6        38.300
G23  23518508.227 7 123590633.355 7        43.900    23518517.051 4  96304430.72744        28.300
G06  21340472.570 7 112145044.727 7        46.800    21340482.883 6  87385861.51546        38.400
> 2013  6 15  4 41 30.0000000  0 31
G21  24385748.844 6 128148023.853 6        38.900    24385761.102 3  99855653.13843        19.300
G16  21197677.688 8 111394666.160 8        48.500    21197686.832 6  86801109.88646        41.100
G31  21009844.695 8 110407728.738 8        52.400    21009853.578 7  86031909.07547        43.400    21009853.082 8  86031911.069 8        49.400
G19  25321928.383 6 133067549.729 6        36.900    25321944.934 2 103689125.37942        17.800
G03  23042735.484 7 121090496.973 7        43.600    23042747.566 5  94356342.27945        30.200
G32  25018582.242 6 131473476.124 6        38.300    25018597.793 3 102446912.68743        18.300
G14  23573424.602 6 123879100.776 6        39.400    23573437.969 3  96529255.38443        22.900
G29  23603652.766 6 124038071.138 6        41.600    23603663.148 4  96653113.29444        26.400    23603663.328 6  96653107.277 6        39.000
G23  23502038.852 7 123504084.629 7        43.700    23502046.969 4  96236990.21144        28.700
G06  21324964.758 7 112063553.894 7        46.900    21324975.742 6  87322362.22246        38.500
> 2013  6 15  4 42  0.0000000  0 32
G21  24378123.977 6 128107954.549 6        37.500    24378136.379 3  99824430.41643        20.900
G16  21193203.891 8 111371151.916 8        48.100    21193212.129 6  86782787.10246        40.400
G31  21013176.250 8 110425237.663 8        52.300    21013184.898 7  86045552.36147        42.600    21013184.363 8  86045554.362 8        49.400
G19  25299392.445 5 132949121.408 5        35.700    25299409.066 2 103596843.45042        17.800
G03  23022028.000 7 120981680.013 7        42.300    23022040.730 5  94271549.95645        30.000
G32  25029524.445 6 131530974.271 6        38.900    25029539.816 2 102491716.23942        17.800
G14  23594378.063 6 123989207.715 6        39.900    23594390.324 3  96615052.80943        22.500
G29  23621278.734 7 124130695.412 7        42.300    23621288.828 4  96725287.97244        26.300    23621288.973 6  96725281.969 6        38.800
G23  23485634.906 7 123417882.713 7        44.300    23485643.809 4  96169819.95944        27.900
G06  21309535.797 7 111982472.206 7        47.600    21309546.309 6  87259181.74046        38.700
> 2013  6 15  4 42 30.0000000  0 31
G21  24370539.133 6 128068092.659 6        38.300    24370551.238 3  99793369.26643        21.300
G16  21188782.117 8 111347916.960 8        49.500    21188790.309 6  86764681.94846        40.800
G31  21016560.797 8 110443024.202 8        51.700    21016569.992 7  86059411.97647        43.200    21016569.488 8  86059413.976 8        49.900
G19  25276853.945 6 132830681.911 6        36.200    25276870.930 2 103504552.83842        17.400
G03  23001359.578 7 120873063.914 7        44.300    23001371.547 5  94186914.14745        30.200
G32  25040480.617 6 131588545.760 6        39.000    25040495.246 3 102536576.86943        20.100
G14  23615354.500 6 124099441.840 6        38.400    23615367.563 3  96700949.30043        22.500
G29  23638954.328 6 124223579.429 6        41.400    23638964.160 4  96797665.07344        26.700    23638964.246 6  96797659.063 6        38.900
G23  23469297.445 7 123332028.403 7        44.900    23469306.078 4  96102920.53944        28.100
G06  21294184.289 8 111901799.765 8        48.100    21294194.934 6  87196320.15546        39.200
> 2013  6 15  4 43  0.0000000  0 32
G21  24362992.578 6 128028440.705 6        36.900    24363005.445 3  99762471.70543        21.100
G16  21184413.758 8 111324961.317 8        48.800    21184422.070 6  86746794.43646        40.800
G31  21019998.883 8 110461089.978 8        51.900    21020007.332 7  86073489.18047        43.000    21020007.105 8  86073491.181 8        48.500
G19  25254313.711 5 132712233.999 5        35.100    25254331.539 2 103412255.77642        17.400
G03  22980728.680 6 120764651.778 6        41.800    22980741.223 4  94102437.27844        29.100
G32  25051449.672 6 131646188.786 6        37.100    25051465.008 3 102581493.21843        19.600
G14  23636355.938 6 124209801.289 6        39.200    23636369.051 3  96786943.45543        22.000
G29  23656678.336 6 124316721.767 6        41.100    23656688.926 4  96870243.43744        26.700    23656689.227 6  96870237.431 6        39.200
G23  23453026.141 7 123246524.836 7        43.400    23453035.363 4  96036294.44044        29.300
G06  21278911.500 8 111821539.526 8        48.100    21278921.934 6  87133779.75646        39.200
> 2013  6 15  4 43 30.0000000  0 32
G21  24355487.039 6 127989001.713 6        37.500    24355500.133 3  99731740.09643        20.600
G16  21180098.813 8 111302284.531 8        50.700    21180106.820 6  86729124.21946        41.100
G31  21023490.141 8 110479436.765 8        52.400    21023498.645 7  86087785.35547        43.100    21023498.531 8  86087787.356 8        49.100
G19  25231773.477 5 132593780.707 5        35.600    25231790.410 3 103319954.55643        19.000
G03  22960137.938 7 120656446.009 7        42.800    22960150.379 4  94018121.21044        29.600
G32  25062432.680 6 131703901.291 6        37.900    25062447.551 3 102626463.74943        19.900
G14  23657380.000 6 124320284.082 6        39.500    23657392.758 3  96873033.71343        22.600
G29  23674451.555 6 124410120.193 6        40.700    23674461.891 4  96943021.32144        27.600    23674461.648 6  96943015.325 6        39.500
G23  23436822.828 7 123161375.124 7        45.200    23436831.422 4  95969944.05544        28.300
G06  21263716.961 8 111741694.074 8        48.200    21263727.543 6  87071562.58246        38.900
> 2013  6 15  4 44  0.0000000  0 32
G21  24348023.141 6 127949777.834 6        36.000    24348035.945 3  99701176.12743        20.600
G16  21175836.398 8 111279885.862 8        49.100    21175844.531 6  86711670.71446        40.800
G31  21027035.172 8 110498065.409 8        52.400    21027043.445 7  86102301.14647        43.400    21027043.125 8  86102303.147 8        49.800
G19  25209230.984 5 132475324.620 5        35.900    25209249.641 3 103227651.20243        19.300
G03  22939586.484 7 120548449.221 7        43.900    22939598.738 4  93933967.97544        29.600
G32  25073427.102 6 131761680.218 6        37.400    25073443.355 3 102671486.02943        19.600
G14  23678427.250 6 124430887.255 6        40.200    23678440.125 3  96959217.78043        21.300
G29  23692273.375 6 124503771.328 6        41.100    23692283.609 4  97015996.15344        27.900    23692282.906 6  97015990.143 6        40.300
G23  23420686.648 7 123076581.646 7        44.100    23420695.262 4  95903871.25544        27.100
G06  21248602.070 8 111662265.372 8        49.100    21248612.559 6  87009670.13246        39.200
> 2013  6 15  4 44 30.0000000  0 31
G21  24340600.320 5 127910770.817 5        35.200    24340613.992 3  99670781.16343        20.900
G16  21171626.391 8 111257763.432 8        49.700    21171634.688 6  86694432.46246        40.800
G31  21030633.516 8 110516976.012 8        51.900    21030642.641 7  86117036.65547        43.500    21030642.121 8  86117038.649 8        49.500
G19  25186689.117 6 132356867.450 6        37.000    25186707.953 3 103135347.02343        18.600
G03  22919075.750 7 120440663.214 7        44.300    22919087.547 4  93849978.98144        29.700
G32  25084434.688 6 131819522.401 6        38.100    25084450.820 3 102716557.60943        19.300
G14  23699496.758 6 124541607.302 6        39.000    23699509.594 3  97045492.90543        21.100
G29  23710142.219 6 124597672.214 6        41.300    23710152.426 4  97089165.57944        26.900    23710152.902 6  97089159.584 6        38.800
G23  23404619.906 7 122992146.925 7        43.600    23404628.246 4  95838078.00844        28.800
G06  21233566.766 8 111583254.730 8        49.300    21233577.469 6  86948103.45146        39.000
> 2013  6 15  4 45  0.0000000  0 32
G21  24333219.281 6 127871983.119 6        37.700    24333231.824 3  99640557.05643        20.900
G16  21167469.242 8 111235916.084 8        49.600    21167477.656 6  86677408.55946        41.300
G31  21034286.102 8 110536169.497 8        52.100    21034294.961 7  86131992.59247        43.600    21034294.586 8  86131994.592 8        48.900
G19  25164147.930 6 132238411.907 6        36.800    25164167.059 3 103043044.15143        19.300
G03  22898605.227 7 120333090.309 7        43.600    22898616.789 4  93766156.04144        29.900
G32  25095452.672 6 131877425.350 6        36.400    25095469.805 3 102761676.56243        19.000
G14  23720588.430 6 124652441.978 6        38.100    23720601.598 3  97131857.37543        21.100
G29  23728056.648 6 124691820.570 6        39.000    23728068.172 3  97162527.88443        22.000    23728067.801 6  97162521.878 6        39.400
G23  23388621.648 7 122908073.662 7        44.700    23388629.375 4  95772566.40544        29.500
G06  21218611.672 8 111504664.584 8        49.600    21218622.621 6  86886864.43546        39.500
> 2013  6 15  4 45 30.0000000  0 32
G21  24325881.000 6 127833417.055 6        37.200    24325893.070 3  99610505.68043        20.600
G16  21163364.242 8 111214343.755 8        49.600    21163372.453 6  86660598.96146        40.700
G31  21037992.734 8 110555647.629 8        52.000    21038001.258 7  86147170.32847        43.200    21038001.063 8  86147172.329 8        49.000
G19  25141607.859 6 132119960.861 6        36.900    25141624.980 2 102950744.79042        17.800
G03  22878176.086 7 120225733.129 7        44.200    22878187.445 5  93682501.20545        30.300
G32  25106482.453 6 131935386.959 6        37.000    25106499.340 3 102806841.18843        19.300
G14  23741700.820 6 124763389.080 6        38.600    23741714.207 3  97218309.43043        21.800
G29  23746020.266 6 124786214.068 6        40.400    23746030.742 4  97236081.17044        25.900    23746030.629 6  97236075.167 6        39.700
G23  23372692.148 7 122824364.900 7        43.600    23372700.438 4  95707338.83944        29.800
G06  21203736.969 8 111426497.442 8        50.000    21203747.484 6  86825955.02946        38.900
> 2013  6 15  4 46  0.0000000  0 30
G21  24318585.242 6 127795074.765 6        39.200    24318595.531 3  99580628.64243        19.900
G16  21159311.172 8 111193044.618 8        48.400    21159319.660 6  86644002.23646        40.900
G31  21041753.820 8 110575410.553 8        52.700    21041761.984 7  86162569.97647        43.700    21041761.797 8  86162571.970 8        48.800
G19  25119067.289 6 132001515.776 6        36.100    25119085.133 3 102858450.14343        18.300
G03  22857787.203 7 120118593.402 7        44.600    22857799.816 4  93599015.81144        29.800
G32  25117523.273 6 131993403.778 6        36.500    25117539.480 3 102852048.86743        18.600
G14  23762834.281 6 124874444.925 6        39.900    23762847.586 3  97304846.22743        21.300
G29  23764029.000 6 124880849.558 6        40.200    23764039.453 4  97309823.01344        26.700    23764039.430 6  97309817.018 6        40.500
G23  23356832.328 7 122741022.491 7        44.900    23356841.047 5  95642396.74245        30.200
G06  21188943.250 8 111348754.358 8        48.900    21188953.859 6  86765376.05246        39.600
> 2013  6 15  4 46 30.0000000  0 31
G21  24311331.266 6 127756958.727 6        38.300    24311342.586 3  99550927.95443        19.600
G16  21155310.180 8 111172018.635 8        49.600    21155318.152 6  86627618.35646        41.300
G31  21045568.859 8 110595460.189 8        52.100    21045577.543 7  86178193.04047        43.600    21045577.355 8  86178195.041 8        49.300
G19  25096529.594 6 131883080.190 6        36.300    25096546.855 2 102766162.90842        16.900
G03  22837441.906 7 120011674.150 7        44.200    22837452.828 5  93515702.21145        31.000
G32  25128574.039 6 132051473.835 6        37.100    25128589.578 2 102897297.95542        16.900
G14  23783988.055 6 124985607.565 6        39.700    23784001.363 3  97391466.21643        20.900
G29  23782082.742 6 124975724.702 6        39.300    23782094.242 4  97383751.61844        26.000    23782093.801 6  97383745.612 6        40.300
G23  23341043.602 7 122658049.829 7        43.700    23341051.418 4  95577742.75544        29.700
G06  21174230.289 8 111271438.438 8        48.600    21174240.582 6  86705129.92446        39.500
> 2013  6 15  4 47  0.0000000  0 31
G21  24304121.508 6 127719070.874 6        37.900    24304132.469 3  99521404.99043        20.900
G16  21151360.563 8 111151264.654 8        49.700    21151368.738 6  86611446.41746        41.400
G31  21049438.789 8 110615796.683 8        51.500    21049447.660 7  86194039.62947        43.100    21049447.047 8  86194041.623 8        48.800
G19  25073995.352 6 131764656.248 6        38.700    25074011.734 3 102673884.84443        20.600
G03  22817137.633 7 119904977.337 7        43.400    22817150.082 5  93432561.95545        30.100
G32  25139634.109 6 132109594.065 6        38.300    25139650.984 3 102942586.22943        20.400
G14  23805162.328 6 125096874.372 6        39.800    23805174.801 3  97478167.41043        21.300
G29  23800181.805 6 125070836.719 6        38.700    23800192.883 3  97457864.77243        23.600    23800193.227 6  97457858.769 6        40.100
G23  23325325.203 7 122575448.763 7        44.600    23325332.961 5  95513378.32145        30.300
G06  21159598.969 8 111194551.081 8        48.600    21159609.480 6  86645217.75146        39.900
> 2013  6 15  4 47 30.0000000  0 31
G21  24296954.594 6 127681413.686 6        37.500    24296967.203 3  99492061.83443        20.400
G16  21147462.570 8 111130781.723 8        48.800    21147471.262 6  86595485.69846        41.400
G31  21053363.477 8 110636421.432 8        52.100    21053372.383 7  86210110.83647        43.000    21053372.070 8  86210112.837 8        49.300
G19  25051462.203 6 131646246.345 6        39.300    25051479.637 3 102581617.68543        22.300
G03  22796876.758 7 119798505.581 7        44.300    22796888.473 4  93349597.06544        29.700
G32  25150703.898 6 132167762.126 6        37.500    25150719.500 3 102987911.73443        20.600
G14  23826354.047 6 125208242.565 6        39.400    23826367.574 3  97564947.58643        21.300
G29  23818325.383 6 125166183.070 6        38.900    23818336.508 3  97532160.52443        23.600    23818336.234 6  97532154.528 6        39.500
G23  23309677.547 7 122493222.379 7        45.200    23309685.691 4  95449305.84444        29.900
G06  21145049.617 7 111118094.672 7        47.800    21145060.270 6  86585641.38746        40.000
> 2013  6 15  4 48  0.0000000  0 30
G21  24289832.734 6 127643988.925 6        38.700    24289845.504 3  99462899.75043        20.600
G16  21143616.500 8 111110568.430 8        50.200    21143624.645 6  86579735.07946        41.000
G31  21057343.133 8 110657334.629 8        51.400    21057351.734 7  86226406.80447        43.200    21057351.207 8  86226408.805 8        49.100
G19  25028932.484 6 131527852.884 6        39.400    25028949.551 3 102489363.42943        21.500
G03  22776658.500 7 119692260.320 7        43.900    22776670.379 4  93266808.66844        29.200
G32  25161781.188 6 132225974.976 6        38.600    25161797.086 3 103033272.12843        20.900
G14  23847565.773 6 125319709.097 6        40.400    23847579.070 3  97651804.39443        21.800
G29  23836513.594 6 125261760.648 6        39.700    23836524.977 3  97606636.48743        23.000    23836524.438 6  97606630.481 6        39.700
G23  23294101.438 7 122411372.938 7        43.200    23294110.367 4  95385527.09544        29.100
G06  21130582.992 8 111042070.628 8        49.000    21130593.531 6  86526401.92346        40.500
> 2013  6 15  4 48 30.0000000  0 31
G21  24282756.422 6 127606799.247 6        37.500    24282769.527 3  99433920.88843        21.300
G16  21139820.930 8 111090624.532 8        51.000    21139829.145 6  86564194.38246        41.100
G31  21061377.867 8 110678537.855 8        52.500    21061386.383 7  86242928.76647        43.800    21061386.211 8  86242930.759 8        48.700
G19  25006405.430 6 131409478.423 6        37.200    25006423.570 3 102397123.96443        18.300
G03  22756484.164 7 119586244.600 7        43.800    22756495.629 4  93184199.13944        29.400
G32  25172867.047 6 132284230.319 6        37.400    25172883.668 3 103078665.63743        19.300
G14  23868795.820 6 125431271.760 6        39.500    23868809.156 3  97738736.10743        20.400
G29  23854745.234 6 125357567.562 6        41.100    23854756.629 4  97681291.16244        26.300    23854756.305 6  97681285.163 6        40.000
G23  23278598.602 7 122329903.339 7        45.100    23278607.570 4  95322044.34244        29.400
G06  21116198.352 8 110966481.361 8        48.100    21116208.934 6  86467501.24746        39.900
> 2013  6 15  4 49  0.0000000  0 32
G21  24275723.852 6 127569847.228 6        36.600    24275737.309 3  99405127.17143        21.700
G16  21136077.086 8 111070948.579 8        49.800    21136085.039 6  86548862.47346        41.100
G31  21065468.398 8 110700032.060 8        51.500    21065477.328 7  86259677.47147        43.300    21065477.031 8  86259679.472 8        49.300
G19  24983883.828 6 131291125.461 6        38.100    24983901.016 3 102304901.31743        19.600
G03  22736354.297 7 119480460.704 7        43.900    22736366.121 5  93101770.23345        30.500
G32  25183960.625 6 132342525.495 6        37.500    25183976.680 2 103124090.14442        17.400
G14  23890043.539 6 125542927.688 6        40.600    23890057.070 3  97825740.47243        21.100
G29  23873019.742 6 125453600.560 6        40.600    23873031.566 4  97756121.99344        27.400    23873031.070 6  97756115.986 6        40.600
G23  23263169.195 7 122248815.970 7        44.000    23263177.063 5  95258859.42045        30.300
G06  21101897.047 8 110891328.796 8        48.700    21101907.852 6  86408940.85646        40.000
> 2013  6 15  4 49 30.0000000  0 32
G21  24268738.531 6 127533134.303 6        39.200    24268750.977 3  99376519.79843        21.100
G16  21132383.898 8 111051539.853 8        49.500    21132391.844 6  86533738.79346        41.400
G31  21069614.195 8 110721818.043 8        52.400    21069622.910 7  86276653.53247        43.400    21069622.344 8  86276655.533 8        49.200
G19  24961366.375 6 131172796.897 6        38.500    24961382.949 3 102212697.65843        19.600
G03  22716268.969 7 119374910.969 7        44.000    22716280.477 5  93019523.80245        30.500
G32  25195060.844 6 132400857.967 6        37.600    25195076.641 2 103169543.74942        17.800
G14  23911308.336 6 125654674.214 6        40.200    23911322.250 3  97912815.44943        21.300
G29  23891336.633 6 125549857.560 6        39.300    23891348.980 3  97831127.34643        23.500    23891347.973 6  97831121.343 6        40.900
G23  23247811.148 7 122168113.511 7        43.800    23247819.941 4  95195974.42044        29.300
G06  21087679.672 8 110816614.904 8        49.800    21087690.203 6  86350722.30646        39.400
> 2013  6 15  4 50  0.0000000  0 32
G21  24261797.922 6 127496662.256 6        40.200    24261809.355 3  99348100.06743        20.400
G16  21128740.727 8 111032396.535 8        50.800    21128748.965 6  86518821.93646        41.200
G31  21073815.734 8 110743896.082 8        52.100    21073824.289 7  86293857.17147        42.700    21073823.832 8  86293859.172 8        49.300
G19  24938853.711 6 131054494.109 6        39.100    24938870.656 3 102120514.09143        21.500
G03  22696228.195 7 119269596.793 7        43.900    22696240.199 5  92937460.90145        31.400
G32  25206167.617 6 132459224.202 6        37.700    25206183.141 2 103215023.70742        16.900
G14  23932589.547 6 125766508.092 6        39.600    23932603.586 3  97999958.50243        20.400
G29  23909696.063 6 125646335.458 6        39.400    23909707.547 4  97906304.83344        26.200    23909707.434 6  97906298.819 6        40.900
G23  23232527.016 7 122087797.739 7        42.500    23232536.223 4  95133390.73844        29.000
G06  21073545.938 8 110742340.829 8        49.300    21073556.023 6  86292846.45346        40.100
> 2013  6 15  4 50 30.0000000  0 33
G21  24254903.055 6 127460434.030 6        39.000    24254916.012 3  99319870.34743        20.600
G16  21125148.344 8 111013518.394 8        49.900    21125156.652 6  86504111.71246        41.700
G31  21078072.602 8 110766267.648 8        52.300    21078081.516 7  86311289.53347        43.100    21078080.930 8  86311291.540 8        49.300
G19  24916346.781 6 130936220.574 6        37.300    24916363.656 3 102028353.35643        21.100
G03  22676233.109 7 119164521.244 7        44.700    22676244.352 5  92855583.94645        31.200
G32  25217281.359 6 132517622.386 6        38.300    25217295.910 3 103260528.52343        19.300
G14  23953887.281 6 125878427.463 6        39.000    23953900.910 3  98087168.15043        21.100
G13  25302898.49215 132967628.79915        33.900
G29  23928097.188 6 125743031.606 6        40.800    23928108.363 4  97981652.38944        25.400    23928107.992 6  97981646.386 6        40.200
G23  23217318.414 7 122007872.282 7        43.300    23217326.742 4  95071111.19844        27.300
G06  21059496.039 8 110668509.166 8        48.300    21059506.590 6  86235315.33846        39.500
> 2013  6 15  4 51  0.0000000  0 33
G21  24248056.414 6 127424451.397 6        38.200    24248068.527 3  99291832.00743        21.100
G16  21121606.422 8 110994904.177 8        50.100    21121614.582 6  86489607.14146        41.700
G31  21082386.125 8 110788933.241 8        52.300    21082394.531 7  86328951.01147        43.600    21082394.164 8  86328953.012 8        48.600
G19  24893843.344 5 130817978.073 5        34.200    24893862.059 3 101936216.87643        19.300
G03  22656283.344 7 119059686.017 7        43.600    22656295.094 5  92773894.25745        31.600
G32  25228399.313 6 132576049.272 6        39.000    25228415.387 3 103306055.74443        19.600
G14  23975201.359 6 125990428.913 6        39.000    23975214.785 3  98174441.76643        19.300
G13  25282862.195 5 132862336.797 5        33.700
G29  23946538.500 6 125839942.843 6        41.000    23946549.918 4  98057167.57544        25.300    23946549.680 6  98057161.566 6        39.800
G23  23202182.961 7 121928338.911 7        42.600    23202191.672 4  95009137.17544        28.700
G06  21045530.758 8 110595121.375 8        49.600    21045541.262 6  86178130.10546        39.400
> 2013  6 15  4 51 30.0000000  0 33
G21  24241256.469 6 127388716.903 6        39.300    24241268.215 3  99263986.98343        20.900
G16  21118113.914 8 110976553.269 8        50.900    21118122.383 6  86475307.74046        41.700
G31  21086755.156 8 110811894.191 8        52.800    21086763.750 7  86346842.63447        43.000    21086763.734 8  86346844.634 8        48.900
G19  24871350.391 6 130699769.668 6        36.200    24871367.270 3 101844107.01743        19.300
G03  22636380.250 7 118955094.010 7        43.400    22636392.227 5  92692394.08945        32.100
G32  25239522.602 6 132634502.902 6        37.400    25239539.953 3 103351603.72843        19.000
G14  23996528.633 6 126102510.370 6        38.800    23996543.406 3  98261777.69943        19.900
G13  25262858.914 5 132757216.613 5        34.600    25262870.61312 103447230.78152        14.800
G29  23965021.117 6 125937067.469 6        41.100    23965032.586 4  98132849.03144        25.100    23965031.996 6  98132843.025 6        40.200
G23  23187123.359 7 121849200.422 7        44.600    23187132.328 4  94947470.84744        28.900
G06  21031650.172 8 110522179.811 8        50.500    21031660.652 6  86121292.57146        39.500
> 2013  6 15  4 52  0.0000000  0 33
G21  24234503.719 6 127353232.788 6        38.600    24234516.145 3  99236337.10643        21.500
G16  21114672.141 8 110958464.786 8        51.100    21114680.254 6  86461212.82646        41.800
G31  21091180.875 8 110835151.446 8        51.600    21091189.828 7  86364965.13947        43.100    21091189.563 8  86364967.140 8        48.600
G19  24848862.156 6 130581598.108 6        37.700    24848879.391 3 101752025.80443        19.900
G03  22616523.227 7 118850747.102 7        44.500    22616535.242 5  92611084.91245        31.500
G32  25250651.125 6 132692980.580 6        36.400    25250667.754 2 103397170.51042        17.800
G14  24017872.070 6 126214669.333 6        37.300    24017886.551 3  98349174.08843        20.100
G13  25242888.156 5 132652271.019 5        33.400    25242900.566 2 103365455.03242        14.800
G29  23983542.680 6 126034402.671 6        40.200    23983554.848 4  98208694.53944        24.800    23983554.344 6  98208688.544 6        40.800
G23  23172139.742 7 121770459.848 7        43.900    23172148.383 4  94886114.59244        28.900
G06  21017855.328 8 110449686.366 8        49.700    21017865.527 6  86064804.22446        39.600
> 2013  6 15  4 52 30.0000000  0 32
G21  24227799.250 6 127318000.818 6        40.000    24227811.547 3  99208883.67043        21.300
G16  21111279.563 8 110940637.331 8        51.900    21111287.391 6  86447321.30346        41.900
G31  21095662.875 8 110858705.468 8        52.800    21095671.711 7  86383318.89447        43.100    21095671.141 8  86383320.895 8        48.500
G19  24826381.555 6 130463465.085 6        37.300    24826398.676 3 101659974.60443        19.000
G03  22596713.664 7 118746647.227 7        43.400    22596725.227 5  92529968.22445        31.800
G32  25261783.766 6 132751479.120 6        37.100    25261800.063 3 103442753.48443        19.600
G14  24039229.680 6 126326902.502 6        37.900    24039244.605 3  98436628.24243        19.000
G13  25222952.141 5 132547501.986 5        34.600    25222963.281 2 103283816.82642        16.300
G29  24002104.813 6 126131945.305 6        40.200    24002116.590 4  98284701.70844        25.300    24002116.230 6  98284695.697 6        40.000
G23  23157232.195 7 121692118.884 7        46.100    23157240.652 4  94825069.71744        29.400
G06  21004145.602 8 110377642.313 8        50.700    21004156.707 6  86008666.05846        40.500
> 2013  6 15  4 53  0.0000000  0 32
G21  24221143.438 6 127283022.818 6        40.100    24221156.129 3  99181628.18143        21.700
G16  21107936.281 8 110923069.517 8        52.100    21107944.688 7  86433632.10347        42.000
G31  21100201.867 8 110882557.099 8        51.900    21100210.805 7  86401904.55147        42.200    21100210.578 8  86401906.552 8        48.900
G19  24803909.586 5 130345373.310 5        35.100    24803926.523 3 101567955.55043        19.000
G03  22576951.078 7 118642796.837 7        43.700    22576963.113 5  92449045.93745        32.600
G32  25272919.000 6 132809995.886 6        37.500    25272935.758 3 103488350.69843        19.300
G14  24060600.883 6 126439207.030 6        36.500    24060615.492 3  98524138.02143        19.000
G13  25203047.695 5 132442912.267 5        33.700    25203060.988 2 103202318.36042        15.600
G29  24020706.313 6 126229692.873 6        41.400    24020717.129 4  98360868.55444        24.700    24020716.863 6  98360862.545 6        40.500
G23  23142401.359 7 121614180.032 7        45.300    23142409.676 4  94764338.17244        29.800
G06  20990522.195 8 110306049.427 8        50.700    20990532.770 6  85952879.45146        40.400
> 2013  6 15  4 53 30.0000000  0 33
G21  24214536.047 6 127248301.529 6        40.300    24214549.633 3  99154572.69343        22.300
G16  21104642.313 8 110905760.749 8        50.800    21104650.719 6  86420144.76046        41.600
G31  21104797.891 8 110906707.064 8        51.800    21104806.156 7  86420722.67847        42.900    21104805.891 8  86420724.679 8        48.800
G19  24781445.602 6 130227325.695 6        37.500    24781462.520 3 101475971.04543        20.600
G03  22557237.727 7 118539198.205 7        43.600    22557248.793 5  92368319.81445        32.300
G32  25284057.641 6 132868528.585 6        37.300    25284074.363 2 103533960.36142        17.800
G14  24081985.352 5 126551580.844 5        35.200    24081999.656 3  98611701.76843        18.300
G13  25183180.992 5 132338505.365 5        33.700    25183192.977 2 103120962.45742        15.600
G29  24039345.969 6 126327643.091 6        40.500    24039356.605 4  98437193.32744        26.200    24039356.059 6  98437187.324 6        40.000
G23  23127646.664 7 121536646.184 7        45.700    23127654.996 5  94703922.21045        30.000
G06  20976984.539 8 110234909.862 8        50.800    20976995.148 6  85897446.07546        41.300
> 2013  6 15  4 54  0.0000000  0 33
G21  24207978.172 6 127213838.821 6        39.900    24207990.836 3  99127718.72143        22.200
G16  21101397.953 8 110888710.439 8        51.600    21101406.492 6  86406858.80946        41.400
G31  21109450.063 8 110931156.626 8        51.900    21109458.641 7  86439774.25447        43.300    21109458.574 8  86439776.255 8        49.000
G19  24758990.609 6 130109324.628 6        39.900    24759006.789 3 101384022.71343        22.900
G03  22537571.680 7 118435853.890 7        44.300    22537582.563 5  92287791.85745        32.200
G32  25295198.359 6 132927074.695 6        36.400    25295215.902 2 103579580.42442        17.800
G14  24103381.922 6 126664021.097 6        37.000    24103396.375 3  98699317.29943        20.100
G13  25163348.227 5 132234283.821 5        33.500    25163360.023 2 103039750.91442        15.600
G29  24058022.563 6 126425793.423 6        40.700    24058033.422 4  98513674.02944        25.600    24058032.984 6  98513668.018 6        39.800
G23  23112970.398 7 121459519.859 7        45.600    23112978.926 5  94643823.79645        31.300
G06  20963533.891 8 110164225.583 8        51.500    20963544.477 6  85842367.47446        40.600
> 2013  6 15  4 54 30.0000000  0 33
G21  24201469.453 6 127179636.017 6        38.400    24201482.727 3  99101067.25443        21.800
G16  21098202.117 8 110871916.349 8        51.400    21098210.148 6  86393772.51846        41.700
G31  21114159.680 8 110955905.444 8        51.700    21114168.594 7  86459059.02247        43.100    21114168.566 8  86459061.022 8        48.800
G19  24736544.578 6 129991371.702 6        38.700    24736560.723 3 101292111.86443        22.800
G03  22517954.414 7 118332765.199 7        44.900    22517965.578 5  92207463.08645        32.200
G32  25306341.891 5 132985630.651 5        34.600    25306358.844 2 103625208.20042        17.400
G14  24124790.555 5 126776524.114 5        35.200    24124804.844 3  98786981.72543        19.300
G13  25143550.789 5 132130249.514 5        33.000    25143563.055 2 102958685.23642        14.800
G29  24076737.430 6 126524140.067 6        40.600    24076748.395 4  98590307.70244        25.600    24076748.070 6  98590301.684 6        40.300
G23  23098371.367 7 121382802.717 7        46.000    23098379.570 5  94584044.24445        31.500
G06  20950170.180 8 110093997.297 8        51.200    20950180.109 6  85787644.17946        40.400
> 2013  6 15  4 55  0.0000000  0 33
G21  24195010.484 6 127145695.840 6        40.000    24195023.012 3  99074620.43443        21.800
G16  21095055.023 8 110855378.499 8        52.100    21095063.695 6  86380885.87746        41.700
G31  21118926.352 8 110980955.353 8        51.400    21118935.051 7  86478578.41147        42.500    21118934.984 8  86478580.411 8        49.000
G19  24714107.250 6 129873470.330 6        36.900    24714123.480 3 101200241.19543        18.600
G03  22498386.422 7 118229934.958 7        43.700    22498397.668 5  92127335.70445        31.600
G32  25317485.141 5 133044194.596 5        34.300    25317502.816 2 103670842.15842        17.400
G14  24146211.328 5 126889088.173 5        34.600    24146224.676 2  98874693.68842        17.400
G13  25123789.867 5 132026405.731 5        33.700    25123801.301 2 102877768.08842        13.900
G29  24095489.828 6 126622681.318 6        40.800    24095501.184 4  98667092.98544        26.900    24095500.938 6  98667086.979 6        40.900
G23  23083850.930 7 121306497.839 7        46.000    23083859.344 5  94524585.92445        30.900
G06  20936893.414 8 110024227.529 8        50.700    20936903.895 6  85733278.18046        40.800
> 2013  6 15  4 55 30.0000000  0 33
G21  24188601.859 6 127112021.386 6        38.300    24188615.195 3  99048380.67043        22.000
G16  21091956.914 8 110839096.554 8        52.100    21091965.391 6  86368198.65746        41.100
G31  21123751.039 8 111006307.713 8        51.500    21123759.516 7  86498333.46947        42.700    21123759.223 8  86498335.463 8        49.100
G19  24691681.641 6 129755623.370 6        36.900    24691697.277 3 101108412.98743        19.900
G03  22478867.984 7 118127365.923 7        43.900    22478879.016 5  92047411.84645        31.300
G32  25328631.484 5 133102764.598 5        34.600    25328648.520 2 103716480.75742        16.900
G14  24167643.109 5 127001711.325 5        35.200    24167656.738 3  98962451.75643        18.600
G13  25104066.500 5 131922756.341 5        33.700    25104077.758 2 102797002.30142        15.600
G29  24114277.188 6 126721414.903 6        40.300    24114289.578 4  98744028.16244        24.500    24114289.109 6  98744022.148 6        40.900
G23  23069409.813 7 121230608.163 7        45.700    23069417.426 4  94465451.13944        29.800
G06  20923704.008 8 109954918.699 8        51.000    20923714.055 6  85679271.34446        40.900
> 2013  6 15  4 56  0.0000000  0 32
G21  24182245.523 6 127078613.744 6        38.900    24182257.441 3  99022348.81943        22.000
G16  21088906.477 8 110823068.330 8        52.300    21088915.059 6  86355709.12646        41.700
G31  21128632.961 8 111031962.771 8        52.200    21128641.730 7  86518324.39047        42.600    21128641.332 8  86518326.384 8        49.000
G19  24669266.953 6 129637832.773 6        37.800    24669282.543 4 101016628.68344        25.300
G03  22459400.055 7 118025059.515 7        44.100    22459411.098 5  91967692.65245        32.400
G32  25339777.688 5 133161337.182 5        34.600    25339795.219 2 103762121.39842        17.400
G14  24189085.102 6 127114389.840 6        36.100    24189100.090 3  99050252.94543        18.600
G13  25084380.297 5 131819303.306 5        33.800    25084391.934 2 102716389.64142        16.300
G29  24133102.352 6 126820337.628 6        41.700    24133113.098 4  98821110.73144        25.600    24133113.023 6  98821104.720 6        40.100
G23  23055047.617 7 121155135.486 7        45.600    23055055.859 5  94406641.30145        30.400
G06  20910602.445 8 109886071.490 8        50.700    20910613.277 6  85625624.22546        40.800
> 2013  6 15  4 56 30.0000000  0 33
G21  24175937.422 6 127045474.889 6        39.400    24175951.098 3  98996526.42443        21.800
G16  21085904.453 8 110807292.773 8        51.600    21085912.941 6  86343416.49346        41.700
G31  21133572.523 8 111057920.914 8        50.900    21133581.645 7  86538551.47447        42.700    21133581.551 8  86538553.475 8        48.500
G19  24646862.930 6 129520101.098 6        39.000    24646878.398 3 100924890.24743        22.600
G03  22439981.969 7 117923017.872 7        43.900    22439992.738 5  91888179.74845        31.900
G32  25350924.930 6 133219909.631 6        36.100    25350941.613 2 103807761.92642        17.400
G14  24210537.477 5 127227121.305 5        35.900    24210552.160 2  99138095.33242        17.800
G13  25064731.117 5 131716049.023 5        33.500    25064743.613 2 102635931.82242        16.900
G29  24151962.094 6 126919447.149 6        40.500    24151973.305 3  98898338.84643        22.800    24151973.277 6  98898332.826 6        39.900
G23  23040765.727 7 121080082.409 7        45.900    23040773.707 5  94348158.41945        32.000
G06  20897589.414 8 109817687.808 8        50.600    20897600.301 6  85572338.28846        40.600
> 2013  6 15  4 57  0.0000000  0 33
G21  24169683.867 6 127012606.912 6        40.000    24169696.867 3  98970915.11043        21.700
G16  21082950.883 8 110791769.128 8        51.900    21082958.879 7  86331320.14747        42.000
G31  21138570.133 8 111084183.146 8        50.700    21138579.047 7  86559015.51147        42.600    21138578.832 8  86559017.512 8        48.800
G19  24624470.656 6 129402430.774 6        38.200    24624486.238 3 100833199.63343        20.400
G03  22420615.141 7 117821243.555 7        45.600    22420626.441 5  91808875.16445        32.300
G32  25362069.953 6 133278479.352 6        36.800    25362086.805 2 103853400.37442        16.900
G14  24231998.375 5 127339902.865 5        35.000    24232012.656 2  99225976.76942        17.400
G13  25045120.961 5 131612996.482 5        34.300    25045132.621 2 102555631.24542        17.800
G29  24170856.914 6 127018740.452 6        39.500    24170868.508 3  98975710.18143        23.500    24170868.688 6  98975704.178 6        40.100
G23  23026563.828 7 121005450.991 7        46.600    23026572.059 5  94290004.09245        31.900
G06  20884665.656 8 109749769.244 8        50.800    20884675.402 6  85519414.78046        40.500
> 2013  6 15  4 57 30.0000000  0 33
G21  24163480.727 6 126980012.046 6        38.700    24163493.492 3  98945516.60243        22.200
G16  21080044.648 8 110776496.842 8        51.900    21080053.020 7  86319419.66547        42.400
G31  21143625.789 8 111110750.522 8        49.900    21143634.676 7  86579717.32747        42.800    21143634.434 8  86579719.328 8        48.800
G19  24602090.617 6 129284824.328 6        37.700    24602104.672 3 100741558.78243        20.600
G03  22401298.797 7 117719738.935 7        45.200    22401309.762 5  91729780.71945        32.100
G32  25373215.500 6 133337044.103 6        39.700    25373230.867 2 103899034.92842        16.300
G14  24253470.625 6 127452732.193 6        37.500    24253484.031 2  99313895.49742        17.400
G13  25025549.750 5 131510148.806 5        34.200    25025561.652 3 102475490.26743        18.300
G29  24189786.656 6 127118215.264 6        38.800    24189798.531 3  99053222.93743        22.800    24189797.449 6  99053216.930 6        40.000
G23  23012442.563 7 120931244.289 7        45.000    23012450.781 5  94232180.70845        32.500
G06  20871829.531 8 109682317.735 8        50.300    20871839.781 6  85466855.20546        40.400
> 2013  6 15  4 58  0.0000000  0 33
G21  24157331.328 6 126947692.467 6        40.000    24157343.605 3  98920332.59743        21.800
G16  21077186.039 8 110761474.974 8        52.100    21077194.707 6  86307714.32646        41.700
G31  21148739.859 8 111137623.987 8        50.900    21148748.738 7  86600657.65947        42.400    21148748.676 8  86600659.660 8        48.900
G19  24579722.867 6 129167284.915 6        39.700    24579737.965 3 100649970.13143        21.300
G03  22382034.820 7 117618505.946 7        45.200    22382046.395 5  91650897.93445        32.600
G32  25384357.727 6 133395601.462 6        36.700    25384374.301 2 103944663.74442        15.600
G14  24274949.141 6 127565606.973 6        37.400    24274964.367 3  99401849.63043        19.300
G13  25006018.109 5 131407508.768 5        34.600    25006029.801 2 102395511.15242        17.800
G29  24208750.359 6 127217869.211 6        40.700    24208762.313 4  99130875.25744        25.200    24208761.773 6  99130869.247 6        40.200
G23  22998402.383 7 120857464.124 7        45.200    22998410.750 5  94174689.70145        31.800
G06  20859083.289 8 109615335.146 8        51.000    20859093.238 6  85414661.02946        41.300
> 2013  6 15  4 58 30.0000000  0 32
G21  24151233.594 6 126915649.947 6        39.400    24151246.328 3  98895364.47943        22.000
G16  21074374.797 8 110746701.914 8        51.600    21074382.629 6  86296202.85246        41.600
G31  21153911.750 8 111164803.964 8        50.700    21153920.531 7  86621836.82547        43.000    21153920.289 8  86621838.826 8        48.700
G19  24557369.328 6 129049814.765 6        39.200    24557384.012 3 100558435.46443        22.200
G03  22362822.570 7 117517546.620 7        45.400    22362834.508 5  91572228.39045        31.800
G32  25395499.820 5 133454148.400 5        34.700    25395515.211 2 103990284.37942        15.600
G14  24296437.57816 127678524.09316        36.000    24296452.88713  99489836.71453        18.600
G13  24986524.383 5 131305078.781 5        35.800    24986537.930 2 102315695.63742        16.900
G29  24227746.844 6 127317699.242 6        40.300    24227758.809 3  99208664.85143        23.600    24227758.754 6  99208658.834 6        40.000
G23  22984444.188 7 120784113.448 7        45.000    22984452.617 5  94117533.35945        32.100
G06  20846426.102 8 109548822.635 8        50.500    20846436.648 6  85362833.14746        41.700
> 2013  6 15  4 59  0.0000000  0 33
G21  24145189.305 6 126883887.066 6        39.400    24145202.426 3  98870614.27643        22.800
G16  21071610.813 8 110732177.332 8        51.900    21071619.000 6  86284885.00146        41.800
G31  21159142.672 8 111192291.458 8        51.000    21159151.293 7  86643255.61547        42.600    21159151.230 8  86643257.616 8        48.800
G19  24535028.625 6 128932416.625 6        37.300    24535043.637 3 100466956.93843        22.200
G03  22343663.633 7 117416863.701 7        45.200    22343675.094 5  91493774.23745        33.600
G32  25406637.641 5 133512682.886 5        35.700    25406655.586 3 104035895.29843        18.300
G14  24317932.836 6 127791481.296 6        36.700    24317947.746 3  99577855.02443        19.000
G13  24967075.281 5 131202862.408 5        35.300    24967087.168 2 102236046.57842        17.400
G29  24246778.023 6 127417703.431 6        39.900    24246788.957 3  99286590.12343        22.900    24246788.512 6  99286584.109 6        39.400
G23  22970568.258 7 120711194.837 7        44.000    22970576.559 5  94060713.68145        31.000
G06  20833859.273 8 109482782.252 8        50.700    20833869.336 6  85311373.15646        40.700
> 2013  6 15  4 59 30.0000000  0 33
G21  24139198.766 6 126852404.760 6        40.100    24139211.168 3  98846082.68443        22.800
G16  21068893.359 8 110717898.624 8        51.100    21068901.813 6  86273758.73846        41.700
G31  21164431.820 8 111220086.381 8        50.500    21164440.613 7  86664913.95747        42.600    21164440.293 8  86664915.958 8        48.800
G19  24512701.945 6 128815091.722 6        37.300    24512716.320 3 100375535.46843        20.400
G03  22324557.063 7 117316458.037 7        45.900    22324568.344 5  91415536.12245        32.600
G32  25417774.406 6 133571201.025 6        37.100    25417791.289 3 104081493.50143        20.900
G14  24339434.023 6 127904474.747 6        36.300    24339449.773 3  99665901.61943        18.300
G13  24947664.063 5 131100861.113 5        35.300    24947676.766 2 102156565.11242        15.600
G29  24265840.375 6 127517877.894 6        39.900    24265851.816 3  99364648.04343        22.300    24265851.719 6  99364642.043 6        39.700
G23  22956775.227 7 120638709.186 7        43.800    22956782.680 5  94004231.37745        31.300
G06  20821381.805 8 109417214.443 8        49.500    20821392.211 6  85260281.40046        40.400
> 2013  6 15  5  0  0.0000000  0 33
G21  24133261.148 6 126821205.569 6        39.400    24133274.031 3  98821771.72343        22.300
G16  21066223.266 8 110703865.872 8        51.600    21066231.730 7  86262824.13847        42.200
G31  21169779.945 8 111248190.283 8        49.600    21169788.816 7  86686813.06347        42.600    21169788.738 8  86686815.064 8        48.900
G19  24490389.672 6 128697843.491 6        39.100    24490404.031 3 100284173.64643        20.600
G03  22305503.633 7 117216332.915 7        45.800    22305514.727 5  91337516.61345        32.900
G32  25428907.406 6 133629701.336 6        37.400    25428924.742 3 104127077.80543        20.600
G14  24360942.797 6 128017502.842 6        37.000    24360958.414 2  99753975.17642        17.800
G13  24928295.781 5 130999078.603 5        35.200    24928307.938 2 102077254.14142        16.900
G29  24284935.070 6 127618220.807 6        39.800    24284946.352 3  99442837.30043        23.000    24284945.969 6  99442831.292 6        38.700
G23  22943064.297 7 120566659.878 7        44.800    22943072.992 5  93948089.08945        31.900
G06  20808995.375 8 109352121.748 8        48.800    20809005.273 6  85209559.85346        41.600
> 2013  6 15  5  0 30.0000000  0 33
G21  24127379.180 6 126790291.802 6        40.100    24127391.250 3  98797683.16043        22.300
G16  21063599.625 8 110690078.520 8        51.500    21063607.754 6  86252080.75346        41.800
G31  21175186.813 8 111276604.029 8        50.400    21175195.859 7  86708953.60847        42.600    21175195.742 8  86708955.609 8        49.300
G19  24468092.375 6 128580674.961 6        38.200    24468107.535 3 100192873.96843        22.500
G03  22286504.391 7 117116490.469 7        46.300    22286515.590 5  91259717.36845        32.800
G32  25440036.258 6 133688181.250 6        36.400    25440053.293 3 104172646.15343        19.000
G14  24382458.578 6 128130562.981 6        36.400    24382473.219 3  99842073.75743        18.600
G13  24908969.000 6 130897517.933 6        36.000    24908981.223 2 101998115.96042        17.400
G29  24304061.133 6 127718729.952 6        39.500    24304071.871 3  99521156.07343        22.000    24304071.949 6  99521150.062 6        38.300
G23  22929437.219 7 120495049.613 7        44.900    22929445.746 5  93892288.88745        31.500
G06  20796699.453 8 109287505.899 8        50.800    20796709.777 6  85159209.87146        41.100
> 2013  6 15  5  1  0.0000000  0 32
G21  24121550.477 6 126759664.326 6        39.500    24121562.656 3  98773817.66343        22.200
G16  21061022.055 8 110676534.403 8        51.900    21061030.797 6  86241526.90846        41.200
G31  21180652.695 8 111305327.235 8        49.200    21180661.512 7  86731335.28747        43.200    21180661.656 8  86731337.288 8        48.300
G19  24445810.664 6 128463587.490 6        37.000    24445826.277 3 100101637.46943        21.800
G03  22267558.992 7 117016931.995 7        46.300    22267570.035 5  91182139.40145        32.700
G32  25451160.242 5 133746637.244 5        35.900    25451177.887 3 104218195.91043        18.300
G14  24403978.883 6 128243651.479 6        37.100    24403993.699 3  99930194.40543        19.000
G13  24889685.625 5 130796180.840 5        34.800    24889697.332 3 101919152.07743        18.300
G29  24323217.984 6 127819401.761 6        38.000    24323229.324 3  99599601.53943        21.700    24323229.531 6  99599595.541 6        39.000
G23  22915894.180 7 120423879.443 7        45.700    22915902.438 5  93836831.62545        30.800
G06  20784494.000 8 109223367.413 8        49.400    20784503.719 6  85109231.86246        41.300
> 2013  6 15  5  1 30.0000000  0 33
G21  24115776.898 6 126729325.969 6        39.400    24115789.004 3  98750177.47943        22.200
G16  21058491.102 8 110663233.161 8        51.400    21058499.613 6  86231162.31146        41.600
G31  21186177.813 8 111334361.421 8        50.000    21186186.660 7  86753959.30047        42.700    21186186.777 8  86753961.301 8        48.800
G19  24423546.289 6 128346584.269 6        38.400    24423561.129 3 100010466.63243        23.000
G03  22248668.367 7 116917660.051 7        46.500    22248679.207 5  91104784.70545        33.000
G32  25462279.266 5 133805067.361 5        35.400    25462296.750 2 104263725.42742        16.900
G14  24425503.305 6 128356766.356 6        36.600    24425519.387 3 100018335.59043        19.300
G13  24870445.078 6 130695070.847 6        36.100    24870456.523 2 101840365.11542        17.400
G29  24342406.492 6 127920234.118 6        40.200    24342417.031 3  99678172.17743        22.500    24342416.609 6  99678166.195 6        38.100
G23  22902435.258 7 120353152.465 7        44.700    22902443.441 5  93781719.69745        31.000
G06  20772380.188 8 109159708.438 8        49.900    20772390.363 6  85059627.51346        41.600
> 2013  6 15  5  2  0.0000000  0 33
G21  24110058.781 6 126699279.254 6        38.900    24110070.371 3  98726764.52743        22.500
G16  21056005.930 8 110650174.179 8        51.800    21056014.262 6  86220986.48546        41.700
G31  21191762.641 8 111363707.693 8        49.700    21191771.223 7  86776826.49447        42.700    21191771.203 8  86776828.494 8        48.800
G19  24401297.828 6 128229668.241 6        38.900    24401312.047 3  99919363.68843        22.500
G03  22229832.492 7 116818677.034 7        46.900    22229843.563 5  91027655.15445        33.700
G32  25473392.875 6 133863469.370 6        36.100    25473410.426 2 104309233.04742        17.400
G14  24447033.258 5 128469905.596 5        35.500    24447049.441 2 100106495.78442        17.400
G13  24851248.641 6 130594191.079 6        36.900    24851259.926 3 101761757.53243        19.000
G29  24361623.836 6 128021224.929 6        40.100    24361636.043 3  99756866.28443        22.200    24361635.234 6  99756860.278 6        39.400
G23  22889061.438 7 120282871.378 7        45.700    22889069.137 5  93726955.22445        30.900
G06  20760358.250 8 109096530.754 8        49.500    20760367.852 6  85010398.19146        41.700
> 2013  6 15  5  2 30.0000000  0 32
G21  24104397.359 6 126669525.492 6        37.300    24104409.656 3  98703579.88043        21.700
G16  21053566.883 8 110637355.695 8        51.700    21053575.105 6  86210998.06146        41.400
G31  21197406.164 8 111393366.415 8        49.700    21197415.082 7  86799937.15647        42.500    21197414.652 8  86799939.152 8        48.600
G19  24379064.992 6 128112841.497 6        37.700    24379079.867 3  99828330.26843        21.500
G03  22211051.797 7 116719984.907 7        47.100    22211062.941 5  90950752.26945        33.600
G32  25484500.42215 133921840.30415        35.100    25484518.43012 104354716.51152        17.800
G14  24468567.766 5 128583065.956 5        35.800    24468583.406 2 100194672.43642        16.900
G13  24832094.781 5 130493544.048 5        33.500    24832108.004 2 101683331.32742        16.900
G29  24380871.063 6 128122371.240 6        38.000    24380883.867 3  99835681.53143        22.600    24380883.258 6  99835675.516 6        40.500
G23  22875772.328 7 120213037.980 7        46.000    22875780.613 5  93672539.60645        31.800
G06  20748427.430 8 109033835.453 8        49.200    20748437.434 6  84961544.74346        41.600
> 2013  6 15  5  3  0.0000000  0 32
G21  24098790.789 6 126640066.587 6        39.400    24098802.574 3  98680624.99143        21.100
G16  21051172.867 8 110624777.219 8        51.000    21051181.211 7  86201196.65747        42.200
G31  21203109.453 8 111423338.129 8        50.000    21203118.602 7  86823291.70947        42.900    21203118.641 8  86823293.703 8        48.600
G19  24356851.172 6 127996106.705 6        36.800    24356865.031 3  99737368.52843        21.700
G03  22192326.898 7 116621585.608 7        47.100    22192338.176 5  90874077.56245        34.400
G32  25495601.438 5 133980177.764 5        34.800    25495620.637 2 104400173.82542        16.300
G14  24490104.508 6 128696244.980 6        36.500    24490120.602 2 100282863.62442        16.300
G13  24812987.313 5 130393132.356 5        35.300    24813000.129 3 101605088.52643        18.600
G29  24400148.883 6 128223670.800 6        39.000    24400160.500 3  99914616.15343        22.800    24400160.227 6  99914610.131 6        39.600
G23  22862568.344 7 120143654.612 7        45.800    22862576.938 5  93618474.65545        30.400
G06  20736588.563 8 108971624.033 8        49.600    20736598.961 6  84913068.34046        41.300
> 2013  6 15  5  3 30.0000000  0 33
G21  24093242.055 6 126610904.425 6        39.200    24093253.246 3  98657901.33243        21.800
G16  21048824.688 8 110612437.888 8        50.200    21048833.594 6  86191581.59346        41.600
G31  21208872.844 8 111453623.665 8        49.900    21208881.973 7  86846890.79847        43.000    21208881.480 8  86846892.799 8        48.500
G19  24334655.500 6 127879466.478 6        39.200    24334669.738 4  99646480.51744        24.700
G03  22173658.680 7 116523481.492 7        47.100    22173669.301 5  90797632.87445        33.800
G32  25506695.891 5 134038479.268 5        35.400    25506716.270 2 104445603.13242        17.400
G14  24511645.016 6 128809439.980 6        37.200    24511661.895 2 100371067.24842        16.900
G13  24793925.227 6 130292959.326 6        36.000    24793937.508 2 101527031.69742        17.800
G29  24419453.453 6 128325120.905 6        38.800    24419464.352 3  99993668.15543        21.700    24419464.832 6  99993662.146 6        38.100
G23  22849452.133 7 120074723.685 7        46.000    22849459.660 5  93564762.26845        31.900
G06  20724842.734 8 108909898.050 8        49.500    20724852.758 6  84864970.22146        41.700
> 2013  6 15  5  4  0.0000000  0 32
G21  24087749.313 6 126582040.899 6        38.400    24087761.480 3  98635410.37243        21.800
G16  21046522.242 8 110600335.842 8        50.300    21046530.875 7  86182151.43347        42.400
G31  21214695.813 8 111484223.310 8        50.000    21214704.875 7  86870734.64147        42.700    21214704.488 8  86870736.642 8        49.100
G19  24312477.992 6 127762922.994 6        38.600    24312492.027 3  99555667.83943        23.200
G03  22155046.141 7 116425674.579 7        46.600    22155056.953 5  90721419.75945        34.000
G32  25517783.664 5 134096741.857 5        35.800    25517803.008 2 104491002.05742        17.800
G14  24533188.844 6 128922648.060 6        36.800    24533204.262 2 100459281.11942        16.300
G13  24774908.953 6 130193027.221 6        36.600    24774920.508 2 101449162.50942        17.800
G29  24438786.672 6 128426718.083 6        38.600    24438798.145 3 100072834.77443        21.700    24438798.051 6 100072828.771 6        38.400
G23  22836421.352 7 120006247.094 7        46.400    22836429.004 5  93511403.90045        31.600
G06  20713189.219 8 108848658.577 8        49.800    20713199.234 6  84817251.17646        41.200
> 2013  6 15  5  4 30.0000000  0 32
G21  24082314.211 6 126553478.611 6        37.800    24082325.711 3  98613154.13643        21.500
G16  21044264.336 8 110588470.793 8        50.900    21044272.426 6  86172905.94046        41.300
G31  21220578.547 8 111515138.510 8        50.500    21220587.289 7  86894824.37247        42.300    21220587.191 8  86894826.372 8        48.100
G19  24290319.641 6 127646479.482 6        38.400    24290332.301 3  99464933.04243        22.900
G03  22136491.164 8 116328167.172 8        48.000    22136501.781 5  90645440.04345        33.900
G32  25528863.500 5 134154963.762 5        35.000    25528882.891 3 104536369.31743        18.300
G14  24554733.781 6 129035867.359 6        36.600    24554750.207 2 100547503.69142        17.800
G13  24755937.641 5 130093339.287 5        33.500    24755951.098 2 101371483.72242        16.300
G29  24458147.508 6 128528460.814 6        38.000    24458160.063 3 100152114.72143        22.000    24458159.590 6 100152108.718 6        40.100
G23  22823477.773 7 119938227.576 7        47.100    22823485.629 5  93458401.69245        31.700
G06  20701628.742 8 108787907.773 8        50.500    20701638.688 7  84769912.92647        42.100
> 2013  6 15  5  5  0.0000000  0 32
G21  24076936.023 6 126525218.437 6        37.600    24076948.254 3  98591133.33943        22.200
G16  21042051.133 8 110576841.259 8        51.900    21042059.184 6  86163843.97146        41.500
G31  21226521.852 8 111546369.345 8        49.400    21226530.805 7  86919160.06147        42.500    21226530.320 8  86919162.055 8        48.600
G19  24268179.891 6 127530137.716 6        38.300    24268192.840 4  99374277.50444        24.200
G03  22117993.039 7 116230961.009 7        47.200    22118004.480 5  90569695.04045        33.600
G32  25539934.852 5 134213141.687 5        35.100    25539954.531 3 104581702.25843        18.300
G14  24576279.305 5 129149094.426 5        34.600    24576297.230 2 100635732.30842        16.900
G13  24737015.609 5 129993898.019 5        34.800    24737028.309 3 101293997.11943        18.600
G29  24477536.414 6 128630346.087 6        38.900    24477547.922 3 100231505.77643        22.500    24477547.938 6 100231499.778 6        38.800
G23  22810621.219 7 119870666.880 7        47.100    22810629.719 5  93405757.01645        32.000
G06  20690161.234 8 108727646.132 8        50.300    20690171.387 7  84722955.82947        42.000
> 2013  6 15  5  5 30.0000000  0 33
G21  24071615.953 6 126497262.919 6        38.300    24071628.117 3  98569349.91743        22.600
G16  21039882.750 8 110565446.285 8        50.700    21039891.059 6  86154964.76846        41.700
G31  21232525.227 8 111577916.805 8        50.100    21232534.070 7  86943742.46747        42.200    21232533.840 8  86943744.468 8        48.400
G19  24246059.945 6 127413900.673 6        38.700    24246073.496 4  99283703.57744        24.100
G03  22099553.094 7 116134058.478 7        46.900    22099565.063 5  90494186.65045        33.600
G32  25550997.586 5 134271273.433 5        34.700    25551016.883 3 104626999.23143        18.300
G14  24597827.633 5 129262327.287 5        35.700    24597844.742 2 100723965.43542        16.300
G13  24718139.969 6 129894706.773 6        36.700    24718151.680 2 101216705.34242        16.900
G29  24496951.203 6 128732371.886 6        39.600    24496962.922 3 100311006.34943        22.600    24496963.004 6 100311000.338 6        39.000
G23  22797852.633 7 119803567.595 7        47.600    22797860.848 5  93353471.86745        32.000
G06  20678787.477 8 108667875.391 8        50.800    20678797.543 7  84676381.26347        42.300
> 2013  6 15  5  6  0.0000000  0 33
G21  24066354.656 6 126469613.729 6        37.500    24066366.301 3  98547805.20143        22.300
G16  21037758.875 8 110554285.151 8        50.700    21037767.301 7  86146267.79447        42.100
G31  21238589.078 8 111609781.310 8        50.200    21238597.555 7  86968571.92947        42.000    21238597.367 8  86968573.937 8        48.200
G19  24223961.281 6 127297770.723 6        38.300    24223974.469 4  99193213.08644        24.000
G03  22081171.164 7 116037461.181 7        46.800    22081182.574 5  90418916.09145        34.200
G32  25562050.219 5 134329356.402 5        34.300    25562069.563 2 104672258.18742        16.300
G14  24619375.992 6 129375562.997 6        37.000    24619392.832 2 100812200.77342        17.400
G13  24699312.734 5 129795767.809 5        34.600    24699324.254 2 101139610.04342        16.900
G29  24516392.422 6 128834535.204 6        38.800    24516403.910 3 100390614.09043        21.300    24516403.512 6 100390608.080 6        38.800
G23  22785172.039 7 119736931.779 7        47.700    22785180.398 5  93301547.88045        32.100
G06  20667506.914 8 108608597.023 8        50.900    20667517.121 7  84630190.36847        42.000
> 2013  6 15  5  6 30.0000000  0 33
G21  24061152.055 6 126442273.286 6        38.400    24061164.289 3  98526501.03443        22.500
G16  21035679.469 8 110543356.985 8        51.300    21035687.746 7  86137752.34447        42.000
G31  21244712.742 8 111641963.958 8        50.800    21244721.926 7  86993649.28247        42.600    21244721.645 8  86993651.283 8        48.600
G19  24201883.609 6 127181750.886 6        38.300    24201895.949 3  99102808.38743        22.800
G03  22062848.086 7 115941171.946 7        47.200    22062859.793 5  90343885.57245        34.800
G32  25573093.969 5 134387388.539 5        34.000    25573113.891 2 104717477.62042        14.800
G14  24640923.594 5 129488799.533 5        35.600    24640941.316 2 100900436.78842        17.400
G13  24680533.977 5 129697084.615 5        33.700    24680545.715 2 101062714.19042        16.900
G29  24535858.820 6 128936834.533 6        36.900    24535870.797 3 100470327.75443        21.500    24535870.625 6 100470321.773 6        38.000
G23  22772580.492 7 119670761.931 7        47.900    22772588.910 5  93249986.97445        32.700
G06  20656320.430 8 108549812.626 8        51.700    20656330.301 6  84584384.39046        41.900
> 2013  6 15  5  7  0.0000000  0 33
G21  24056007.922 6 126415242.845 6        39.200    24056020.238 3  98505438.48543        22.000
G16  21033643.914 8 110532660.527 8        49.800    21033652.980 7  86129417.45047        42.000
G31  21250897.508 8 111674465.316 8        50.400    21250906.227 7  87018974.97947        42.200    21250905.938 8  87018976.980 8        48.700
G19  24179826.203 6 127065843.602 6        38.300    24179839.152 3  99012491.37043        23.900
G03  22044583.938 8 115845192.512 8        48.800    22044595.094 5  90269096.46145        34.600
G32  25584128.375 5 134445367.135 5        35.800    25584146.215 2 104762655.20142        17.400
G14  24662472.242 5 129602033.486 5        34.800    24662489.082 3 100988670.77743        18.300
G13  24661803.664 5 129598659.746 5        34.000    24661816.574 2 100986019.60242        17.400
G29  24555350.531 6 129039266.315 6        37.300    24555363.113 3 100550144.70243        20.100    24555361.953 6 100550138.699 6        36.800
G23  22760077.867 7 119605059.925 7        47.600    22760085.949 5  93198790.63545        33.400
G06  20645228.172 8 108491523.375 8        50.200    20645238.668 7  84538964.22547        42.000
> 2013  6 15  5  7 30.0000000  0 32
G21  24050923.969 6 126388523.575 6        40.200    24050935.820 3  98484618.37543        22.900
G16  21031651.836 8 110522193.823 8        51.100    21031660.816 7  86121261.58047        42.000
G31  21257143.031 8 111707284.634 8        51.100    21257152.047 7  87044548.43647        42.100    21257151.883 8  87044550.436 8        48.200
G19  24157790.797 6 126950050.405 6        38.600    24157804.363 3  98922263.25943        22.500
G03  22026378.680 8 115749523.724 8        48.000    22026389.969 5  90194549.41145        35.400
G32  25595149.734 5 134503288.501 5        35.200    25595169.863 2 104807788.20342        16.300
G14  24684019.766 5 129715261.942 5        34.600    24684036.254 2 101076900.48942        16.300
G13  24643124.172 5 129500494.871 5        33.100    24643136.125 2 100909527.60942        16.900
G29  24574868.484 6 129141827.415 6        37.100    24574880.137 3 100630062.37343        22.000    24574880.199 6 100630056.372 6        39.400
G23  22747664.156 7 119539827.238 7        47.200    22747672.855 5  93147959.98645        33.100
G06  20634230.398 8 108433729.545 8        51.200    20634240.613 7  84493930.10547        42.000
> 2013  6 15  5  8  0.0000000  0 33
G21  24045899.156 6 126362118.400 6        41.300    24045910.457 3  98464042.99043        22.900
G16  21029704.570 8 110511957.324 8        50.900    21029712.383 7  86113285.08347        42.500
G31  21263449.180 8 111740423.794 8        50.700    21263458.293 7  87070371.12547        42.800    21263457.969 8  87070373.126 8        48.100
G19  24135778.555 6 126834375.096 6        40.200    24135792.254 4  98832127.02344        26.500
G03  22008232.867 7 115654169.035 7        47.000    22008244.680 5  90120247.11645        35.500
G32  25606161.273 5 134561151.480 5        35.000    25606181.242 2 104852875.69742        17.400
G14  24705564.500 5 129828483.539 5        34.600    24705581.055 2 101165124.83942        16.300
G13  24624493.664 5 129402594.376 5        34.800    24624505.672 2 100833241.64142        17.800
G29  24594410.164 6 129244516.329 6        38.300    24594420.895 3 100710079.64343        22.000    24594421.258 6 100710073.628 6        40.000
G23  22735340.984 8 119475067.110 8        48.100    22735349.168 5  93097497.57245        32.600
G06  20623327.430 8 108376433.142 8        51.100    20623337.313 7  84449283.59647        42.100
> 2013  6 15  5  8 30.0000000  0 33
G21  24040934.156 6 126336028.672 6        41.200    24040945.477 4  98443713.44044        25.200
G16  21027799.922 8 110501949.392 8        51.100    21027807.832 6  86105486.69546        41.800
G31  21269816.602 8 111773883.365 8        51.400    21269825.215 7  87096443.48447        42.000    21269825.086 8  87096445.484 8        48.200
G19  24113788.805 6 126718819.870 6        40.300    24113802.066 4  98742084.30844        25.800
G03  21990147.703 7 115559130.161 7        47.200    21990158.922 5  90046190.89745        35.600
G32  25617160.781 5 134618953.296 5        35.500    25617181.109 2 104897915.49242        15.600
G14  24727108.484 5 129941695.178 5        34.500    24727125.750 2 101253341.45542        17.400
G13  24605914.117 6 129304960.633 6        36.200    24605926.512 3 100757163.50143        19.300
G29  24613973.953 6 129347330.490 6        36.300    24613985.844 3 100790194.51443        18.300    24613985.688 6 100790188.505 6        36.900
G23  22723107.859 7 119410781.272 7        47.600    22723116.051 5  93047404.73045        33.000
G06  20612519.195 8 108319635.680 8        51.200    20612529.152 6  84405025.86846        41.900
> 2013  6 15  5  9  0.0000000  0 32
G21  24036030.781 6 126310256.619 6        41.100    24036041.457 3  98423631.42143        22.800
G16  21025938.898 8 110492169.322 8        51.800    21025946.586 7  86097865.86647        42.000
G31  21276244.602 8 111807664.181 8        50.300    21276253.836 7  87122766.16447        42.200    21276253.277 8  87122768.165 8        48.700
G19  24091821.695 6 126603386.923 6        40.200    24091835.332 3  98652136.89443        22.500
G03  21972123.164 7 115464409.454 7        47.900    21972134.023 5  89972382.61045        35.200
G32  25628148.852 5 134676691.717 5        34.800    25628169.000 2 104942905.84642        16.900
G14  24748650.000 5 130054894.697 5        34.100    24748666.977 2 101341548.69742        17.800
G13  24587387.063 6 129207596.488 6        36.200    24587398.273 3 100681295.47743        18.300
G29  24633561.758 5 129450267.752 5        35.300    24633573.766 3 100870405.29543        19.000    24633573.750 6 100870399.301 6        37.600
G23  22710965.383 7 119346972.139 7        46.700    22710973.152 5  92997683.35045        32.200
G06  20601806.313 8 108263338.429 8        51.600    20601816.168 7  84361157.91547        42.200
> 2013  6 15  5  9 30.0000000  0 33
G21  24031187.063 6 126284803.580 6        41.200    24031197.512 4  98403797.96444        24.700
G16  21024120.742 8 110482615.725 8        51.000    21024128.754 7  86090421.51147        42.500
G31  21282733.930 8 111841766.318 8        50.300    21282743.238 6  87149339.22346        41.800    21282743.016 8  87149341.224 8        48.100
G19  24069880.070 6 126488079.214 6        41.600    24069893.133 4  98562287.05144        26.500
G03  21954159.289 7 115370008.141 7        47.600    21954170.180 5  89898823.20845        34.800
G32  25639123.023 5 134734363.723 5        34.700    25639143.352 2 104987844.49642        15.600
G14  24770187.445 5 130168078.919 5        33.000    24770205.738 2 101429743.97442        16.300
G13  24568911.008 6 129110504.511 6        38.100    24568922.133 2 100605639.46542        17.800
G29  24653173.883 6 129553324.928 6        38.400    24653185.996 3 100950709.54543        22.000    24653185.543 6 100950703.556 6        39.000
G23  22698914.047 7 119283641.051 7        46.900    22698921.453 5  92948334.45845        32.600
G06  20591188.195 8 108207542.109 8        51.900    20591198.586 6  84317680.29946        41.600
> 2013  6 15  5 10  0.0000000  0 32
G21  24026402.828 6 126259671.989 6        41.600    24026415.699 3  98384215.01443        22.000
G16  21022345.828 8 110473287.941 8        51.900    21022353.535 7  86083153.11247        43.100
G31  21289284.820 8 111876190.668 8        51.900    21289293.711 7  87176163.36347        42.000    21289293.270 8  87176165.357 8        48.300
G19  24047961.195 6 126372899.282 6        41.500    24047974.984 4  98472536.78644        25.800
G03  21936256.297 7 115275929.092 7        47.700    21936267.434 5  89825514.91045        35.200
G32  25650085.195 6 134791967.232 6        36.500    25650105.043 2 105032729.81042        15.600
G14  24791722.195 5 130281245.700 5        33.300    24791740.578 2 101517925.66442        16.300
G13  24550487.453 6 129013687.743 6        36.200    24550498.316 2 100530197.94942        17.800
G29  24672807.484 6 129656499.939 6        38.800    24672819.508 4 101031105.61144        24.300    24672819.375 6 101031099.614 6        40.000
G23  22686953.602 7 119220790.797 7        46.800    22686961.738 5  92899360.25545        32.400
G06  20580666.680 8 108152248.437 8        52.100    20580676.465 6  84274594.34646        41.700
> 2013  6 15  5 10 30.0000000  0 33
G21  24021682.063 6 126234862.615 6        40.100    24021694.297 3  98364883.10543        22.500
G16  21020613.453 8 110464184.510 8        51.200    21020621.277 7  86076059.54847        42.500
G31  21295897.109 8 111910937.005 8        50.900    21295905.848 6  87203238.39146        41.800    21295905.637 8  87203240.399 8        48.000
G19  24026068.047 6 126257849.127 6        41.800    24026081.359 4  98382887.63344        26.500
G03  21918415.461 7 115182173.403 7        47.500    21918425.930 5  89752458.60145        35.500
G32  25661034.961 6 134849499.110 6        37.300    25661053.148 2 105077559.22942        16.300
G14  24813253.969 5 130394391.787 5        34.300    24813272.281 2 101606091.24242        17.400
G13  24532116.914 6 128917148.804 6        38.300    24532127.922 3 100454972.95643        19.000
G29  24692462.828 6 129759789.712 6        36.300    24692474.922 3 101111591.01943        21.800    24692474.836 6 101111585.031 6        39.500
G23  22675085.047 7 119158422.878 7        45.700    22675093.559 5  92850761.88745        31.700
G06  20570239.984 8 108097457.777 8        51.900    20570250.008 7  84231900.35547        42.100
> 2013  6 15  5 11  0.0000000  0 33
G21  24017022.383 6 126210377.763 6        39.900    24017034.996 3  98345804.09943        22.500
G16  21018923.383 8 110455304.486 8        50.300    21018931.941 7  86069140.05747        42.200
G31  21302570.477 8 111946006.667 8        51.300    21302579.500 6  87230565.36346        41.700    21302579.371 7  87230567.364 7        47.500
G19  24004199.805 6 126142931.800 6        41.500    24004212.645 4  98293341.96444        25.200
G03  21900636.078 7 115088743.848 7        47.300    21900647.090 5  89679656.40545        35.700
G32  25671968.961 5 134906957.410 5        35.900    25671988.406 2 105122331.38342        14.800
G14  24834781.242 5 130507515.109 5        33.100    24834798.141 2 101694239.11442        17.400
G13  24513799.172 6 128820890.553 6        38.900    24513810.688 3 100379966.65443        20.400
G29  24712139.945 6 129863192.135 6        36.900    24712151.273 3 101192164.26043        20.900    24712151.355 6 101192158.257 6        37.900
G23  22663309.477 7 119096539.666 7        47.000    22663317.480 5  92802541.22245        32.300
G06  20559909.828 8 108043171.791 8        51.300    20559919.570 6  84189599.61146        41.900
> 2013  6 15  5 11 30.0000000  0 33
G21  24012425.016 6 126186218.459 6        40.900    24012437.664 3  98326978.74543        22.600
G16  21017276.055 8 110446646.297 8        51.100    21017284.508 7  86062393.43447        42.600
G31  21309305.156 8 111981399.480 8        50.500    21309314.508 6  87258144.14346        41.700    21309314.539 8  87258146.144 8        48.700
G19  23982357.258 6 126028149.095 6        40.800    23982369.859 4  98203901.21844        26.200
G03  21882918.797 7 114995641.391 7        47.600    21882930.082 5  89607109.10245        35.500
G32  25682888.383 5 134964339.070 5        35.400    25682909.020 2 105167043.80942        15.600
G14  24856303.477 5 130620612.694 5        33.200    24856321.352 2 101782366.91342        14.800
G13  24495535.414 6 128724915.238 6        38.100    24495547.348 3 100305180.78643        19.300
G29  24731837.445 6 129966704.323 6        40.100    24731849.316 3 101272823.06643        20.900    24731849.137 6 101272817.063 6        37.100
G23  22651626.219 7 119035142.558 7        47.100    22651633.633 5  92754699.34345        32.400
G06  20549675.328 8 107989391.040 8        51.400    20549685.605 7  84147692.56247        42.100
> 2013  6 15  5 12  0.0000000  0 33
G21  24007891.125 6 126162387.666 6        39.500    24007902.309 3  98308409.36343        22.900
G16  21015670.719 8 110438209.900 8        50.000    21015678.715 6  86055819.62746        41.900
G31  21316102.289 8 112017116.610 8        50.000    21316111.672 6  87285975.63246        41.200    21316111.465 8  87285977.633 8        48.200
G19  23960540.750 6 125913504.356 6        40.200    23960553.652 4  98114567.94744        24.500
G03  21865265.273 7 114902869.059 7        47.500    21865275.898 5  89534819.02645        35.800
G32  25693792.391 5 135021642.478 5        33.400    25693814.297 2 105211695.24842        14.800
G14  24877818.727 5 130733682.637 5        32.800    24877837.883 2 101870473.18242        14.800
G13  24477326.648 6 128629226.440 6        38.500    24477337.988 3 100230618.20443        18.600
G29  24751555.828 6 130070324.353 6        40.200    24751568.348 3 101353565.90743        22.300    24751566.941 6 101353559.919 6        38.600
G23  22640035.586 7 118974234.426 7        47.300    22640043.813 5  92707238.46245        32.800
G06  20539538.055 8 107936117.423 8        52.200    20539547.789 7  84106180.68747        42.600
> 2013  6 15  5 12 30.0000000  0 32
G21  24003418.820 6 126138886.400 6        41.000    24003429.492 3  98290096.78243        22.900
G16  21014107.094 8 110429994.042 8        49.200    21014115.031 7  86049417.66747        42.200
G31  21322960.680 8 112053158.400 8        51.200    21322969.879 6  87314060.11046        41.500    21322969.711 8  87314062.103 8        48.600
G19  23938751.414 6 125798999.882 6        40.600    23938763.379 4  98025343.95744        26.900
G03  21847673.938 8 114810428.538 8        48.600    21847685.004 6  89462787.51046        36.300
G32  25704682.49215 135078864.76215        33.700    25704703.16012 105256283.40652        14.800
G14  24899330.39115 130846722.20915        32.900    24899349.17612 101958555.88152        16.900
G13  24459172.148 6 128533826.655 6        37.000    24459184.234 2 100156280.80542        17.400
G29  24771294.125 6 130174049.878 6        36.700    24771306.293 3 101434390.93843        21.100    24771306.289 6 101434384.928 6        39.700
G23  22628538.203 7 118913816.715 7        47.900    22628546.566 5  92660159.74245        32.300
G06  20529496.922 8 107883351.587 8        51.300    20529506.664 7  84065064.48047        42.600
> 2013  6 15  5 13  0.0000000  0 33
G21  23999009.281 6 126115716.392 6        41.100    23999020.535 3  98272042.29943        23.000
G16  21012585.133 8 110421997.492 8        51.700    21012593.434 6  86043186.60546        41.500
G31  21329881.180 8 112089525.356 8        50.800    21329890.219 6  87342397.95746        41.700    21329889.828 8  87342399.951 8        48.300
G19  23916988.438 6 125684638.133 6        40.800    23917001.109 4  97936231.21144        25.600
G03  21830147.094 7 114718321.425 7        47.900    21830157.719 5  89391015.79445        35.700
G32  25715556.680 5 135136003.371 5        35.500    25715577.035 2 105300806.39442        14.800
G14  24920835.26615 130959728.46115        33.700    24920853.03112 102046612.49352        16.300
G13  24441073.836 6 128438718.771 6        37.000    24441085.063 3 100082170.90543        18.300
G29  24791051.57816 130277878.27216        36.200    24791064.38713 101515296.00353        20.400    24791064.19916 101515289.97216        38.900
G23  22617134.813 7 118853891.635 7        47.000    22617143.000 5  92613464.89045        32.700
G06  20519552.750 8 107831094.567 8        52.100    20519562.660 7  84024344.76247        42.700
> 2013  6 15  5 13 30.0000000  0 32
G21  23994663.125 6 126092878.956 6        39.500    23994675.316 3  98254246.99543        22.600
G16  21011105.000 8 110414218.848 8        51.100    21011113.352 7  86037125.33247        42.300
G31  21336863.453 8 112126217.544 8        49.300    21336872.738 6  87370989.23346        41.800    21336872.664 7  87370991.234 7        47.600
G19  23895254.063 6 125570421.431 6        39.300    23895265.734 4  97847231.45644        27.100
G03  21812683.133 7 114626549.476 7        46.900    21812694.160 5  89319505.24945        35.700
G32  25726413.531 6 135193055.720 6        37.500    25726434.297 2 105345262.23742        14.800
G14  24942333.984 5 131072698.991 5        35.000    24942349.805 2 102134641.31342        15.600
G13  24423032.078 6 128343905.243 6        38.700    24423042.813 3 100008290.25443        19.300
G29  24810829.359 6 130381806.602 6        39.600    24810840.816 3 101596279.04143        22.200    24810840.863 6 101596273.030 6        37.500
G23  22605825.898 7 118794460.774 7        45.700    22605833.629 5  92567155.14245        32.000
G06  20509705.547 8 107779347.017 8        50.300    20509715.770 7  83984022.03047        42.300
> 2013  6 15  5 14  0.0000000  0 32
G21  23990381.852 6 126070376.885 6        40.100    23990392.816 4  98236713.00044        24.800
G16  21009666.672 8 110406658.282 8        49.800    21009674.867 7  86031233.99347        42.500
G31  21343908.063 8 112163236.683 8        49.900    21343917.039 6  87399835.27546        40.900    21343916.789 7  87399837.276 7        47.900
G19  23873547.477 6 125456353.061 6        40.400    23873558.574 4  97758347.28844        25.300
G03  21795283.969 7 114535115.456 7        47.300    21795294.813 6  89248258.01746        36.200
G32  25737253.469 6 135250020.306 6        36.000    25737275.484 2 105389649.62342        17.800
G14  24963824.133 5 131185632.133 5        35.900    24963841.098 2 102222641.06542        16.300
G13  24405045.492 6 128249389.621 6        39.100    24405057.254 3  99934641.81643        19.600
G29  24830624.977 6 130485833.253 6        39.800    24830636.000 3 101677338.72343        21.300    24830635.734 5 101677332.747 5        35.500
G23  22594611.023 7 118735527.546 7        45.900    22594619.223 5  92521233.15345        32.300
G06  20499955.734 8 107728111.136 8        50.000    20499965.402 7  83944098.00347        42.500
> 2013  6 15  5 14 30.0000000  0 32
G21  23986162.430 6 126048210.632 6        39.200    23986174.781 3  98219440.68443        23.000
G16  21008268.711 8 110399314.123 8        50.300    21008277.051 7  86025511.27347        42.700
G31  21351014.844 8 112200582.587 8        49.600    21351023.746 6  87428935.93746        41.400    21351023.785 7  87428937.938 7        47.800
G19  23851869.367 6 125342435.385 6        40.800    23851881.195 4  97669580.48944        27.900
G03  21777949.086 8 114444020.597 8        48.300    21777959.355 5  89177275.07445        35.700
G32  25748077.125 5 135306894.159 5        35.500    25748099.051 2 105433966.36542        17.400
G14  24985306.97715 131298524.46715        34.400    24985324.25812 102310608.98852        16.900
G13  24387117.414 6 128155174.516 6        38.600    24387128.461 2  99861227.46142        17.800
G29  24850437.711 5 130589955.104 5        35.400    24850450.676 3 101758472.63543        18.600    24850449.945 6 101758466.654 6        37.400
G23  22583490.891 7 118677092.481 7        47.600    22583499.344 5  92475699.35045        33.000
G06  20490303.008 8 107677387.242 8        49.900    20490313.066 7  83904572.91547        42.500
> 2013  6 15  5 15  0.0000000  0 33
G21  23982009.000 6 126026381.930 6        40.500    23982021.059 3  98202431.37343        22.500
G16  21006911.820 8 110392184.316 8        51.000    21006920.395 6  86019955.58946        41.700
G31  21358183.648 8 112238254.364 8        48.500    21358192.793 6  87458290.52546        41.200    21358192.828 8  87458292.525 8        48.100
G19  23830220.086 6 125228669.638 6        40.200    23830232.359 4  97580932.09944        26.200
G03  21760678.883 7 114353266.183 7        47.800    21760689.891 5  89106557.41345        35.300
G32  25758882.391 5 135363673.734 5        35.300    25758904.270 2 105478209.64042        17.400
G14  25006780.45315 131411372.72215        34.300    25006797.36712 102398542.58852        15.600
G13  24369246.102 6 128061261.595 6        37.800    24369257.523 3  99788048.61943        18.300
G29  24870270.24215 130694169.24415        34.800    24870281.93813 101839678.31253        20.900    24870281.31316 101839672.31616        39.200
G23  22572466.781 7 118619156.909 7        47.900    22572474.965 5  92430554.76545        33.300
G06  20480747.977 8 107627175.142 8        49.700    20480757.828 7  83865446.63547        42.600
> 2013  6 15  5 15 30.0000000  0 32
G21  23977920.094 6 126004893.923 6        39.000    23977932.219 3  98185687.54843        22.900
G16  21005596.211 8 110385269.759 8        52.000    21005604.844 7  86014567.62747        42.400
G31  21365414.602 8 112276254.742 8        49.800    21365424.145 6  87487901.16546        41.700    21365423.871 8  87487903.166 8        48.600
G19  23808600.758 6 125115060.185 6        40.300    23808613.301 4  97492405.51944        26.200
G03  21743474.570 8 114262855.841 8        48.000    21743485.074 5  89036107.85645        35.900
G32  25769669.227 5 135420358.446 5        34.400    25769691.559 2 105522378.96342        16.900
G14  25028246.258 5 131524176.459 5        32.800    25028263.727 2 102486441.48142        14.800
G13  24351432.328 6 127967655.082 6        38.300    24351444.180 3  99715108.58343        19.000
G29  24890118.906 6 130798474.664 6        39.000    24890130.945 4 101920955.18444        24.300    24890130.535 6 101920949.178 6        40.200
G23  22561537.367 7 118561724.480 7        46.200    22561545.676 5  92385802.22945        33.600
G06  20471290.914 8 107577477.739 8        50.500    20471300.934 6  83826721.41446        41.800
> 2013  6 15  5 16  0.0000000  0 33
G21  23973896.141 6 125983746.720 6        38.400    23973906.945 3  98169209.26043        22.600
G16  21004321.125 8 110378568.135 8        51.100    21004329.750 7  86009345.59647        42.600
G31  21372708.648 8 112314582.817 8        49.700    21372717.629 7  87517767.15547        42.100    21372717.164 8  87517769.155 8        48.000
G19  23787011.508 6 125001608.450 6        41.100    23787022.883 4  97404001.78044        26.300
G03  21726335.383 8 114172790.132 8        48.400    21726345.898 6  88965926.84846        36.000
G32  25780437.539 5 135476944.872 5        35.300    25780460.473 2 105566471.79942        17.400
G14  25049701.50814 131636931.97414        28.600
G13  24333679.367 6 127874357.194 6        38.900    24333689.102 3  99642408.90343        18.300
G29  24909984.555 6 130902868.251 6        37.500    24909996.313 3 102002300.80943        23.000    24909995.781 6 102002294.818 6        38.700
G23  22550704.422 7 118504795.580 7        47.300    22550712.254 5  92341442.06845        34.000
G06  20461931.586 8 107528294.951 8        50.200    20461941.652 7  83788397.19347        42.200
> 2013  6 15  5 16 30.0000000  0 33
G21  23969937.711 6 125962943.164 6        41.500    23969948.113 3  98152998.79643        22.000
G16  21003086.391 8 110372079.831 8        52.600    21003094.063 7  86004289.78347        42.400
G31  21380064.531 8 112353240.088 8        50.000    21380073.809 6  87547889.66146        41.200    21380073.836 7  87547891.662 7        47.800
G19  23765452.641 6 124888317.859 6        40.800    23765464.887 4  97315723.62344        26.700
G03  21709262.469 8 114083072.486 8        48.900    21709273.797 5  88896017.04545        35.900
G32  25791186.984 5 135533431.691 5        34.500    25791209.859 2 105610487.07642        16.300
G14  25071149.38314 131749637.56414        29.900
G13  24315984.367 6 127781371.682 6        38.700    24315995.496 3  99569952.70743        20.100
G29  24929865.719 5 131007348.365 5        33.900    24929877.285 2 102083713.88842        17.800    24929876.836 5 102083707.893 5        35.800
G23  22539967.430 7 118448373.676 7        47.200    22539975.391 5  92297476.97345        33.600
G06  20452670.742 8 107479628.805 8        51.300    20452681.266 7  83750475.55147        42.600
> 2013  6 15  5 17  0.0000000  0 32
G21  23966043.898 6 125942484.237 6        40.500    23966054.984 3  98137056.85643        22.300
G16  21001891.672 8 110365802.746 8        50.800    21001899.980 7  85999398.57247        42.600
G31  21387483.555 8 112392226.253 8        50.000    21387492.594 6  87578268.45646        41.800    21387492.367 8  87578270.457 8        48.100
G19  23743925.359 6 124775190.373 6        41.200    23743936.793 4  97227572.56744        27.500
G03  21692256.609 8 113993703.461 8        48.700    21692266.660 6  88826378.90646        36.200
G32  25801916.875 5 135589815.609 5        35.000    25801939.496 2 105654422.16642        15.600
G14  25092586.40615 131862290.18215        31.800
G13  24298350.086 6 127688700.343 6        38.600    24298361.629 3  99497741.36443        21.100
G29  24949763.50815 131111911.83915        32.400    24949775.38312 102165191.83552        17.400    24949774.81615 102165185.85215        35.600
G23  22529327.453 8 118392459.625 8        48.000    22529335.652 5  92253907.60845        33.200
G06  20443508.156 8 107431479.247 8        50.900    20443518.164 7  83712956.45447        42.600
> 2013  6 15  5 17 30.0000000  0 33
G21  23962216.914 6 125922370.679 6        38.300    23962227.113 3  98121384.02643        23.200
G16  21000737.047 8 110359735.456 8        51.600    21000745.500 7  85994670.81947        42.300
G31  21394965.242 8 112431541.251 8        49.500    21394974.324 7  87608903.47047        42.300    21394974.070 8  87608905.471 8        48.100
G19  23722428.563 6 124662227.874 6        40.500    23722440.773 4  97139550.06644        26.500
G03  21675316.359 8 113904684.452 8        48.400    21675327.070 6  88757013.49846        36.800
G32  25812627.055 5 135646093.768 5        33.300    25812648.953 2 105698274.88842        15.600
G14  25114014.047 5                        31.000
G13  24280774.703 6 127596345.564 6        37.500    24280786.141 2  99425776.70642        16.900
G29  24969676.852 5 131216555.686 5        35.900    24969689.879 3 102246732.47443        21.500    24969689.113 6 102246726.463 6        38.500
G23  22518784.555 7 118337054.663 7        46.600    22518791.938 5  92210734.92745        34.400
G06  20434443.766 8 107383846.158 8        49.700    20434453.617 7  83675839.80047        42.500
> 2013  6 15  5 18  0.0000000  0 32
G21  23958454.844 6 125902604.991 6        38.900    23958466.391 3  98105982.25243        22.900
G16  20999622.516 8 110353877.624 8        50.800    20999630.965 7  85990106.29047        42.300
G31  21402509.141 8 112471186.257 8        51.200    21402518.145 6  87639795.62746        41.800    21402517.934 7  87639797.627 7        47.700
G19  23700964.102 6 124549433.613 6        39.500    23700975.555 4  97051658.65444        24.200
G03  21658443.750 8 113816018.094 8        48.200    21658454.684 6  88687922.88546        36.400
G32  25823315.648 5 135702264.544 5        35.000    25823338.168 2 105742043.89742        13.900
G14  25135427.62515 132087425.48415        30.800
G13  24263261.563 6 127504310.636 6        37.700    24263272.891 3  99354061.22843        20.600
G29  24989605.789 6 131321278.690 6        36.700    24989617.594 3 102328334.79443        22.900    24989616.188 6 102328328.785 6        38.700
G23  22508338.086 7 118282161.327 7        47.500    22508346.633 5  92167960.92545        33.600
G06  20425478.219 8 107336731.459 8        51.800    20425488.352 7  83639127.08347        43.000
> 2013  6 15  5 18 30.0000000  0 32
G21  23954760.000 6 125883188.908 6        38.300    23954771.801 4  98090852.93244        25.000
G16  20998547.406 8 110348228.242 8        51.900    20998555.969 7  85985704.18447        42.500
G31  21410116.430 8 112511161.425 8        50.200    21410125.832 6  87670945.06246        41.700    21410125.703 8  87670947.063 8        48.200
G19  23679532.805 6 124436810.060 6        39.900    23679544.211 4  96963900.26844        27.200
G03  21641638.211 8 113727706.187 8        48.600    21641649.434 5  88619108.47445        35.800
G14  25156834.664 5 132199903.763 5        32.600
G13  24245808.023 6 127412598.208 6        37.900    24245820.391 2  99282597.07842        17.800
G29  25009547.164 5 131426077.557 5        34.800    25009559.781 3 102409996.21843        20.400    25009559.441 6 102409990.201 6        37.900
G23  22497990.180 7 118227781.299 7        47.800    22497998.102 5  92125586.89545        34.200
G06  20416611.477 8 107290136.234 8        51.300    20416621.496 7  83602819.14347        42.500
> 2013  6 15  5 19  0.0000000  0 31
G21  23951131.844 6 125864123.413 6        39.900    23951143.590 3  98075996.77943        23.600
G16  20997511.750 8 110342786.559 8        52.600    20997520.340 7  85981463.92347        42.600
G31  21417786.625 8 112551467.419 8        50.300    21417795.965 6  87702352.28146        41.400    21417795.688 8  87702354.282 8        48.000
G19  23658133.836 6 124324359.749 6        40.900    23658144.996 4  96876276.87244        27.000
G03  21624900.867 8 113639750.904 8        49.300    21624912.273 6  88550571.94546        36.300
G14  25178226.06315 132312319.53215        33.300
G13  24228419.125 6 127321211.604 6        40.100    24228429.078 3  99211386.71443        19.000
G29  25029503.859 5 131530950.613 5        35.500    25029515.820 3 102491715.42943        18.600    25029515.898 6 102491709.433 6        36.800
G23  22487739.695 8 118173916.547 8        48.300    22487747.785 5  92083614.36445        33.500
G06  20407843.438 8 107244061.387 8        51.900    20407853.590 7  83566916.69647        42.600
> 2013  6 15  5 19 30.0000000  0 30
G21  23947570.859 6 125845410.731 6        40.400    23947582.383 3  98061415.53043        22.300
G16  20996515.836 8 110337551.881 8        52.700    20996524.188 7  85977384.95547        42.500
G31  21425519.422 8 112592104.955 8        50.600    21425528.805 7  87734017.84647        42.200    21425528.234 7  87734019.847 7        47.900
G19  23636769.180 6 124212085.890 6        41.200    23636779.508 4  96788790.96344        26.800
G03  21608232.078 8 113552154.161 8        49.000    21608242.656 6  88482314.80546        36.700
G13  24211090.211 6 127230153.607 6        37.500    24211102.098 3  99140432.57343        19.300
G29  25049474.555 6 131635895.859 6        36.700    25049486.578 3 102573490.93843        20.400    25049486.543 6 102573484.927 6        36.700
G23  22477588.297 7 118120569.192 7        47.700    22477596.320 5  92042045.02545        33.900
G06  20399175.016 8 107198507.423 8        51.300    20399184.906 7  83531420.13047        42.800
> 2013  6 15  5 20  0.0000000  0 30
G21  23944077.688 6 125827052.434 6        40.000    23944088.645 3  98047110.42743        23.000
G16  20995558.672 8 110332522.853 8        52.800    20995566.840 7  85973466.23347        42.900
G31  21433315.664 8 112633073.817 8        49.900    21433324.977 6  87765941.58746        41.600    21433324.918 7  87765943.595 7        47.800
G19  23615437.445 6 124099990.666 6        41.400    23615448.012 4  96701444.19944        28.000
G03  21591631.133 8 113464917.738 8        48.900    21591641.695 6  88414338.43646        36.400
G13  24193826.070 6 127139426.777 6        39.800    24193836.621 3  99069736.40443        19.600
G29  25069457.500 5 131740911.015 5        35.700    25069471.336 3 102655320.92243        19.600    25069469.672 6 102655314.919 6        37.300
G23  22467535.141 8 118067740.813 8        48.200    22467542.969 5  92000880.06345        32.900
G06  20390605.953 8 107153475.635 8        51.700    20390616.047 7  83496330.44747        42.900
> 2013  6 15  5 20 30.0000000  0 29
G21  23940651.398 6 125809048.920 6        39.200    23940662.340 3  98033081.77443        22.200
G16  20994641.039 8 110327697.979 8        52.300    20994649.016 7  85969706.59947        43.200
G31  21441174.969 8 112674374.080 8        50.100    21441183.887 7  87798123.56747        42.200    21441183.578 8  87798125.567 8        48.000
G19  23594141.266 6 123988075.847 6        41.700    23594151.965 4  96614238.06944        27.800
G03  21575099.453 8 113378042.421 8        49.100    21575109.965 6  88346643.44646        37.000
G13  24176625.273 6 127049033.242 6        38.500    24176636.586 3  98999299.98043        20.100
G29  25089454.406 6 131845992.460 6        37.100    25089468.258 3 102737202.57443        21.100    25089466.602 6 102737196.565 6        37.600
G23  22457580.938 7 118015432.180 7        47.800    22457589.438 5  91960120.09445        34.300
G06  20382135.813 8 107108965.587 8        51.300    20382145.680 7  83461647.31047        42.600
> 2013  6 15  5 21  0.0000000  0 29
G21  23937294.469 6 125791403.020 6        39.200    23937304.285 3  98019331.77943        22.600
G16  20993761.438 8 110323077.082 8        53.200    20993769.773 7  85966105.90447        42.800
G31  21449097.391 8 112716006.918 8        50.300    21449106.664 6  87830564.68846        41.500    21449106.129 7  87830566.683 7        47.600
G19  23572878.922 7 123876344.650 7        43.000    23572889.621 4  96527174.97744        28.100
G03  21558636.805 8 113291530.824 8        49.900    21558647.539 6  88279231.86746        36.200
G13  24159487.961 6 126958976.651 6        40.800    24159498.758 3  98929126.13143        20.100
G29  25109462.75015 131951138.58815        33.400    25109476.35213 102819134.60053        19.600    25109475.46516 102819128.59716        36.800
G23  22447726.914 7 117963646.080 7        47.500    22447734.816 5  91919767.30245        33.500
G06  20373765.563 8 107064978.835 8        51.100    20373775.148 7  83427371.93947        42.800
> 2013  6 15  5 21 30.0000000  0 30
G21  23934003.984 6 125774114.971 6        39.900    23934014.359 3  98005860.62843        23.900
G16  20992920.641 8 110318658.097 8        51.200    20992928.688 7  85962662.54147        42.700
G31  21457083.086 8 112757971.501 8        50.600    21457092.703 6  87863264.30846        41.400    21457092.238 8  87863266.309 8        48.200
G19  23551653.055 7 123764798.469 7        42.900    23551663.629 4  96440256.07944        28.300
G03  21542243.602 8 113205383.798 8        50.400    21542253.848 6  88212104.36846        37.400
G13  24142413.727 6 126869258.957 6        37.600    24142425.840 2  98859216.20242        17.400
G29  25129483.203 5 132056346.120 5        33.800    25129496.203 3 102901114.47143        19.300    25129495.664 6 102901108.476 6        38.000
G23  22437971.773 7 117912382.811 7        47.700    22437979.688 5  91879821.90445        34.200
G06  20365494.641 8 107021515.382 8        51.400    20365504.527 7  83393504.32847        43.000
> 2013  6 15  5 22  0.0000000  0 29
G21  23930782.539 6 125757186.450 6        40.600    23930793.457 3  97992669.63443        22.800
G16  20992117.805 8 110314440.501 8        51.700    20992126.102 7  85959376.10647        42.700
G31  21465132.070 8 112800268.655 8        49.900    21465141.395 6  87896223.07546        41.500    21465141.191 8  87896225.076 8        48.200
G19  23530461.477 7 123653440.361 7        43.300    23530472.453 5  96353483.70345        30.200
G03  21525920.547 8 113119603.738 8        49.900    21525931.094 6  88145262.81446        37.200
G13  24125407.219 6 126779882.587 6        40.100    24125418.656 3  98789572.41043        20.600
G29  25149515.227 5 132161613.582 5        35.000    25149527.438 3 102983141.08243        21.500    25149527.133 6 102983135.071 6        37.500
G23  22428316.445 7 117861645.052 7        47.200    22428324.508 5  91840285.99845        33.100
G06  20357323.609 8 106978576.177 8        50.800    20357333.613 7  83360045.22347        42.500
> 2013  6 15  5 22 30.0000000  0 30
G21  23927629.758 6 125740619.566 6        40.000    23927641.582 3  97979760.43943        23.600
G16  20991353.844 8 110310423.992 8        52.300    20991361.887 7  85956246.35247        42.600
G31  21473244.570 8 112842899.366 8        50.300    21473253.988 6  87929441.75646        40.800    21473253.715 7  87929443.758 7        47.900
G19  23509306.766 6 123542273.598 6        41.300    23509317.996 4  96266860.41444        27.500
G03  21509667.211 8 113034192.753 8        50.800    21509677.410 6  88078708.84646        36.900
G13  24108464.219 6 126690851.506 6        38.100    24108476.016 3  98720197.57343        19.000
G29  25169558.258 5 132266939.228 5        34.100    25169570.098 3 103065213.01643        20.400    25169570.074 6 103065207.015 6        36.900
G23  22418761.336 7 117811434.428 7        47.800    22418770.047 5  91801160.83145        33.900
G06  20349252.445 8 106936162.091 8        51.200    20349262.426 7  83326995.29947        43.400
> 2013  6 15  5 23  0.0000000  0 29
G21  23924546.063 6 125724415.770 6        40.000    23924558.023 4  97967134.19044        25.300
G16  20990627.547 8 110306607.580 8        51.900    20990635.355 7  85953272.53447        42.700
G31  21481420.211 8 112885863.758 8        50.500    21481429.203 6  87962920.44846        40.500    21481429.219 7  87962922.449 7        47.800
G19  23488189.953 7 123431300.514 7        42.500    23488200.215 4  96180388.07144        27.600
G03  21493484.352 8 112949152.639 8        50.400    21493494.910 6  88012443.88046        37.300
G13  24091589.555 6 126602168.194 6        38.600    24091600.520 3  98651093.79943        19.600
G29  25189612.328 5 132372320.989 5        35.500    25189624.195 3 103147328.66243        21.800    25189623.500 6 103147322.659 6        38.300
G23  22409307.313 8 117761752.848 8        48.000    22409315.520 5  91762447.90745        33.900
G06  20341281.445 8 106894274.483 8        50.700    20341291.352 7  83294355.62147        43.300
> 2013  6 15  5 23 30.0000000  0 30
G21  23921531.938 6 125708575.030 6        40.200    23921543.320 3  97954790.81143        23.600
G16  20989938.422 8 110302988.633 8        51.200    20989947.141 7  85950452.57547        42.700
G31  21489659.492 8 112929160.668 8        50.800    21489668.496 6  87996658.24146        40.900    21489668.754 7  87996660.236 7        47.500
G19  23467108.906 7 123320521.962 7        42.200    23467120.359 4  96094067.26244        28.300
G03  21477372.125 8 112864483.983 8        50.200    21477382.961 6  87946468.36146        37.900
G13  24074777.898 6 126513833.953 6        37.200    24074791.070 3  98582261.97843        19.300
G29  25209674.313 5 132477754.548 5        35.800    25209688.031 3 103229484.69143        20.100    25209686.438 6 103229478.696 6        37.900
G23  22399954.172 7 117712600.341 7        47.900    22399962.508 5  91724147.24745        33.800
G06  20333410.438 8 106852911.607 8        51.100    20333420.336 7  83262124.83747        43.300
> 2013  6 15  5 24  0.0000000  0 30
G21  23918586.836 6 125693099.508 6        40.200    23918597.672 3  97942732.00843        22.600
G16  20989287.773 8 110299566.983 8        50.800    20989295.645 7  85947786.35647        43.000
G31  21497962.000 8 112972791.327 8        50.400    21497971.297 6  88030656.09346        40.800    21497971.188 7  88030658.087 7        47.600
G19  23446065.070 6 123209941.661 6        40.500    23446077.598 4  96007900.97244        28.700
G03  21461331.641 8 112780189.200 8        50.100    21461342.191 6  87880784.17346        37.400
G13  24058036.906 6 126425852.101 6        40.100    24058047.148 2  98513704.74442        17.400
G29  25229747.711 5 132583238.428 5        35.800    25229761.305 3 103311679.92343        20.400    25229759.461 6 103311673.927 6        36.100
G23  22390701.656 7 117663979.235 7        46.700    22390710.285 5  91686260.66645        34.100
G06  20325639.336 8 106812075.443 8        51.700    20325649.164 7  83230304.46447        43.200
> 2013  6 15  5 24 30.0000000  0 28
G21  23915711.695 6 125677991.714 6        40.200    23915722.414 3  97930959.76943        23.300
G16  20988674.094 8 110296342.894 8        51.300    20988682.195 7  85945274.08147        43.300
G31  21506328.477 8 113016756.621 8        50.700    21506337.500 6  88064914.70546        41.000    21506337.285 7  88064916.698 7        47.500
G19  23425060.695 6 123099562.756 6        41.300    23425072.305 4  95921891.58144        27.600
G03  21445361.984 8 112696270.633 8        50.200    21445372.770 6  87815393.14246        37.900
G13  24041362.023 6 126338226.518 6        39.000    24041373.641 3  98445425.09243        20.100
G29  25249830.070 6 132688771.350 6        37.200    25249842.898 3 103393913.40243        19.900    25249841.496 6 103393907.422 6        36.500
G23  22381551.602 7 117615891.985 7        47.000    22381559.133 5  91648790.07745        33.900
G06  20317969.313 8 106771767.218 8        51.700    20317978.996 7  83198895.47047        43.200
> 2013  6 15  5 25  0.0000000  0 29
G21  23912907.055 6 125663252.586 6        40.600    23912917.754 3  97919474.77243        22.900
G16  20988098.203 8 110293314.763 8        51.700    20988105.934 7  85942914.50247        42.800
G31  21514758.539 8 113061056.759 8        50.700    21514767.801 6  88099434.22946        41.300    21514767.414 7  88099436.229 7        46.900
G19  23404095.656 6 122989387.314 6        40.200    23404106.703 4  95836040.74044        28.600
G03  21429465.180 8 112612729.700 8        49.500    21429475.402 6  87750296.37746        37.500
G13  24024755.867 6 126250959.256 6        40.300    24024767.387 3  98377424.73243        20.400
G29  25269920.063 5 132794350.556 5        34.800    25269934.215 3 103476182.92443        18.600    25269933.074 5 103476176.936 5        35.500
G23  22372502.523 7 117568340.222 7        47.300    22372510.344 5  91611736.75845        33.800
G06  20310399.414 8 106731987.280 8        51.700    20310409.109 7  83167898.14047        43.500
> 2013  6 15  5 25 30.0000000  0 29
G21  23910172.922 6 125648883.448 6        39.200    23910183.566 3  97908278.10943        22.800
G16  20987558.906 8 110290481.889 8        49.400    20987567.199 7  85940707.07447        42.700
G31  21523252.000 8 113105691.977 8        50.400    21523261.578 6  88134214.86146        40.900    21523261.598 7  88134216.861 7        47.500
G19  23383168.438 6 122879417.849 6        41.300    23383179.441 4  95750350.39744        28.500
G03  21413639.781 8 112529568.277 8        50.300    21413650.324 6  87685495.33046        37.800
G13  24008218.203 6 126164053.206 6        40.000    24008229.191 3  98309705.75843        22.200
G29  25290021.258 6 132899974.252 6        37.200    25290033.133 3 103558487.12943        19.000    25290032.238 5 103558481.141 5        35.600
G23  22363555.289 7 117521324.936 7        46.700    22363563.695 5  91575101.46545        34.000
G06  20302929.859 8 106692736.040 8        51.100    20302939.797 7  83137312.77647        43.300
> 2013  6 15  5 26  0.0000000  0 28
G21  23907509.047 6 125634884.587 6        40.300    23907520.215 4  97897369.93644        25.300
G16  20987056.406 8 110287842.444 8        50.400    20987064.715 7  85938650.36847        42.200
G31  21531809.930 8 113150661.623 8        51.100    21531819.066 6  88169256.08146        40.800    21531819.016 7  88169258.082 7        47.200
G19  23362282.109 7 122769656.224 7        43.300    23362293.012 4  95664822.00744        29.600
G03  21397887.039 8 112446787.190 8        49.600    21397897.328 6  87620990.65446        37.300
G13  23991749.211 6 126077510.452 6        41.000    23991760.934 3  98242269.89743        20.900
G29  25310128.297 5 133005639.198 5        35.900    25310139.895 3 103640823.51143        18.300    25310139.273 6 103640817.501 6        36.300
G23  22354710.969 8 117474847.041 8        48.100    22354719.531 5  91538884.92045        34.200
G06  20295561.039 8 106654013.337 8        50.300    20295570.840 7  83107139.26347        43.100
> 2013  6 15  5 26 30.0000000  0 29
G21  23904915.695 6 125621258.082 6        39.900    23904927.113 3  97886751.93843        22.300
G16  20986590.781 8 110285396.041 8        49.900    20986599.207 7  85936744.09047        42.200
G31  21540431.047 8 113195966.628 8        50.700    21540440.414 6  88204558.62246        40.800    21540440.535 7  88204560.616 7        47.200
G19  23341434.414 7 122660105.374 7        42.600    23341445.770 4  95579457.86844        29.100
G03  21382207.109 8 112364388.464 8        50.300    21382216.953 6  87556783.91346        37.500
G13  23975349.742 6 125991334.235 6        41.000    23975361.820 3  98175119.66643        21.800
G29  25330243.336 6 133111343.850 6        37.100    25330255.676 3 103723190.75243        19.000    25330255.328 6 103723184.765 6        36.900
G23  22345969.375 8 117428908.474 8        48.300    22345977.605 5  91503088.64245        34.400
G06  20288293.234 8 106615820.151 8        50.400    20288303.074 7  83077378.35747        43.500
> 2013  6 15  5 27  0.0000000  0 29
G21  23902393.727 6 125608004.956 6        40.200    23902405.203 4  97876424.86244        25.000
G16  20986161.656 8 110283141.093 8        50.600    20986170.063 7  85934986.99247        42.200
G31  21549116.211 8 113241606.423 8        50.400    21549125.945 6  88240122.03846        40.400    21549125.699 7  88240124.037 7        47.400
G19  23320628.164 7 122550767.149 7        42.100    23320638.406 4  95494259.39044        28.500
G03  21366600.398 8 112282373.277 8        50.300    21366610.301 6  87492876.04346        38.200
G13  23959021.813 6 125905526.626 6        41.400    23959033.211 3  98108256.62543        22.200
G29  25350365.625 6 133217085.428 6        38.600    25350377.309 3 103805586.80943        22.000    25350376.734 6 103805580.804 6        39.000
G23  22337330.570 7 117383510.114 7        47.900    22337338.805 5  91467713.29845        34.900
G06  20281126.258 8 106578156.364 8        50.300    20281135.617 7  83048029.97247        43.200
> 2013  6 15  5 27 30.0000000  0 29
G21  23899943.563 6 125595127.523 6        39.800    23899954.156 4  97866390.55844        25.300
G16  20985769.156 8 110281077.641 8        50.300    20985777.465 7  85933379.12147        42.500
G31  21557865.148 8 113287582.380 8        50.600    21557874.625 6  88275947.39846        40.800    21557874.395 7  88275949.398 7        47.000
G19  23299863.086 6 122441645.098 6        40.500    23299873.438 4  95409229.37044        27.900
G03  21351066.523 8 112200744.277 8        49.900    21351076.625 6  87429269.08646        37.900
G13  23942764.586 7 125820090.990 7        42.300    23942775.129 3  98041683.49243        22.200
G29  25370492.578 6 133322862.273 6        38.400    25370506.070 3 103888010.34343        20.400    25370505.262 6 103888004.340 6        37.600
G23  22328794.961 8 117338654.568 8        48.900    22328802.648 5  91432760.92245        34.900
G06  20274059.617 8 106541023.364 8        50.300    20274069.785 7  83019095.19147        43.400
> 2013  6 15  5 28  0.0000000  0 28
G21  23897564.328 6 125582626.202 6        39.200    23897575.094 3  97856649.31443        23.000
G16  20985412.391 8 110279204.092 8        49.900    20985420.871 7  85931919.21047        42.800
G31  21566678.125 8 113333893.745 8        51.200    21566687.320 6  88312034.12446        40.900    21566686.895 7  88312036.125 7        46.800
G19  23279138.625 7 122332740.807 7        42.100    23279148.891 4  95324369.02444        28.300
G03  21335607.016 8 112119502.241 8        51.000    21335617.039 6  87365963.66346        38.000
G13  23926576.906 6 125735029.499 6        41.100    23926587.547 3  97975401.86943        22.200
G23  22320362.852 8 117294342.295 8        48.800    22320370.316 5  91398231.87445        34.700
G06  20267094.383 8 106504420.827 8        50.300    20267104.367 7  82990573.75247        43.600
> 2013  6 15  5 28 30.0000000  0 28
G21  23895257.414 6 125570502.689 6        39.300    23895268.215 3  97847202.47243        23.900
G16  20985091.891 8 110277520.305 8        50.400    20985100.008 7  85930607.17647        42.400
G31  21575555.023 8 113380541.566 8        51.200    21575564.500 6  88348383.02046        40.000    21575563.758 7  88348385.021 7        47.600
G19  23258457.039 7 122224057.547 7        43.400    23258466.730 4  95239680.93444        28.600
G03  21320221.039 8 112038649.517 8        50.300    21320231.199 6  87302961.60246        38.700
G13  23910463.086 6 125650345.600 6        40.500    23910473.188 3  97909414.45643        22.300
G23  22312033.867 8 117250575.423 8        49.300    22312042.273 5  91364127.82145        34.700
G06  20260230.539 8 106468349.774 8        49.900    20260240.164 7  82962466.45947        43.600
> 2013  6 15  5 29  0.0000000  0 28
G21  23893022.039 6 125558757.604 6        39.400    23893032.637 3  97838050.50743        22.800
G16  20984807.633 8 110276024.631 8        51.100    20984815.680 7  85929441.72047        42.200
G31  21584495.383 8 113427525.218 8        50.700    21584504.477 6  88384993.60046        40.400    21584504.441 7  88384995.600 7        46.800
G19  23237817.805 7 122115596.890 7        42.400    23237827.711 4  95155166.27944        28.100
G03  21304909.484 8 111958187.003 8        51.700    21304919.953 6  87240263.58746        38.800
G13  23894419.305 7 125566040.855 7        42.000    23894430.797 3  97843722.51043        22.800
G23  22303809.289 8 117207354.450 8        48.800    22303817.859 5  91330449.13345        35.100
G06  20253467.602 8 106432809.858 8        50.700    20253477.262 7  82934773.04147        43.800
> 2013  6 15  5 29 30.0000000  0 27
G21  23890859.273 6 125547392.448 6        38.400    23890870.313 4  97829194.57444        24.000
G16  20984558.438 8 110274715.979 8        50.000    20984566.707 7  85928421.99847        43.000
G31  21593500.359 8 113474844.899 8        51.500    21593509.215 6  88421866.00546        40.500    21593509.305 7  88421868.006 7        47.600
G19  23217221.234 7 122007361.732 7        43.600    23217231.371 4  95070827.35344        29.300
G03  21289672.328 8 111878116.208 8        50.200    21289683.098 6  87177870.81046        38.100
G13  23878450.133 6 125482118.032 6        39.700    23878460.809 3  97778328.18443        22.300
G23  22295688.461 8 117164680.938 8        48.800    22295696.859 5  91297197.04345        35.400
G06  20246805.484 8 106397801.547 8        49.000    20246815.527 7  82907493.85547        43.600
> 2013  6 15  5 30  0.0000000  0 28
G21  23888769.023 6 125536408.713 6        39.400    23888781.020 4  97820635.86244        24.000
G16  20984345.180 8 110273593.686 8        49.900    20984353.215 7  85927547.49247        42.700
G31  21602568.852 8 113522500.947 8        49.500    21602578.289 6  88459000.52546        40.400    21602577.875 7  88459002.525 7        46.700
G19  23196668.000 7 121899354.183 7        43.800    23196678.402 5  94986665.76145        30.100
G03  21274510.195 8 111798439.086 8        50.600    21274520.992 6  87115784.79246        38.800
G13  23862552.836 7 125398580.099 7        42.300    23862564.168 3  97713233.72443        22.300
G23  22287672.672 8 117122556.355 8        48.700    22287680.762 5  91264372.68845        35.000
G06  20240245.070 8 106363325.323 8        49.300    20240255.035 7  82880629.28447        43.700
> 2013  6 15  5 30 30.0000000  0 28
G21  23886751.586 6 125525807.163 6        39.400    23886762.652 3  97812374.92943        22.300
G16  20984166.344 8 110272657.087 8        49.900    20984174.926 7  85926817.67847        42.400
G31  21611701.563 8 113570493.379 8        50.000    21611711.297 6  88496397.16446        41.100    21611711.039 7  88496399.157 7        46.900
G19  23176158.914 7 121791577.094 7        43.300    23176168.809 4  94902683.76944        29.600
G03  21259423.320 8 111719157.401 8        49.500    21259433.504 6  87054006.90946        38.300
G13  23846729.031 6 125315429.815 6        41.400    23846740.387 3  97648441.38843        21.300
G23  22279761.484 8 117080982.228 8        48.100    22279769.418 5  91231977.25845        35.000
G06  20233785.625 8 106329381.732 8        50.100    20233795.727 7  82854179.74747        43.900
> 2013  6 15  5 31  0.0000000  0 27
G21  23884807.844 6 125515588.558 6        38.600    23884818.867 3  97804412.42043        23.000
G16  20984023.305 8 110271904.267 8        50.400    20984031.773 7  85926231.07147        43.000
G31  21620898.570 8 113618821.783 8        50.700    21620907.594 6  88534055.60446        40.500    21620907.422 7  88534057.605 7        47.200
G19  23155693.289 7 121684032.004 7        43.600    23155704.180 5  94818882.55345        30.200
G03  21244411.695 8 111640271.828 8        50.300    21244422.113 6  86992537.67446        38.200
G13  23830981.383 6 125232668.994 6        40.700    23830991.742 3  97583952.46743        21.300
G23  22271955.055 8 117039958.783 8        48.000    22271963.012 5  91200010.92845        34.900
G06  20227428.000 8 106295970.003 8        49.300    20227437.316 7  82828144.65147        43.800
> 2013  6 15  5 31 30.0000000  0 27
G21  23882936.070 6 125505755.871 6        39.200    23882947.313 3  97796750.61343        22.600
G16  20983915.375 8 110271336.280 8        48.600    20983923.469 6  85925788.49146        41.400
G31  21630159.367 8 113667488.238 8        48.800    21630169.078 6  88571977.46346        39.900    21630168.645 7  88571979.463 7        47.500
G19  23135272.906 7 121576723.308 7        43.100    23135283.766 5  94735265.52845        30.200
G03  21229476.586 7 111561785.927 7        47.500    21229486.914 6  86931379.87546        37.800
G13  23815306.625 6 125150302.062 6        40.600    23815317.879 3  97519770.52443        20.600
G23  22264254.180 7 116999489.250 7        47.200    22264261.844 5  91168476.21145        34.600
G06  20221171.281 8 106263092.428 8        49.100    20221180.965 7  82802525.77347        43.200
> 2013  6 15  5 32  0.0000000  0 27
G21  23881138.414 6 125496308.298 6        40.000    23881149.156 4  97789388.92344        24.300
G16  20983841.906 8 110270949.882 8        50.600    20983849.734 7  85925487.40547        42.700
G31  21639484.039 8 113716490.622 8        50.100    21639493.371 6  88610161.08346        40.700    21639493.297 7  88610163.084 7        47.600
G19  23114897.484 7 121469651.330 7        43.700    23114908.324 5  94651832.96345        30.600
G03  21214616.898 8 111483698.709 8        50.800    21214627.344 6  86870532.74846        38.400
G13  23799708.531 6 125068329.419 6        40.900    23799719.387 3  97455895.80943        21.500
G23  22256658.266 7 116959572.963 7        47.800    22256666.387 5  91137372.60445        34.700
G06  20215016.266 8 106230746.828 8        49.900    20215025.777 7  82777321.43147        43.200
> 2013  6 15  5 32 30.0000000  0 28
G21  23879413.898 6 125487247.954 6        40.100    23879425.117 3  97782328.95443        22.900
G16  20983802.914 8 110270745.707 8        49.700    20983811.293 7  85925328.30847        42.700
G31  21648873.133 8 113765829.825 8        50.800    21648882.574 6  88648607.16046        40.200    21648882.176 7  88648609.161 7        47.400
G19  23094568.109 7 121362819.422 7        43.600    23094578.992 5  94568587.49245        30.300
G03  21199833.516 8 111406012.719 8        50.700    21199843.910 6  86809998.25446        38.700
G13  23784184.852 6 124986754.825 6        41.400    23784195.324 3  97392331.24443        21.800
G23  22249167.711 7 116920211.918 7        46.900    22249175.695 5  91106701.64945        34.000
G06  20208962.313 8 106198934.709 8        50.400    20208972.496 7  82752532.78947        43.400
> 2013  6 15  5 33  0.0000000  0 28
G21  23877763.977 6 125478575.175 6        39.900    23877774.594 4  97775570.99644        25.000
G16  20983798.094 8 110270721.963 8        50.100    20983806.930 7  85925309.81247        43.000
G31  21658326.117 7 113815505.427 7        47.500    21658335.531 6  88687315.36046        39.800    21658335.188 7  88687317.360 7        46.700
G19  23074284.656 7 121256229.379 7        43.900    23074295.016 5  94485530.44845        31.000
G03  21185127.063 8 111328728.895 8        51.000    21185137.129 6  86749777.13746        38.400
G13  23768737.836 7 124905580.133 7        42.200    23768748.758 3  97329078.31643        21.500
G23  22241783.414 8 116881406.619 8        48.000    22241791.355 5  91076463.74345        35.100
G06  20203010.125 8 106167655.501 8        50.700    20203020.016 7  82728159.40047        43.900
> 2013  6 15  5 33 30.0000000  0 28
G21  23876188.094 6 125470292.931 6        40.200    23876197.973 4  97769117.35744        24.500
G16  20983827.883 8 110270878.851 8        50.700    20983836.566 7  85925432.08247        42.400
G31  21667843.938 8 113865518.678 8        49.600    21667853.094 6  88726286.66046        40.500    21667853.016 7  88726288.655 7        47.000
G19  23054047.867 7 121149884.757 7        44.500    23054058.449 5  94402664.65245        31.000
G03  21170497.438 8 111251850.297 8        51.400    21170507.828 6  86689871.79746        38.500
G13  23753368.453 7 124824809.154 7        43.200    23753378.738 3  97266139.93243        22.500
G23  22234505.102 7 116843159.475 7        46.800    22234513.617 5  91046660.76145        34.700
G06  20197159.648 8 106136910.665 8        50.000    20197169.621 7  82704202.40547        43.200
> 2013  6 15  5 34  0.0000000  0 29
G21  23874686.313 6 125462401.980 6        40.800    23874696.375 3  97762968.63143        23.600
G16  20983892.453 8 110271216.332 8        49.400    20983901.070 7  85925695.06847        42.700
G31  21677425.086 7 113915870.453 7        47.600    21677434.586 6  88765521.74046        40.600    21677434.684 7  88765523.741 7        47.300
G19  23033859.188 7 121043788.428 7        45.100    23033868.992 5  94319992.34045        30.800
G03  21155945.680 8 111175378.645 8        51.000    21155955.906 6  86630283.56346        38.800
G13  23738074.219 7 124744445.189 7        42.000    23738086.133 3  97203518.71643        22.000
G23  22227333.391 7 116805472.261 7        46.300    22227341.516 5  91017294.08845        35.000
G06  20191410.922 8 106106700.875 8        50.200    20191420.570 7  82680662.31947        43.900
> 2013  6 15  5 34 30.0000000  0 29
G21  23873259.172 6 125454901.132 6        40.100    23873268.672 3  97757123.87043        22.600
G16  20983990.117 8 110271730.676 8        49.100    20983998.500 7  85926095.86647        42.400
G31  21687070.617 8 113966557.906 8        49.600    21687080.305 6  88805018.39246        40.300    21687079.895 7  88805020.392 7        47.000
G19  23013716.469 7 120937940.452 7        45.900    23013726.113 5  94237513.52845        31.800
G03  21141470.156 8 111099312.994 8        51.800    21141480.535 6  86571011.68846        38.800
G13  23722860.008 7 124664487.857 7        43.000    23722870.547 3  97141214.39443        22.300
G23  22220268.477 7 116768343.462 7        46.400    22220276.313 5  90988362.55045        35.300
G06  20185763.758 8 106077023.735 8        50.500    20185773.488 7  82657537.29447        43.600
> 2013  6 15  5 35  0.0000000  0 29
G21  23871906.016 6 125447793.383 6        40.100    23871916.410 3  97751585.42043        22.500
G16  20984122.250 8 110272423.192 8        48.800    20984130.430 7  85926635.49447        42.600
G31  21696780.477 8 114017583.136 8        50.000    21696789.867 6  88844778.24446        40.200    21696789.730 7  88844780.237 7        47.000
G19  22993621.719 7 120832344.987 7        45.400    22993632.547 5  94155231.50045        31.700
G03  21127073.891 8 111023656.839 8        51.400    21127083.727 6  86512058.90246        39.200
G13  23707721.805 7 124584941.652 7        43.200    23707733.273 3  97079230.38643        22.300
G23  22213309.828 7 116731776.039 7        47.200    22213317.563 5  90959868.44845        34.800
G06  20180217.656 8 106047881.100 8        49.800    20180227.480 7  82634828.76947        43.900
> 2013  6 15  5 35 30.0000000  0 29
G21  23870628.703 6 125441079.235 6        40.500    23870638.422 3  97746353.66843        22.900
G16  20984287.680 8 110273292.121 8        51.200    20984295.566 7  85927312.58747        42.700
G31  21706554.117 8 114068945.407 8        48.300    21706563.957 6  88884800.72146        40.400    21706563.609 7  88884802.720 7        46.700
G19  22973575.984 7 120727003.914 7        45.200    22973586.324 5  94073147.66545        31.600
G03  21112754.875 8 110948410.532 8        52.300    21112764.969 6  86453425.47246        38.900
G13  23692663.297 6 124505808.609 6        41.300    23692674.629 3  97017568.32643        22.600
G23  22206458.523 7 116695770.382 7        46.900    22206466.207 5  90931812.08245        34.900
G06  20174773.750 8 106019272.490 8        49.800    20174783.102 7  82612536.36947        43.900
> 2013  6 15  5 36  0.0000000  0 29
G21  23869425.781 6 125434759.886 6        39.900    23869435.945 3  97741429.54843        23.200
G16  20984486.211 8 110274336.913 8        50.800    20984494.766 7  85928126.72047        42.800
G31  21716392.344 8 114120644.833 8        48.800    21716401.953 6  88925085.92346        39.800    21716401.676 7  88925087.919 7        46.900
G19  22953579.359 7 120621919.914 7        45.000    22953589.629 5  93991264.14345        31.600
G03  21098513.992 8 110873575.530 8        50.900    21098523.914 6  86395112.52646        39.200
G13  23677683.656 6 124427091.719 6        41.800    23677693.934 3  96956230.52743        21.800
G23  22199713.445 7 116660327.804 7        46.400    22199721.652 5  90904194.48245        35.000
G06  20169431.625 8 105991198.192 8        51.500    20169441.070 7  82590660.31547        43.200
> 2013  6 15  5 36 30.0000000  0 28
G21  23868298.109 6 125428836.750 6        40.200    23868309.328 3  97736814.16343        22.800
G16  20984718.453 8 110275556.678 8        48.800    20984726.836 7  85929077.19347        42.400
G31  21726295.008 8 114172681.747 8        49.700    21726304.816 6  88965634.09946        39.900    21726304.352 7  88965636.099 7        46.900
G19  22933631.305 7 120517095.338 7        44.100    22933641.250 5  93909582.78445        31.500
G03  21084352.359 8 110799153.664 8        50.800    21084362.016 6  86337121.51346        39.200
G13  23662784.461 6 124348793.373 6        39.200    23662795.418 3  96895218.91243        22.600
G23  22193076.242 7 116625449.634 7        46.300    22193084.613 5  90877016.68245        34.700
G06  20164190.578 8 105963658.492 8        49.200    20164200.234 7  82569200.83447        43.500
> 2013  6 15  5 37  0.0000000  0 29
G21  23867246.703 6 125423310.457 6        39.900    23867257.855 3  97732508.02543        22.900
G16  20984983.719 8 110276950.754 8        49.500    20984992.164 7  85930163.49147        42.600
G31  21736261.180 8 114225055.988 8        49.600    21736270.848 6  89006445.13346        40.200    21736270.566 7  89006447.132 7        46.700
G19  22913734.195 7 120412532.404 7        45.500    22913743.844 5  93828105.28545        31.500
G03  21070269.133 8 110725146.453 8        52.200    21070278.770 6  86279453.59646        39.900
G13  23647964.781 6 124270915.834 6        40.800    23647975.340 3  96834535.18343        21.500
G23  22186546.930 7 116591136.574 7        47.200    22186555.262 5  90850279.22745        34.800
G06  20159051.805 8 105936653.204 8        49.700    20159061.320 7  82548157.77547        43.500
> 2013  6 15  5 37 30.0000000  0 29
G21  23866269.906 6 125418181.807 6        39.500    23866281.785 4  97728511.73544        25.600
G16  20985282.125 8 110278518.012 8        49.800    20985290.023 7  85931384.73647        42.600
G31  21746291.617 8 114277767.394 8        50.200    21746301.660 6  89047518.89346        39.200    21746301.598 7  89047520.893 7        46.100
G19  22893886.688 7 120308233.536 7        45.200    22893896.484 5  93746833.55645        32.700
G03  21056264.891 8 110651554.880 8        51.800    21056275.051 6  86222109.56546        40.200
G13  23633225.484 6 124193461.640 6        40.800    23633236.117 3  96774181.33343        22.000
G23  22180125.320 7 116557389.422 7        46.700    22180132.887 5  90823982.73245        34.500
G06  20154014.563 8 105910182.118 8        49.300    20154024.047 7  82527530.98147        43.300
> 2013  6 15  5 38  0.0000000  0 28
G21  23865370.672 6 125413451.563 6        38.900    23865381.383 3  97724825.87643        23.300
G16  20985612.820 8 110280257.501 8        50.400    20985621.320 7  85932740.19147        42.600
G31  21756386.820 8 114330815.764 8        50.200    21756396.313 6  89088855.21246        39.200    21756396.277 7  89088857.214 7        46.400
G19  22874089.906 7 120204200.604 7        45.000    22874099.574 5  93665769.03945        32.300
G03  21042340.258 8 110578380.455 8        51.800    21042350.512 6  86165090.58646        39.700
G13  23618567.188 6 124116432.940 6        41.300    23618578.426 3  96714159.05843        22.800
G23  22173810.977 7 116524209.149 7        47.500    22173818.969 5  90798127.95645        34.900
G06  20149078.883 8 105884244.973 8        49.400    20149088.004 7  82507320.23947        43.800
> 2013  6 15  5 38 30.0000000  0 29
G21  23864546.750 6 125409121.262 6        39.600    23864557.199 3  97721451.68943        22.800
G16  20985976.477 8 110282168.322 8        48.700    20985984.617 7  85934229.14747        42.700
G31  21766545.953 8 114384201.075 8        50.000    21766555.559 6  89130454.09446        39.900    21766555.809 7  89130456.095 7        47.100
G19  22854343.742 7 120100436.439 7        45.700    22854353.801 5  93584913.96845        32.800
G03  21028495.328 8 110505624.204 8        51.600    21028505.273 6  86108397.44946        39.800
G13  23603990.570 6 124039832.545 6        41.100    23604001.691 3  96654470.50243        22.200
G23  22167605.359 7 116491596.730 7        47.600    22167613.234 5  90772715.68245        34.800
G06  20144244.859 8 105858841.890 8        49.300    20144254.438 7  82487525.65747        43.500
> 2013  6 15  5 39  0.0000000  0 29
G21  23863798.445 6 125405191.110 6        40.200    23863808.762 3  97718389.28143        23.800
G16  20986372.414 8 110284249.661 8        50.600    20986380.648 7  85935850.97147        42.800
G31  21776768.938 8 114437923.231 8        50.300    21776778.566 6  89172315.44046        39.900    21776778.301 7  89172317.441 7        46.400
G19  22834649.766 7 119996943.239 7        44.900    22834659.684 5  93504270.02145        32.800
G03  21014729.648 8 110433287.644 8        51.500    21014739.902 6  86052031.34446        39.600
G13  23589496.734 7 123963662.574 7        43.400    23589506.664 3  96595117.34243        23.600
G23  22161507.555 7 116459552.708 7        47.300    22161515.230 5  90747746.30945        34.700
G06  20139512.086 8 105833972.745 8        50.200    20139521.863 7  82468147.13247        43.700
> 2013  6 15  5 39 30.0000000  0 28
G21  23863126.781 6 125401662.993 6        39.400    23863137.449 3  97715640.14443        22.500
G16  20986800.922 8 110286501.446 8        48.800    20986809.430 7  85937605.62047        43.000
G31  21787055.844 8 114491982.789 8        50.200    21787065.660 6  89214439.70946        38.900    21787065.430 7  89214441.709 7        46.900
G19  22815007.313 7 119893723.867 7        45.300    22815017.391 5  93423839.46445        32.800
G03  21001044.836 8 110361372.720 8        51.100    21001055.148 6  85995993.78546        39.600
G13  23575084.180 7 123887926.207 7        42.200    23575094.609 4  96536102.03944        25.300
G23  22155517.734 8 116428078.749 8        48.500    22155525.969 5  90723221.14945        34.900
G06  20134881.727 8 105809638.064 8        49.200    20134891.336 7  82449185.07647        43.400
> 2013  6 15  5 40  0.0000000  0 29
G21  23862532.094 6 125398536.611 6        39.400    23862542.922 3  97713204.04843        22.300
G16  20987261.602 8 110288921.385 8        51.700    20987269.609 7  85939491.30547        42.600
G31  21797406.828 8 114546378.434 8        50.000    21797417.359 6  89256825.86546        39.400    21797417.152 7  89256827.865 7        46.900
G19  22795417.547 7 119790779.038 7        45.000    22795427.668 5  93343622.82845        33.200
G03  20987439.773 8 110289879.501 8        51.200    20987450.133 6  85940284.83646        39.300
G13  23560754.469 6 123812624.626 6        40.200    23560765.492 4  96477425.54044        24.700
G23  22149637.547 7 116397174.804 7        47.900    22149645.777 5  90699140.14445        35.800
G06  20130352.094 8 105785836.344 8        50.200    20130361.961 7  82430638.30647        43.800
> 2013  6 15  5 40 30.0000000  0 29
G21  23862013.695 6 125395813.494 6        38.700    23862025.367 3  97711082.20643        22.800
G16  20987754.281 8 110291509.895 8        51.200    20987762.113 7  85941508.33047        42.800
G31  21807822.422 8 114601110.759 8        48.000    21807832.566 6  89299474.36546        39.400    21807832.180 7  89299476.366 7        47.200
G19  22775880.570 7 119688112.579 7        43.700    22775890.773 5  93263623.10745        32.600
G03  20973915.453 8 110218810.087 8        51.100    20973926.230 6  85884906.11346        39.200
G13  23546509.094 7 123737761.236 7        43.600    23546519.559 4  96419090.48244        24.000
G23  22143865.594 8 116366842.242 8        48.300    22143873.449 6  90675504.37146        36.200
G06  20125924.484 8 105762568.515 8        50.500    20125933.801 7  82412507.55147        43.900
> 2013  6 15  5 41  0.0000000  0 28
G21  23861572.602 6 125393494.884 6        39.200    23861584.223 3  97709275.53243        23.200
G16  20988278.742 8 110294266.059 8        50.200    20988286.660 7  85943656.00447        42.400
G31  21818301.797 8 114656179.975 8        50.100    21818311.695 6  89342385.36646        39.000    21818311.859 7  89342387.374 7        46.200
G19  22756396.891 7 119585726.785 7        44.300    22756407.105 5  93183842.08045        32.300
G03  20960472.734 8 110148165.873 8        51.300    20960482.664 6  85829858.72946        39.800
G13  23532346.758 7 123663338.555 7        43.300    23532357.176 4  96361098.83544        24.700
G23  22138202.273 8 116337082.017 8        49.400    22138210.039 6  90652314.59346        36.100
G06  20121598.133 8 105739834.540 8        51.000    20121607.961 7  82394792.78447        44.200
> 2013  6 15  5 41 30.0000000  0 29
G21  23861208.461 6 125391581.429 6        38.300    23861219.875 3  97707784.56743        22.900
G16  20988834.609 8 110297188.820 8        50.500    20988842.746 7  85945933.49047        42.700
G31  21828845.125 8 114711585.609 8        50.000    21828854.996 6  89385558.52446        38.300    21828854.996 7  89385560.525 7        46.300
G19  22736967.461 7 119483623.634 7        43.800    22736977.211 5  93104281.29845        32.500
G03  20947111.023 8 110077948.013 8        50.900    20947121.086 6  85775143.56646        40.300
G13  23518268.703 7 123589358.690 7        43.000    23518279.348 4  96303452.22744        24.600
G23  22132647.695 7 116307894.581 7        47.200    22132655.852 6  90629571.12846        36.900
G06  20117373.344 8 105717633.966 8        50.200    20117383.199 7  82377493.65447        43.500
> 2013  6 15  5 42  0.0000000  0 28
G21  23860922.023 6 125390074.373 6        38.700    23860932.031 3  97706610.27643        22.600
G16  20989422.398 8 110300277.919 8        51.400    20989431.035 7  85948340.58347        42.700
G31  21839452.867 7 114767327.968 7        47.000    21839462.504 6  89428994.05846        39.400    21839462.570 7  89428996.057 7        46.300
G19  22717592.281 7 119381805.937 7        44.900    22717601.996 5  93024942.93145        32.700
G03  20933830.258 8 110008158.170 8        50.900    20933840.344 6  85720761.91946        40.000
G13  23504275.711 6 123515824.497 6        41.100    23504285.617 4  96246152.89744        25.400
G23  22127203.234 8 116279281.186 8        48.200    22127211.555 6  90607274.96646        36.200
G06  20113250.227 8 105695966.992 8        51.000    20113259.809 7  82360610.31547        43.700
> 2013  6 15  5 42 30.0000000  0 29
G21  23860712.414 6 125388973.830 6        38.600    23860722.738 3  97705752.75743        23.300
G16  20990041.906 8 110303531.981 8        51.400    20990050.348 7  85950876.22447        43.400
G31  21850124.117 8 114823406.320 8        50.000    21850133.773 6  89472691.41446        39.000    21850133.715 7  89472693.407 7        46.100
G19  22698270.922 7 119280275.412 7        43.700    22698281.250 5  92945828.34945        32.600
G03  20920631.305 8 109938796.924 8        50.700    20920641.355 6  85666714.24046        39.900
G13  23490367.047 7 123442737.837 7        42.500    23490378.148 3  96189202.29843        22.900
G23  22121867.320 8 116251242.075 8        48.400    22121875.469 6  90585426.30046        36.300
G06  20109228.844 8 105674832.924 8        51.500    20109238.301 7  82344142.22347        43.300
> 2013  6 15  5 43  0.0000000  0 28
G21  23860580.742 7 125388280.049 7        42.000    23860590.957 3  97705212.18843        22.200
G16  20990692.070 8 110306949.407 8        51.800    20990700.660 7  85953539.15847        43.000
G31  21860859.297 7 114879819.948 7        47.600    21860868.977 6  89516650.01246        39.300    21860869.137 7  89516652.013 7        46.000
G19  22679005.461 7 119179033.740 7        43.900    22679015.473 5  92866938.85045        32.300
G03  20907513.648 8 109869864.669 8        49.400    20907523.551 6  85613000.84746        39.900
G13  23476544.602 7 123370100.149 7        42.000    23476555.469 3  96132601.54643        22.600
G23  22116640.891 8 116223777.275 8        48.500    22116649.180 5  90564025.15745        35.800
G06  20105308.180 8 105654230.769 8        51.000    20105317.770 7  82328088.60747        44.100
> 2013  6 15  5 43 30.0000000  0 28
G21  23860526.703 6 125387995.586 6        41.900    23860536.738 4  97704990.56944        24.300
G16  20991373.500 8 110310531.369 8        51.900    20991382.137 7  85956330.31647        42.700
G31  21871658.625 8 114936570.295 8        49.700    21871668.699 6  89560871.00246        39.000    21871668.621 7  89560873.003 7        46.200
G19  22659795.281 7 119078084.686 7        45.000    22659804.582 5  92788277.36445        33.100
G03  20894478.672 8 109801364.592 8        50.000    20894488.691 6  85559624.19846        39.900
G13  23462807.852 6 123297915.866 6        40.200    23462818.766 4  96076354.10044        24.500
G23  22111524.633 8 116196889.070 8        49.000    22111532.203 5  90543073.30545        35.800
G06  20101489.180 8 105634161.796 8        51.400    20101498.773 7  82312450.45147        43.700
> 2013  6 15  5 44  0.0000000  0 28
G21  23860549.836 6 125388119.188 6        39.800    23860560.078 3  97705086.93343        23.600
G16  20992086.352 8 110314275.170 8        51.000    20992094.563 7  85959247.57047        42.700
G31  21882521.438 8 114993655.437 8        49.000    21882531.176 6  89605352.86846        39.200    21882531.340 7  89605354.867 7        46.000
G19  22640641.492 7 118977429.028 7        45.200    22640650.695 5  92709844.50045        33.000
G03  20881525.508 8 109733295.863 8        50.700    20881535.332 6  85506583.68346        40.000
G13  23449158.727 6 123226185.243 6        39.900    23449169.176 3  96020460.13343        22.600
G23  22106517.031 8 116170576.381 8        48.900    22106525.035 5  90522569.90945        35.900
G06  20097770.984 8 105614624.018 8        50.900    20097780.875 7  82297226.21847        43.700
> 2013  6 15  5 44 30.0000000  0 28
G21  23860650.969 6 125388653.010 6        40.100    23860661.797 3  97705502.95543        22.900
G16  20992829.578 8 110318181.213 8        52.300    20992837.820 7  85962291.25347        43.000
G31  21893448.078 8 115051076.322 8        48.800    21893458.383 6  89650096.33946        39.000    21893458.207 7  89650098.340 7        45.900
G19  22621543.805 7 118877070.215 7        44.500    22621552.941 5  92631642.93945        33.600
G03  20868654.508 8 109665661.054 8        50.800    20868664.570 6  85453881.27746        40.200
G13  23435595.961 7 123154912.002 7        42.700    23435606.527 4  95964922.57944        24.100
G23  22101619.703 8 116144841.033 8        49.100    22101627.641 5  90502516.38445        35.700
G06  20094154.703 8 105595618.456 8        51.700    20094164.391 7  82282416.70347        43.600
> 2013  6 15  5 45  0.0000000  0 27
G21  23860831.039 6 125389597.447 6        40.400    23860840.961 3  97706238.89143        23.900
G16  20993603.484 8 110322248.559 8        51.500    20993611.586 7  85965460.62247        42.300
G31  21904439.227 8 115108832.468 8        48.800    21904449.051 6  89695101.07346        38.700    21904449.102 7  89695103.067 7        46.300
G19  22602503.117 7 118777010.205 7        45.100    22602512.535 5  92553674.21545        34.100
G03  20855867.016 8 109598461.121 8        51.300    20855877.332 6  85401517.74246        40.100
G13  23422120.172 7 123084098.131 7        43.500    23422131.531 4  95909742.95344        25.800
G23  22096832.516 8 116119683.540 8        49.200    22096840.547 5  90482913.14245        35.100
G06  20090638.883 8 105577144.454 8        51.400    20090648.824 7  82268021.39747        43.200
> 2013  6 15  5 45 30.0000000  0 27
G21  23861087.945 6 125390953.411 6        38.700    23861099.332 3  97707295.49943        22.900
G16  20994408.000 8 110326476.531 8        50.900    20994416.504 7  85968755.15847        42.300
G31  21915493.625 8 115166923.903 8        48.600    21915503.770 6  89740367.06146        38.600    21915503.230 7  89740369.062 7        46.300
G19  22583519.086 7 118677251.184 7        45.000    22583528.301 5  92475940.02945        33.300
G03  20843162.227 8 109531697.396 8        51.000    20843172.473 6  85349494.10746        40.300
G13  23408732.500 7 123013745.906 7        43.000    23408743.980 4  95854923.09144        24.700
G23  22092155.055 8 116095104.457 8        49.700    22092163.215 5  90463760.60045        35.900
G06  20087224.750 8 105559201.864 8        51.900    20087234.246 7  82254040.17847        43.400
> 2013  6 15  5 46  0.0000000  0 28
G21  23861424.563 6 125392720.537 6        40.100    23861435.332 4  97708672.51444        25.100
G16  20995243.031 8 110330863.474 8        50.500    20995251.012 7  85972173.56447        42.000
G31  21926611.500 8 115225349.369 8        48.000    21926621.770 6  89785893.34846        39.000    21926621.543 7  89785895.349 7        46.100
G19  22564593.203 7 118577794.604 7        44.800    22564602.047 5  92398441.50045        32.800
G03  20830540.586 8 109465369.721 8        51.000    20830550.801 6  85297810.25246        40.600
G13  23395432.836 6 122943856.992 6        41.400    23395443.949 4  95800464.24444        25.700
G23  22087587.945 8 116071103.403 8        48.200    22087596.156 5  90445058.47145        35.500
G06  20083911.367 8 105541789.104 8        51.800    20083920.910 7  82240471.80647        43.600
> 2013  6 15  5 46 30.0000000  0 28
G21  23861839.195 6 125394900.975 6        37.900    23861850.027 3  97710371.58343        22.300
G16  20996107.711 8 110335409.620 8        50.800    20996116.094 7  85975716.02347        42.500
G31  21937793.547 8 115284109.743 8        48.600    21937803.770 6  89831680.59846        38.100    21937803.223 7  89831682.599 7        46.300
G19  22545725.492 7 118478643.898 7        45.500    22545734.660 5  92321181.33645        33.500
G03  20818001.680 8 109399480.669 8        50.000    20818011.949 6  85246468.18046        40.900
G13  23382222.656 6 122874434.598 6        41.800    23382233.172 4  95746368.90244        25.800
G23  22083130.984 8 116047681.906 8        48.900    22083138.961 5  90426807.94845        35.900
G06  20080698.945 8 105524907.182 8        50.200    20080708.414 7  82227317.09247        43.500
> 2013  6 15  5 47  0.0000000  0 28
G21  23862333.367 6 125397494.820 6        41.000    23862343.973 4  97712392.81544        25.400
G16  20997003.234 8 110340114.307 8        50.300    20997011.598 7  85979382.02747        42.500
G31  21949039.188 8 115343204.401 8        48.700    21949048.703 6  89877728.33746        38.600    21949048.707 7  89877730.338 7        45.800
G19  22526916.367 7 118379801.004 7        45.300    22526925.281 5  92244161.00445        34.200
G03  20805547.398 8 109334030.778 8        50.500    20805557.820 6  85195468.30546        40.500
G13  23369101.203 7 122805480.655 7        43.100    23369111.984 3  95692638.57443        23.500
G23  22078784.375 7 116024840.327 7        47.300    22078792.777 6  90409009.30646        36.200
G06  20077586.750 8 105508555.229 8        50.500    20077596.516 7  82214575.33347        43.700
> 2013  6 15  5 47 30.0000000  0 28
G21  23862906.055 6 125400501.850 6        41.800    23862916.016 3  97714735.98643        23.400
G16  20997928.063 8 110344975.636 8        51.400    20997936.730 7  85983170.08647        42.100
G31  21960347.766 8 115402632.453 8        48.800    21960357.602 6  89924035.85446        37.600    21960357.582 7  89924037.855 7        45.800
G19  22508165.922 7 118281267.244 7        45.400    22508174.965 5  92167381.57445        33.500
G03  20793176.203 8 109269020.726 8        50.900    20793186.414 6  85144811.14346        40.200
G13  23356069.172 7 122736996.680 7        43.400    23356079.711 4  95639274.47644        25.600
G23  22074547.930 8 116002578.089 8        48.800    22074556.227 5  90391662.09645        35.500
G06  20074576.094 8 105492732.104 8        52.300    20074585.621 7  82202245.64347        43.400
> 2013  6 15  5 48  0.0000000  0 28
G21  23863556.969 6 125403924.587 6        39.200    23863567.184 3  97717403.08043        23.300
G16  20998883.188 8 110349994.488 8        51.300    20998891.543 7  85987080.89447        42.900
G31  21971720.227 8 115462394.903 8        48.100    21971730.090 6  89970603.94446        38.600    21971730.176 7  89970605.943 7        45.800
G19  22489475.023 7 118183046.579 7        45.300    22489484.441 5  92090846.09545        34.200
G03  20780889.680 8 109204452.826 8        50.300    20780899.934 6  85094498.52546        41.100
G13  23343126.398 7 122668986.303 7        42.800    23343137.813 4  95586279.39844        24.700
G23  22070422.586 8 115980897.458 8        49.800    22070430.543 5  90374768.09345        35.500
G06  20071665.664 8 105477438.734 8        51.800    20071675.563 7  82190328.74547        43.500
> 2013  6 15  5 48 30.0000000  0 28
G21  23864287.875 6 125407762.246 6        39.700    23864297.484 3  97720393.50943        23.600
G16  20999867.781 8 110355169.261 8        50.300    20999876.000 7  85991113.18547        42.300
G31  21983155.695 8 115522490.498 8        48.100    21983165.828 6  90017431.62846        38.000    21983166.039 7  90017433.627 7        45.700
G19  22470844.305 7 118085139.776 7        46.000    22470852.984 5  92014555.18145        34.400
G03  20768686.938 8 109140326.947 8        50.800    20768697.035 6  85044530.34146        40.500
G13  23330275.203 7 122601450.678 7        42.500    23330285.973 3  95533654.27843        22.600
G23  22066407.367 8 115959797.764 8        49.500    22066415.344 5  90358326.76245        35.800
G06  20068856.188 8 105462673.707 8        51.300    20068865.938 7  82178823.54547        43.300
> 2013  6 15  5 49  0.0000000  0 28
G21  23865096.664 6 125412015.802 6        40.600    23865106.770 4  97723708.02944        24.400
G16  21000882.211 8 110360499.290 8        50.700    21000890.195 6  85995266.45946        41.800
G31  21994654.906 8 115582919.102 8        48.900    21994664.992 6  90064518.80146        38.000    21994664.648 7  90064520.797 7        45.000
G19  22452272.477 7 117987549.483 7        45.600    22452281.793 5  91938510.91045        34.700
G03  20756568.227 8 109076644.552 8        49.900    20756578.074 6  84994907.72546        40.800
G13  23317514.422 7 122534392.063 7        43.500    23317525.477 3  95481400.86143        23.600
G23  22062503.086 8 115939279.587 8        50.600    22062511.047 6  90342338.56246        36.000
G06  20066147.164 8 105448436.698 8        52.000    20066156.441 7  82167729.79747        43.800
> 2013  6 15  5 49 30.0000000  0 28
G21  23865985.156 6 125416685.071 6        41.400    23865995.520 4  97727346.45844        24.700
G16  21001925.719 8 110365983.196 8        51.400    21001933.680 7  85999539.64047        42.700
G31  22006217.336 8 115643679.567 8        48.600    22006227.559 6  90111864.55246        37.900    22006227.504 7  90111866.547 7        45.800
G19  22433762.203 7 117890276.914 7        46.600    22433771.293 5  91862714.20245        34.200
G03  20744534.492 8 109013406.048 8        50.200    20744544.422 6  84945631.00646        40.600
G13  23304845.078 7 122467812.351 7        43.000    23304855.262 4  95429520.59644        24.900
G23  22058709.523 8 115919342.392 8        50.600    22058717.176 6  90326803.07146        36.500
G06  20063538.109 8 105434726.646 8        51.900    20063547.582 7  82157046.66247        43.600
> 2013  6 15  5 50  0.0000000  0 27
G21  23866952.914 6 125421771.177 6        41.200    23866964.016 3  97731309.68543        23.200
G16  21002998.703 8 110371620.586 8        52.300    21003007.156 7  86003932.40547        42.700
G31  22017843.063 7 115704772.205 7        47.300    22017853.484 6  90159469.14946        38.100    22017852.922 7  90159471.148 7        46.300
G19  22415312.797 7 117793324.991 7        45.700    22415321.684 5  91787167.34945        34.600
G03  20732585.125 8 108950612.720 8        50.100    20732595.500 6  84896701.17746        40.600
G13  23292267.008 7 122401713.932 7        43.600    23292277.125 4  95378015.38444        24.800
G23  22055025.969 8 115899986.876 8        50.400    22055033.820 5  90311720.84845        35.800
G06  20061029.133 8 105421542.959 8        53.300    20061038.980 7  82146773.67947        44.100
> 2013  6 15  5 50 30.0000000  0 28
G21  23867999.344 6 125427275.453 6        40.900    23868011.320 3  97735598.74943        22.200
G16  21004100.508 8 110377411.820 8        51.400    21004108.742 7  86008445.05247        42.000
G31  22029531.477 7 115766197.394 7        46.900    22029541.684 6  90207332.88146        37.600    22029541.770 7  90207334.882 7        45.600
G19  22396925.117 7 117696696.823 7        46.000    22396934.109 5  91711872.78145        34.500
G03  20720721.172 8 108888266.536 8        50.000    20720731.152 6  84848119.76746        41.200
G13  23279781.172 7 122336099.610 7        44.700    23279790.566 4  95326887.37644        24.600
G23  22051453.828 8 115881214.581 8        50.400    22051461.590 6  90297093.06946        36.500
G06  20058620.547 8 105408886.114 8        52.100    20058630.457 7  82136911.22447        43.700
> 2013  6 15  5 51  0.0000000  0 28
G21  23869126.875 6 125433197.319 6        41.600    23869137.941 4  97740213.21744        25.300
G16  21005231.250 8 110383355.092 8        51.800    21005239.543 6  86013076.17546        41.800
G31  22041283.586 7 115827953.769 7        46.900    22041293.961 6  90255454.67646        37.700    22041293.684 7  90255456.677 7        46.400
G19  22378598.898 7 117600393.266 7        45.400    22378608.012 5  91636831.15645        34.300
G03  20708941.859 8 108826366.961 8        50.300    20708951.754 6  84799886.36346        41.000
G13  23267386.953 7 122270970.592 7        42.000    23267398.012 4  95276137.54644        24.200
G23  22047992.055 8 115863024.744 8        50.300    22048000.336 6  90282919.16546        36.200
G06  20056311.961 8 105396754.571 8        51.400    20056321.695 7  82127458.10547        43.800
> 2013  6 15  5 51 30.0000000  0 27
G21  23870333.273 6 125439537.556 6        41.500    23870344.391 3  97745153.71443        23.000
G16  21006391.008 8 110389449.869 8        51.600    21006399.660 6  86017825.35446        41.700
G31  22053098.656 7 115890040.925 7        47.200    22053108.527 6  90303834.22146        37.900    22053108.824 7  90303836.229 7        45.800
G19  22360335.461 7 117504416.450 7        47.200    22360344.148 5  91562044.12645        35.000
G03  20697248.328 8 108764915.257 8        50.200    20697257.883 6  84752001.94846        41.100
G13  23255086.219 7 122206328.866 7        43.100    23255096.484 4  95225767.40144        24.700
G23  22044641.641 8 115845417.331 8        50.800    22044649.590 6  90269199.09046        36.100
G06  20054103.227 8 105385147.802 8        52.900    20054112.945 7  82118413.89547        43.600
> 2013  6 15  5 52  0.0000000  0 28
G21  23871620.023 6 125446297.067 6        41.900    23871630.875 3  97750420.87843        23.600
G16  21007580.016 8 110395696.215 8        51.300    21007587.953 7  86022692.64347        42.300
G31  22064976.602 7 115952459.501 7        47.300    22064986.613 6  90352472.01146        37.700    22064986.359 7  90352474.012 7        45.300
G19  22342133.961 7 117408769.845 7        46.000    22342142.742 5  91487514.40745        33.800
G03  20685639.938 8 108703913.643 8        50.400    20685650.004 6  84704468.25746        40.900
G13  23242878.367 7 122142177.573 7        43.700    23242888.777 4  95175779.42444        24.100
G23  22041401.969 8 115828393.581 8        50.300    22041409.922 6  90255933.81946        36.400
G06  20051994.531 8 105374066.025 8        52.200    20052004.094 7  82109778.76147        43.400
> 2013  6 15  5 52 30.0000000  0 27
G21  23872986.203 6 125453475.963 6        40.400    23872996.793 3  97756014.84943        22.800
G16  21008797.344 8 110402092.864 8        51.100    21008805.492 7  86027677.04247        42.100
G31  22076917.320 7 116015208.294 7        46.800    22076927.668 6  90401367.10946        37.600    22076927.684 7  90401369.110 7        45.600
G19  22323996.391 7 117313454.404 7        46.400    22324005.703 5  91413242.73345        35.400
G03  20674117.188 8 108643362.115 8        50.200    20674127.348 6  84657285.28246        41.600
G13  23230764.344 7 122078518.383 7        42.000    23230775.441 4  95126174.89344        27.000
G23  22038273.508 8 115811953.181 8        50.500    22038281.961 6  90243123.10846        36.900
G06  20049985.109 8 105363507.935 8        51.800    20049994.621 7  82101551.70447        43.700
> 2013  6 15  5 53  0.0000000  0 26
G21  23874431.828 6 125461074.434 6        38.900    23874442.957 4  97761935.75044        24.000
G16  21010042.797 8 110408638.900 8        50.200    21010051.230 7  86032777.84547        42.200
G31  22088920.609 7 116078286.659 7        46.700    22088930.957 6  90450519.02446        37.300    22088931.223 7  90450521.023 7        45.100
G19  22305921.211 7 117218472.158 7        45.700    22305930.484 5  91339230.68845        35.200
G03  20662680.156 8 108583261.275 8        50.800    20662690.406 6  84610453.49346        41.800
G13  23218744.109 6 122015352.899 6        41.300    23218755.145 4  95076955.08144        25.600
G23  22035255.922 8 115796096.035 8        50.900    22035264.449 5  90230766.88145        35.800
G06  20048075.883 8 105353472.725 8        51.300    20048085.020 7  82093732.07847        43.700
> 2013  6 15  5 53 30.0000000  0 27
G21  23875958.008 6 125469094.340 6        38.700    23875969.316 4  97768185.04744        25.400
G16  21011317.148 8 110415335.122 8        50.100    21011325.125 7  86037995.67247        42.900
G31  22100987.063 7 116141695.717 7        47.000    22100997.234 6  90499928.61646        38.000    22100997.172 7  90499930.609 7        45.200
G19  22287910.734 7 117123826.750 7        45.700    22287920.715 5  91265481.11245        34.800
G03  20651329.805 8 108523613.266 8        51.700    20651339.852 6  84563974.56446        40.900
G13  23206818.773 7 121952684.597 7        42.400    23206829.746 4  95028122.66044        25.600
G23  22032349.734 8 115780823.320 8        50.900    22032357.902 5  90218866.04345        35.900
G06  20046265.531 8 105343960.684 8        51.700    20046275.176 7  82086320.10947        43.600
> 2013  6 15  5 54  0.0000000  0 27
G21  23877564.391 7 125477535.216 7        42.400    23877575.895 3  97774762.40743        22.800
G16  21012619.625 8 110422179.882 8        51.900    21012627.949 7  86043329.25347        42.100
G31  22113116.359 7 116205433.981 7        46.800    22113126.070 6  90549594.73346        37.300    22113125.863 7  90549596.733 7        45.500
G19  22269964.523 7 117029519.424 7        46.000    22269974.410 5  91191994.97145        35.800
G03  20640065.195 8 108464418.375 8        50.500    20640075.445 6  84517848.71246        41.200
G13  23194988.641 6 121890514.528 6        41.200    23194999.617 4  94979678.49644        26.700
G23  22029554.305 8 115766134.614 8        50.100    22029562.754 6  90207420.29346        36.200
G06  20044554.734 8 105334970.768 8        52.200    20044564.523 7  82079315.00247        43.700
> 2013  6 15  5 54 30.0000000  0 26
G21  23879250.609 7 125486397.092 7        42.400    23879261.621 3  97781667.79743        23.500
G16  21013950.375 8 110429172.107 8        51.500    21013958.551 7  86048777.73547        42.300
G31  22125307.617 7 116269500.562 7        47.000    22125318.422 6  90599516.68246        37.600    22125317.879 7  90599518.682 7        45.700
G19  22252082.992 7 116935551.666 7        45.600    22252092.891 5  91118773.42945        35.100
G03  20628887.414 8 108405676.846 8        50.500    20628897.293 6  84472076.12646        41.800
G13  23183253.563 6 121828844.276 6        41.500    23183263.797 4  94931623.76544        27.200
G23  22026870.461 8 115752029.736 8        50.100    22026879.281 6  90196429.46746        36.100
G06  20042943.281 8 105326501.440 8        52.500    20042952.723 7  82072715.54047        44.300
> 2013  6 15  5 55  0.0000000  0 26
G21  23881017.195 6 125495681.263 6        38.100    23881027.965 3  97788902.22843        22.500
G16  21015308.961 8 110436312.333 8        50.800    21015317.215 7  86054341.54747        42.900
G31  22137561.992 7 116333896.082 7        47.700    22137572.645 6  90649694.94946        37.700    22137572.391 7  90649696.950 7        45.300
G19  22234266.523 7 116841926.559 7        45.200    22234276.574 6  91045818.90646        36.400
G03  20617795.734 8 108347390.902 8        49.600    20617805.598 6  84426658.54246        41.700
G13  23171613.172 6 121767676.939 6        41.100    23171623.895 4  94883960.94344        24.400
G23  22024297.820 8 115738509.548 8        50.000    22024306.199 5  90185894.24845        35.800
G06  20041430.414 8 105318553.174 8        51.200    20041440.059 7  82066522.10947        43.600
> 2013  6 15  5 55 30.0000000  0 26
G21  23882864.508 7 125505386.756 7        42.800    23882874.324 3  97796464.98843        22.600
G16  21016695.297 8 110443598.257 8        51.100    21016703.590 7  86060018.88447        42.600
G31  22149878.398 7 116398618.739 7        47.200    22149888.285 6  90700128.12746        37.400    22149887.863 7  90700130.128 7        45.700
G19  22216516.398 7 116748644.747 7        45.800    22216525.469 6  90973131.86846        36.400
G03  20606790.594 8 108289559.640 8        50.200    20606800.527 6  84381595.25846        41.500
G13  23160069.516 7 121707013.069 7        43.000    23160079.656 4  94836690.41344        26.700
G23  22021835.695 8 115725572.800 8        50.500    22021843.914 5  90175813.64945        35.700
G06  20040016.992 8 105311123.595 8        51.000    20040026.090 7  82060732.84347        44.100
> 2013  6 15  5 56  0.0000000  0 25
G21  23884792.055 6 125515514.857 6        41.900    23884802.266 3  97804357.03243        21.800
G16  21018109.664 8 110451030.600 8        50.800    21018117.969 7  86065810.31547        42.400
G31  22162256.586 7 116463668.854 7        46.000    22162267.516 6  90750816.47546        37.200    22162267.203 7  90750818.476 7        45.200
G19  22198831.094 7 116655709.526 7        45.500    22198840.270 5  90900714.90145        35.900
G03  20595872.789 8 108232185.204 8        50.600    20595882.871 6  84336887.93446        41.900
G13  23148621.727 7 121646855.814 7        43.700    23148632.012 4  94789814.64744        26.000
G23  22019485.375 8 115713220.552 8        50.300    22019493.703 5  90166188.51045        35.900
G06  20038701.789 8 105304213.099 8        51.500    20038711.184 7  82055348.07047        44.400
> 2013  6 15  5 56 30.0000000  0 25
G21  23886799.242 6 125526065.182 6        40.800    23886809.918 3  97812578.08643        22.500
G16  21019551.336 8 110458607.686 8        50.300    21019559.625 7  86071714.53647        42.200
G31  22174697.523 7 116529045.085 7        46.600    22174707.922 6  90801758.93546        37.100    22174707.391 7  90801760.936 7        45.000
G19  22181212.445 7 116563121.802 7        44.900    22181221.473 6  90828568.71246        36.400
G03  20585041.602 8 108175267.146 8        50.600    20585051.762 7  84292536.24047        42.000
G13  23137270.508 7 121587205.629 7        43.900    23137280.531 4  94743334.01144        25.700
G23  22017246.156 8 115701451.699 8        50.000    22017254.273 6  90157017.96046        36.100
G06  20037485.289 8 105297819.785 8        52.100    20037494.660 7  82050366.28347        43.900
> 2013  6 15  5 57  0.0000000  0 25
G21  23888887.320 6 125537038.405 6        41.400    23888897.273 3  97821128.66143        22.300
G16  21021021.492 8 110466329.665 8        50.700    21021029.426 7  86077731.66047        42.200
G31  22187200.219 7 116594747.751 7        46.300    22187210.691 6  90852955.75746        36.300    22187210.387 7  90852957.758 7        45.100
G19  22163659.695 7 116470884.085 7        44.300    22163669.348 6  90756695.24246        36.500
G03  20574297.766 8 108118806.795 8        50.300    20574307.547 7  84248541.18647        42.200
G13  23126016.570 6 121528065.313 6        41.600    23126027.098 4  94697250.66144        26.800
G23  22015117.570 8 115690266.767 8        49.600    22015125.477 5  90148302.41545        35.900
G06  20036367.078 8 105291943.530 8        51.000    20036376.516 7  82045787.41047        43.900
> 2013  6 15  5 57 30.0000000  0 25
G21  23891055.703 6 125548434.849 6        38.500    23891066.086 3  97830009.04043        21.800
G16  21022518.031 8 110474195.610 8        50.400    21022526.035 7  86083860.96447        42.800
G31  22199765.188 7 116660775.639 7        45.800    22199775.410 6  90904405.99846        36.900    22199775.184 7  90904407.999 7        45.000
G19  22146174.359 7 116378998.524 7        45.000    22146183.527 5  90685096.18245        35.900
G03  20563640.594 8 108062804.803 8        50.200    20563650.613 7  84204903.31047        42.200
G13  23114859.813 6 121469436.575 6        41.100    23114869.926 4  94651565.96344        24.300
G23  22013100.078 8 115679665.482 8        50.800    22013108.344 5  90140041.65845        35.500
G06  20035347.242 8 105286583.111 8        51.800    20035356.297 7  82041610.48547        43.700
> 2013  6 15  5 58  0.0000000  0 25
G21  23893304.867 6 125560254.558 6        41.800    23893315.441 3  97839219.25043        22.000
G16  21024042.031 8 110482204.430 8        51.300    21024050.484 7  86090101.60347        42.200
G31  22212391.836 7 116727128.423 7        46.000    22212401.816 6  90956109.39246        37.000    22212401.840 7  90956111.393 7        44.600
G19  22128756.453 7 116287466.915 7        44.300    22128765.434 6  90613772.93646        36.100
G03  20553071.109 8 108007261.523 8        50.600    20553080.719 6  84161622.86246        41.700
G13  23103800.656 6 121411321.374 6        40.900    23103811.063 4  94606281.41344        25.500
G23  22011193.867 8 115669647.912 8        50.100    22011202.109 6  90132235.74446        36.100
G06  20034425.031 8 105281737.853 8        52.600    20034434.531 7  82037834.97047        43.700
> 2013  6 15  5 58 30.0000000  0 25
G21  23895635.305 7 125572497.670 7        42.700    23895645.109 3  97848759.37043        22.200
G16  21025593.219 8 110490355.714 8        50.700    21025601.438 7  86096453.25047        42.500
G31  22225080.180 7 116793805.330 7        45.800    22225090.449 6  91008065.35846        37.300    22225090.219 7  91008067.357 7        45.400
G19  22111406.047 7 116196291.282 7        44.300    22111415.406 6  90542727.07546        36.000
G03  20542589.031 8 107952177.841 8        49.900    20542598.676 7  84118700.54447        42.300
G13  23092840.031 7 121353721.297 7        44.100    23092851.129 4  94561398.27544        26.700
G23  22009398.484 8 115660213.644 8        49.200    22009406.516 6  90124884.35546        36.000
G06  20033600.906 8 105277406.485 8        51.400    20033610.367 7  82034459.89547        44.100
> 2013  6 15  5 59  0.0000000  0 25
G21  23898045.797 6 125585165.464 6        41.400    23898055.809 3  97858630.41443        22.900
G16  21027171.445 8 110498649.832 8        50.700    21027180.168 7  86102916.20647        42.100
G31  22237829.734 7 116860806.634 7        45.900    22237840.410 6  91060274.09146        36.900    22237840.102 7  91060276.086 7        44.700
G19  22094124.422 7 116105474.168 7        44.800    22094132.918 6  90471960.58446        36.400
G03  20532194.688 8 107897555.523 8        50.000    20532204.590 6  84076137.72846        41.600
G13  23081978.055 7 121296638.957 7        43.600    23081987.465 4  94516918.56144        27.200
G23  22007714.000 8 115651363.142 8        49.600    22007722.313 5  90117987.84945        35.500
G06  20032874.086 8 105273589.115 8        50.500    20032883.695 7  82031485.33647        43.800
> 2013  6 15  5 59 30.0000000  0 25
G21  23900537.453 6 125598257.129 6        41.700    23900547.285 3  97868831.75643        22.900
G16  21028776.539 8 110507085.255 8        50.300    21028784.965 7  86109489.26447        42.300
G31  22250641.180 7 116928131.009 7        46.100    22250651.883 6  91112734.57346        36.800    22250651.711 7  91112736.574 7        45.100
G19  22076911.023 7 116015017.059 7        44.800    22076919.371 6  90401474.60846        36.700
G03  20521888.164 8 107843394.296 8        50.000    20521898.000 7  84033934.20747        42.000
G13  23071213.430 7 121240075.693 7        42.000    23071224.203 4  94472843.31544        26.700
G23  22006141.234 8 115643095.893 8        50.200    22006149.590 6  90111545.82146        36.800
G06  20032245.398 8 105270283.956 8        50.800    20032255.027 7  82028909.89747        44.400
